code,min.sec,lat,lon,dist,yaw,roll,pitch,yaw_to_goal,motor_left,motor_right,stack,seq,data,latitude,longitude
1,0.4,0,0,244,281.25,0,0,0,0,0,0,1,173.8 altNRdy,0,0
1,0.5,0,0,15,303.75,0,0,0,0,0,0,1,173.8 altNRdy,0,0
1,0.4,0,0,244,270,0,0,0,0,0,0,1,170.5 altNRdy,0,0
1,0.5,0,0,244,281.25,0,0,0,0,0,0,1,170.5 altNRdy,0,0
1,0.6,0,0,15,281.25,0,0,0,0,0,0,1,170.5 altNRdy,0,0
1,0.7,0,0,244,281.25,0,0,0,0,0,0,1,170.5 altNRdy,0,0
1,0.8,0,0,244,281.25,0,0,0,0,0,0,1,170.5 altNRdy,0,0
1,0.9,0,0,244,281.25,0,0,0,0,0,0,1,170.5 altNRdy,0,0
1,0.1,0,0,244,281.25,0,0,0,0,0,0,1,170.5 altNRdy,0,0
1,0.11,0,0,244,281.25,0,0,0,0,0,0,1,170.5 altNRdy,0,0
1,0.12,0,0,244,281.25,0,0,0,0,0,0,1,170.5 altNRdy,0,0
1,0.13,0,0,244,281.25,0,0,0,0,0,0,1,170.5 altNRdy,0,0
1,0.15,0,0,244,281.25,0,0,0,0,0,0,1,170.5 altNRdy,0,0
1,0.16,0,0,15,281.25,0,0,0,0,0,0,1,170.5 altNRdy,0,0
1,0.17,0,0,244,281.25,0,0,0,0,0,0,1,170.5 altNRdy,0,0
1,0.18,0,0,244,281.25,0,0,0,0,0,0,1,170.5 altNRdy,0,0
1,0.19,0,0,244,225,0,0,0,0,0,0,1,170.5 altNRdy,0,0
1,0.2,0,0,244,247.5,0,0,0,0,0,0,1,170.5 altNRdy,0,0
1,0.21,0,0,244,236.25,0,0,0,0,0,0,1,170.8 c5 Rise,0,0
1,0.22,0,0,244,180,0,0,0,0,0,0,1,170.8 c5 Rise,0,0
1,0.23,0,0,244,180,0,0,0,0,0,0,1,170.8 c5 Rise,0,0
1,0.24,0,0,244,191.25,0,0,0,0,0,0,1,170.8 c5 Rise,0,0
1,0.25,0,0,244,202.5,0,0,0,0,0,0,1,170.8 c5 Rise,0,0
1,0.26,0,0,244,225,0,0,0,0,0,0,1,170.8 c5 Rise,0,0
1,0.27,0,0,15,236.25,22.5,0,0,0,0,0,1,171.3 c5 Fall,0,0
1,0.28,0,0,3,270,0,0,0,0,0,0,1,171.3 c5 Fall,0,0
1,0.29,0,0,244,292.5,11.2,0,0,0,0,0,1,171.3 c5 Fall,0,0
1,0.3,0,0,244,303.75,0,0,0,0,0,0,1,171.3 c5 Fall,0,0
1,0.31,0,0,15,303.75,0,0,0,0,0,0,6,0.1 s0.06 a -0 L,0,0
1,0.32,0,0,3,337.5,0,0,0,0,0,0,6,NC 1 Heata -0 L,0,0
1,0.33,0,0,21,348.75,0,0,0,0,0,0,6,NC 3 Heata -0 L,0,0
1,0.34,0,0,244,348.75,0,11.2,0,0,0,0,6,NC 5 Heata -0 L,0,0
1,0.35,0,0,244,348.75,0,22.5,0,0,0,0,2,NC 0 Donea -0 L,0,0
1,0.36,0,0,15,292.5,0,11.2,0,0,2,0,2,t2.05 Right-0 L,0,0
1,0.37,0,0,15,315,0,11.2,0,0,2,0,2,t1.71 Right-0 L,0,0
1,0.38,0,0,15,326.25,0,0,0,0,2,0,2,t1.40 Right-0 L,0,0
1,0.39,0,0,15,326.25,0,0,0,0,2,0,2,t1.35 Right-0 L,0,0
1,0.41,0,0,3,326.25,0,0,0,0,2,0,2,t1.35 Right-0 L,0,0
1,0.42,0,0,21,326.25,0,0,0,0,2,0,2,t1.35 Right-0 L,0,0
1,0.43,0,0,15,337.5,0,0,0,0,2,0,2,t1.41 Right-0 L,0,0
1,0.44,0,0,3,326.25,0,0,0,0,2,0,2,t1.41 Right-0 L,0,0
1,0.45,0,0,15,337.5,0,0,0,0,2,0,2,t1.40 Right-0 L,0,0
1,0.46,0,0,3,326.25,0,0,0,0,2,0,2,t1.40 Right-0 L,0,0
1,0.47,0,0,21,326.25,0,0,0,0,2,0,2,t1.40 Right-0 L,0,0
1,0.48,0,0,15,337.5,0,0,0,0,2,0,2,t1.42 Right-0 L,0,0
1,0.49,0,0,244,326.25,0,0,0,0,0,1,2,stack left-0 L,0,0
1,0.5,0,0,244,326.25,0,0,0,0,0,1,2,stack left-0 L,0,0
1,0.51,0,0,244,326.25,0,0,0,0,0,1,2,stack left-0 L,0,0
1,0.52,0,0,244,326.25,0,0,0,0,0,1,2,stack left-0 L,0,0
1,0.53,0,0,15,326.25,0,0,0,0,0,1,2,stack left-0 L,0,0
1,0.54,0,0,3,326.25,0,0,0,0,0,1,2,stack left-0 L,0,0
1,0.55,0,0,244,326.25,0,0,0,0,0,1,2,stack left-0 L,0,0
1,0.56,0,0,244,326.25,0,0,0,0,0,1,2,stack left-0 L,0,0
1,0.57,0,0,244,326.25,0,0,0,0,0,1,2,stack left-0 L,0,0
1,0.58,34801631,135770948,10,326.25,0,0,0,0,0,1,2,stack left-0 L,34.801631,135.770948
1,0.59,34801631,135770948,10,326.25,0,0,0,0,0,1,2,stack left-0 L,34.801631,135.770948
1,1,34801630,135770948,10,326.25,0,0,0,0,0,1,2,stack left-0 L,34.80163,135.770948
1,1.1,34801629,135770949,9,326.25,0,0,0,0,0,1,2,stack left-0 L,34.801629,135.770949
1,1.2,34801629,135770949,9,326.25,0,0,0,2,0,0,2,t-0.65 Leftk cn,34.801629,135.770949
1,1.3,34801625,135770952,9,337.5,0,0,0,2,0,0,2,t-0.99 Leftk cn,34.801625,135.770952
1,1.4,34801626,135770950,9,348.75,0,0,0,2,0,0,2,t-1.11 Leftk cn,34.801626,135.77095
1,1.5,34801626,135770950,9,11.25,0,0,0,2,0,0,2,t-1.11 Leftk cn,34.801626,135.77095
1,1.7,34801626,135770950,9,348.75,0,0,0,2,0,0,2,t-1.11 Leftk cn,34.801626,135.77095
1,1.8,34801624,135770951,9,337.5,0,0,0,2,0,0,2,t-0.94 Leftk cn,34.801624,135.770951
1,1.9,34801624,135770951,9,11.25,0,0,0,2,0,0,2,t-0.94 Leftk cn,34.801624,135.770951
1,1.1,34801623,135770952,9,348.75,0,0,0,2,0,0,2,t-1.06 Leftk cn,34.801623,135.770952
1,1.11,34801623,135770952,8,22.5,0,0,0,2,0,0,2,t-1.06 Leftk cn,34.801623,135.770952
1,1.12,34801623,135770952,8,348.75,0,0,0,2,0,0,2,t-1.06 Leftk cn,34.801623,135.770952
1,1.13,34801622,135770954,8,337.5,0,0,0,2,0,0,2,t-1.01 Leftk cn,34.801622,135.770954
1,1.14,34801622,135770954,8,11.25,0,0,0,2,0,0,2,t-1.01 Leftk cn,34.801622,135.770954
1,1.15,34801622,135770954,8,348.75,0,0,0,2,0,0,2,t-1.01 Leftk cn,34.801622,135.770954
1,1.16,34801622,135770954,8,337.5,0,0,0,2,0,0,2,t-1.01 Leftk cn,34.801622,135.770954
1,1.17,34801622,135770954,8,337.5,0,0,0,2,0,0,2,t-1.01 Leftk cn,34.801622,135.770954
1,1.18,34801621,135770958,8,45,0,0,0,2,0,0,2,t-0.98 Leftk cn,34.801621,135.770958
1,1.19,34801621,135770958,8,0,0,0,0,2,0,0,2,t-0.98 Leftk cn,34.801621,135.770958
1,1.2,34801621,135770958,8,348.75,0,0,0,2,0,0,2,t-0.98 Leftk cn,34.801621,135.770958
1,1.21,34801621,135770959,8,45,0,0,0,2,0,0,2,t-1.05 Leftk cn,34.801621,135.770959
1,1.22,34801621,135770959,8,0,0,0,0,2,0,0,2,t-1.05 Leftk cn,34.801621,135.770959
1,1.23,34801621,135770959,8,348.75,0,0,0,2,0,0,2,t-1.05 Leftk cn,34.801621,135.770959
1,1.24,34801621,135770959,8,348.75,0,0,0,2,0,0,2,t-1.05 Leftk cn,34.801621,135.770959
1,1.25,34801621,135770959,7,348.75,0,0,0,2,0,0,2,t-1.05 Leftk cn,34.801621,135.770959
1,1.26,34801621,135770959,7,348.75,0,0,0,2,0,0,2,t-1.05 Leftk cn,34.801621,135.770959
1,1.27,34801621,135770959,7,348.75,0,0,0,2,0,0,2,t-1.05 Leftk cn,34.801621,135.770959
1,1.28,34801622,135770963,8,348.75,0,0,0,2,0,0,2,t-1.01 Leftk cn,34.801622,135.770963
1,1.29,34801622,135770963,8,11.25,0,0,0,2,0,0,2,t-1.01 Leftk cn,34.801622,135.770963
1,1.3,34801622,135770963,7,348.75,0,0,0,2,0,0,2,t-1.01 Leftk cn,34.801622,135.770963
1,1.31,34801622,135770965,8,348.75,0,0,0,2,0,0,2,t-1.04 Leftk cn,34.801622,135.770965
1,1.33,34801622,135770965,7,22.5,0,0,0,2,0,0,2,t-1.04 Leftk cn,34.801622,135.770965
1,1.34,34801622,135770965,7,348.75,0,0,0,2,0,0,2,t-1.04 Leftk cn,34.801622,135.770965
1,1.35,34801622,135770965,8,348.75,0,0,0,2,0,0,2,t-1.07 Leftk cn,34.801622,135.770965
1,1.36,34801622,135770965,7,22.5,0,0,0,2,0,0,2,t-1.07 Leftk cn,34.801622,135.770965
1,1.37,34801622,135770965,7,11.25,0,0,0,2,0,0,2,t-1.07 Leftk cn,34.801622,135.770965
1,1.38,34801621,135770966,7,0,0,0,0,2,0,0,2,t-1.32 Leftk cn,34.801621,135.770966
1,1.39,34801621,135770966,7,22.5,0,0,0,2,0,0,2,t-1.32 Leftk cn,34.801621,135.770966
1,1.4,34801621,135770966,7,0,0,0,0,2,0,0,2,t-1.32 Leftk cn,34.801621,135.770966
1,1.41,34801621,135770966,7,348.75,0,0,0,2,0,0,2,t-1.32 Leftk cn,34.801621,135.770966
1,1.42,34801621,135770966,7,348.75,0,0,0,2,0,0,2,t-1.32 Leftk cn,34.801621,135.770966
1,1.43,34801621,135770965,7,56.25,0,0,0,2,0,0,2,t-1.11 Leftk cn,34.801621,135.770965
1,1.44,34801621,135770965,7,78.75,0,0,0,2,0,0,2,t-1.67 Leftk cn,34.801621,135.770965
1,1.45,34801621,135770965,7,33.75,0,0,0,2,0,0,2,t-1.67 Leftk cn,34.801621,135.770965
1,1.46,34801621,135770965,7,11.25,0,0,0,2,0,0,2,t-1.67 Leftk cn,34.801621,135.770965
1,1.47,34801621,135770965,7,11.25,0,0,0,2,0,0,2,t-1.67 Leftk cn,34.801621,135.770965
1,1.48,34801621,135770965,7,11.25,0,0,0,2,0,0,2,t-1.67 Leftk cn,34.801621,135.770965
1,1.49,34801620,135770966,7,67.5,0,0,0,2,0,0,2,t-1.42 Leftk cn,34.80162,135.770966
1,1.5,34801620,135770966,7,22.5,0,0,0,2,0,0,2,t-1.42 Leftk cn,34.80162,135.770966
1,1.51,34801620,135770966,7,11.25,0,0,0,2,0,0,2,t-1.42 Leftk cn,34.80162,135.770966
1,1.52,34801620,135770966,7,0,0,0,0,2,0,0,2,t-1.42 Leftk cn,34.80162,135.770966
1,1.53,34801620,135770966,7,0,0,0,0,2,0,0,2,t-1.42 Leftk cn,34.80162,135.770966
1,1.54,34801620,135770966,7,0,0,0,0,2,0,0,2,t-1.42 Leftk cn,34.80162,135.770966
1,1.55,34801619,135770965,7,348.75,0,0,0,2,0,0,2,t-1.20 Leftk cn,34.801619,135.770965
1,1.56,34801619,135770965,7,33.75,0,0,0,2,0,0,2,t-1.20 Leftk cn,34.801619,135.770965
1,1.57,34801619,135770965,7,0,0,0,0,2,0,0,2,t-1.20 Leftk cn,34.801619,135.770965
1,1.59,34801619,135770965,7,0,0,0,0,2,0,0,2,t-1.20 Leftk cn,34.801619,135.770965
1,2,34801619,135770965,7,0,0,0,0,2,0,0,2,t-1.20 Leftk cn,34.801619,135.770965
1,2.1,34801618,135770965,7,0,0,0,0,2,0,0,2,t-1.23 Leftk cn,34.801618,135.770965
1,2.2,34801618,135770964,7,33.75,0,0,0,2,0,0,2,t-1.84 Leftk cn,34.801618,135.770964
1,2.3,34801618,135770964,7,45,0,0,0,2,0,0,2,t-2.16 Leftk cn,34.801618,135.770964
1,2.4,34801618,135770964,7,56.25,0,0,0,2,0,0,2,t-2.16 Leftk cn,34.801618,135.770964
1,2.5,34801618,135770964,7,11.25,0,0,0,2,0,0,2,t-2.16 Leftk cn,34.801618,135.770964
1,2.6,34801618,135770964,7,0,0,0,0,2,0,0,2,t-2.16 Leftk cn,34.801618,135.770964
1,2.7,34801618,135770964,7,0,0,0,0,2,0,0,2,t-1.23 Leftk cn,34.801618,135.770964
1,2.8,34801618,135770964,7,33.75,0,0,0,2,0,0,2,t-1.23 Leftk cn,34.801618,135.770964
1,2.9,34801617,135770964,7,78.75,0,0,0,2,0,0,2,t-1.62 Leftk cn,34.801617,135.770964
1,2.1,34801617,135770964,7,78.75,0,0,0,2,0,0,2,t-2.16 Leftk cn,34.801617,135.770964
1,2.11,34801617,135770964,7,90,0,0,0,2,0,0,2,t-2.24 Leftk cn,34.801617,135.770964
1,2.12,34801617,135770964,7,90,0,0,0,2,0,0,2,t-2.27 Leftk cn,34.801617,135.770964
1,2.13,34801617,135770964,7,90,0,0,0,2,0,0,2,t-2.27 Leftk cn,34.801617,135.770964
1,2.14,34801617,135770964,7,90,0,0,0,2,0,0,2,t-2.33 Leftk cn,34.801617,135.770964
1,2.15,34801617,135770964,7,90,0,0,0,2,0,0,2,t-2.36 Leftk cn,34.801617,135.770964
1,2.16,34801617,135770964,7,90,0,0,0,2,0,0,2,t-2.32 Leftk cn,34.801617,135.770964
1,2.17,34801617,135770964,7,90,0,0,0,2,0,0,2,t-2.28 Leftk cn,34.801617,135.770964
1,2.18,34801617,135770964,7,33.75,0,0,0,2,0,0,2,t-2.28 Leftk cn,34.801617,135.770964
1,2.19,-5166666,0,182,67.5,0,0,0,0,2,0,2,t1.50 Rightk cn,-5.166666,0
1,2.2,-5166666,0,83,45,0,0,0,0,2,0,2,t1.50 Rightk cn,-5.166666,0
1,2.21,34801617,135770964,7,22.5,0,0,0,2,0,0,2,t-1.73 Leftk cn,34.801617,135.770964
1,2.22,34801617,135770964,7,67.5,0,0,0,2,0,0,2,t-2.47 Leftk cn,34.801617,135.770964
1,2.23,34801617,135770964,7,67.5,0,0,0,2,0,0,2,t-2.56 Leftk cn,34.801617,135.770964
1,2.25,34801617,135770964,7,78.75,0,0,0,2,0,0,2,t-2.56 Leftk cn,34.801617,135.770964
1,2.26,34801617,135770964,7,33.75,0,0,0,2,0,0,2,t-2.56 Leftk cn,34.801617,135.770964
1,2.27,34801617,135770964,7,11.25,0,0,0,2,0,0,2,t-2.56 Leftk cn,34.801617,135.770964
1,2.28,34801617,135770964,7,11.25,0,0,0,2,0,0,2,t-2.56 Leftk cn,34.801617,135.770964
1,2.29,34801617,135770964,7,11.25,0,0,0,2,0,0,2,t-1.47 Leftk cn,34.801617,135.770964
1,2.3,34801617,135770964,7,45,0,0,0,2,0,0,2,t-2.21 Leftk cn,34.801617,135.770964
1,2.31,34801617,135770964,7,67.5,0,0,0,2,0,0,2,t-2.21 Leftk cn,34.801617,135.770964
1,2.32,34801617,135770964,7,33.75,0,0,0,2,0,0,2,t-2.21 Leftk cn,34.801617,135.770964
1,2.33,34801617,135770964,7,22.5,0,0,0,2,0,0,2,t-2.21 Leftk cn,34.801617,135.770964
1,2.34,34801617,135770964,7,11.25,0,0,0,2,0,0,2,t-2.21 Leftk cn,34.801617,135.770964
1,2.35,34801617,135770964,7,0,0,0,0,2,0,0,2,t-2.21 Leftk cn,34.801617,135.770964
1,2.36,34801617,135770964,7,67.5,0,0,0,2,0,0,2,t-1.41 Leftk cn,34.801617,135.770964
1,2.37,34801617,135770965,7,90,0,0,0,2,0,0,2,t-2.24 Leftk cn,34.801617,135.770965
1,2.38,34801617,135770965,7,101.25,0,0,0,2,0,0,2,t-2.63 Leftk cn,34.801617,135.770965
1,2.39,34801617,135770965,7,90,0,0,0,2,0,0,2,t-2.68 Leftk cn,34.801617,135.770965
1,2.4,34801617,135770965,7,67.5,0,0,0,2,0,0,2,t-2.68 Leftk cn,34.801617,135.770965
1,2.41,34801617,135770965,7,33.75,0,0,0,2,0,0,2,t-2.68 Leftk cn,34.801617,135.770965
1,2.42,34801617,135770965,7,90,0,0,0,2,0,0,2,t-1.87 Leftk cn,34.801617,135.770965
1,2.43,34801617,135770965,7,56.25,0,0,0,2,0,0,2,t-1.87 Leftk cn,34.801617,135.770965
1,2.44,34801617,135770965,7,33.75,0,0,0,2,0,0,2,t-1.87 Leftk cn,34.801617,135.770965
1,2.45,34801617,135770965,7,22.5,0,0,0,2,0,0,2,t-1.87 Leftk cn,34.801617,135.770965
1,2.46,34801617,135770965,7,22.5,0,0,0,2,0,0,2,t-1.87 Leftk cn,34.801617,135.770965
1,2.47,0,0,15,78.75,0,0,0,0,2,0,2,t0.49 Rightk cn,0,0
1,2.48,34801616,135770966,7,56.25,0,0,0,2,0,0,2,t-2.40 Leftk cn,34.801616,135.770966
1,2.49,34801616,135770966,7,90,0,0,0,2,0,0,2,t-2.98 Leftk cn,34.801616,135.770966
1,2.51,34801616,135770966,7,90,0,0,0,2,0,0,2,t-2.88 Leftk cn,34.801616,135.770966
1,2.52,34801616,135770966,7,78.75,0,0,0,2,0,0,2,t-2.88 Leftk cn,34.801616,135.770966
1,2.53,34801615,135770966,7,56.25,0,0,0,2,0,0,2,t-2.32 Leftk cn,34.801615,135.770966
1,2.54,34801615,135770966,7,90,0,0,0,2,0,0,2,t-2.87 Leftk cn,34.801615,135.770966
1,2.55,34801615,135770966,7,90,0,0,0,2,0,0,2,t-2.89 Leftk cn,34.801615,135.770966
1,2.56,34801615,135770966,7,90,0,0,0,2,0,0,2,t-2.93 Leftk cn,34.801615,135.770966
1,2.57,34801615,135770966,7,90,0,0,0,2,0,0,2,t-3.01 Leftk cn,34.801615,135.770966
1,2.58,34801615,135770966,7,90,0,0,0,2,0,0,2,t-2.97 Leftk cn,34.801615,135.770966
1,2.59,34801615,135770966,7,90,0,0,0,2,0,0,2,t-2.91 Leftk cn,34.801615,135.770966
1,3,34801615,135770966,7,90,0,0,0,2,0,0,2,t-2.91 Leftk cn,34.801615,135.770966
1,3.1,34801615,135770966,7,101.25,0,0,0,2,0,0,2,t-2.70 Leftk cn,34.801615,135.770966
1,3.2,34801615,135770966,7,101.25,0,0,0,2,0,0,2,t-2.93 Leftk cn,34.801615,135.770966
1,3.3,34801615,135770966,7,101.25,0,0,0,2,0,0,2,t-2.99 Leftk cn,34.801615,135.770966
1,3.4,34801615,135770966,7,101.25,0,0,0,2,0,0,2,t-2.88 Leftk cn,34.801615,135.770966
1,3.5,34801615,135770966,7,101.25,0,0,0,2,0,0,2,t-2.89 Leftk cn,34.801615,135.770966
1,3.6,34801615,135770966,7,78.75,0,0,0,2,0,0,2,t-2.89 Leftk cn,34.801615,135.770966
1,3.7,34801615,135770966,7,101.25,0,0,0,2,0,0,2,t-2.59 Leftk cn,34.801615,135.770966
1,3.8,34801615,135770966,7,78.75,0,0,0,2,0,0,2,t-2.59 Leftk cn,34.801615,135.770966
1,3.9,34801615,135770966,7,67.5,0,0,0,2,0,0,2,t-2.59 Leftk cn,34.801615,135.770966
1,3.1,34801615,135770966,7,56.25,0,0,0,2,0,0,2,t-2.59 Leftk cn,34.801615,135.770966
1,3.11,34801615,135770966,7,45,0,0,0,2,0,0,2,t-2.59 Leftk cn,34.801615,135.770966
1,3.12,34801615,135770966,7,45,0,0,0,2,0,0,2,t-2.59 Leftk cn,34.801615,135.770966
1,3.13,34801615,135770965,7,45,0,0,0,2,0,0,2,t-2.15 Leftk cn,34.801615,135.770965
1,3.14,34801615,135770965,7,90,0,0,0,2,0,0,2,t-2.15 Leftk cn,34.801615,135.770965
1,3.15,34801615,135770965,7,56.25,0,0,0,2,0,0,2,t-2.43 Leftk cn,34.801615,135.770965
1,3.17,34801615,135770965,7,90,0,0,0,2,0,0,2,t-2.43 Leftk cn,34.801615,135.770965
1,3.18,34801615,135770965,7,67.5,0,0,0,2,0,0,2,t-2.43 Leftk cn,34.801615,135.770965
1,3.19,34801615,135770965,7,56.25,0,0,0,2,0,0,2,t-2.43 Leftk cn,34.801615,135.770965
1,3.2,34801615,135770965,7,56.25,0,0,0,2,0,0,2,t-2.43 Leftk cn,34.801615,135.770965
1,3.21,34801615,135770965,7,45,0,0,0,2,0,0,2,t-2.43 Leftk cn,34.801615,135.770965
1,3.22,34801615,135770965,7,45,0,0,0,2,0,0,2,t-2.23 Leftk cn,34.801615,135.770965
1,3.23,34801615,135770965,7,90,0,0,0,2,0,0,2,t-2.23 Leftk cn,34.801615,135.770965
1,3.24,34801615,135770965,7,67.5,0,0,0,2,0,0,2,t-2.23 Leftk cn,34.801615,135.770965
1,3.25,34801615,135770965,7,45,0,0,0,2,0,0,2,t-2.23 Leftk cn,34.801615,135.770965
1,3.26,34801615,135770965,7,45,0,0,0,2,0,0,2,t-2.23 Leftk cn,34.801615,135.770965
1,3.27,34801615,135770965,7,33.75,0,0,0,2,0,0,2,t-2.23 Leftk cn,34.801615,135.770965
1,3.28,34801615,135770966,7,90,0,0,0,2,0,0,2,t-2.00 Leftk cn,34.801615,135.770966
1,3.29,34801615,135770967,7,101.25,0,0,0,2,0,0,2,t-2.90 Leftk cn,34.801615,135.770967
1,3.3,34801615,135770967,7,78.75,0,0,0,2,0,0,2,t-2.90 Leftk cn,34.801615,135.770967
1,3.31,34801615,135770967,7,67.5,0,0,0,2,0,0,2,t-2.90 Leftk cn,34.801615,135.770967
1,3.32,34801615,135770967,7,56.25,0,0,0,2,0,0,2,t-2.90 Leftk cn,34.801615,135.770967
1,3.33,34801615,135770967,7,56.25,0,0,0,2,0,0,2,t-2.90 Leftk cn,34.801615,135.770967
1,3.34,34801615,135770963,7,101.25,0,0,0,2,0,0,2,t-2.32 Leftk cn,34.801615,135.770963
1,3.35,34801612,135770963,7,101.25,0,0,0,2,0,0,2,t-2.86 Leftk cn,34.801612,135.770963
1,3.36,34801612,135770963,7,78.75,0,0,0,2,0,0,2,t-2.86 Leftk cn,34.801612,135.770963
1,3.37,34801612,135770963,7,67.5,0,0,0,2,0,0,2,t-2.86 Leftk cn,34.801612,135.770963
1,3.38,34801612,135770963,7,67.5,0,0,0,2,0,0,2,t-2.86 Leftk cn,34.801612,135.770963
1,3.39,34801613,135770964,7,56.25,0,0,0,2,0,0,2,t-2.40 Leftk cn,34.801613,135.770964
1,3.4,34801613,135770964,7,90,0,0,0,2,0,0,2,t-2.40 Leftk cn,34.801613,135.770964
1,3.41,34801613,135770964,7,78.75,0,0,0,2,0,0,2,t-2.40 Leftk cn,34.801613,135.770964
1,3.43,34801613,135770964,7,67.5,0,0,0,2,0,0,2,t-2.40 Leftk cn,34.801613,135.770964
1,3.44,34801613,135770964,7,67.5,0,0,0,2,0,0,2,t-2.40 Leftk cn,34.801613,135.770964
1,3.45,34801613,135770965,7,56.25,0,0,0,2,0,0,2,t-2.41 Leftk cn,34.801613,135.770965
1,3.46,34801613,135770964,7,90,0,0,0,2,0,0,2,t-2.99 Leftk cn,34.801613,135.770964
1,3.47,34801613,135770964,7,101.25,0,0,0,2,0,0,2,t-2.99 Leftk cn,34.801613,135.770964
1,3.48,34801613,135770964,7,90,0,0,0,2,0,0,2,t-2.99 Leftk cn,34.801613,135.770964
1,3.49,34801613,135770964,7,90,0,0,0,2,0,0,2,t-2.99 Leftk cn,34.801613,135.770964
1,3.5,34801613,135770964,7,90,0,0,0,2,0,0,2,t-2.99 Leftk cn,34.801613,135.770964
1,3.51,34801613,135770964,7,90,0,0,0,2,0,0,2,t-2.99 Leftk cn,34.801613,135.770964
1,3.52,34801614,135770964,7,90,0,0,0,2,0,0,2,t-2.93 Leftk cn,34.801614,135.770964
1,3.53,34801614,135770964,7,90,0,0,0,2,0,0,2,t-2.93 Leftk cn,34.801614,135.770964
1,3.54,34801614,135770964,7,78.75,0,0,0,2,0,0,2,t-2.93 Leftk cn,34.801614,135.770964
1,3.55,34801614,135770964,7,67.5,0,0,0,2,0,0,2,t-2.93 Leftk cn,34.801614,135.770964
1,3.56,34801614,135770964,7,56.25,0,0,0,2,0,0,2,t-2.93 Leftk cn,34.801614,135.770964
1,3.57,34801614,135770964,7,101.25,0,0,0,2,0,0,2,t-2.27 Leftk cn,34.801614,135.770964
1,3.58,34801614,135770964,7,101.25,0,0,0,2,0,0,2,t-2.99 Leftk cn,34.801614,135.770964
1,3.59,34801614,135770964,7,90,0,0,0,2,0,0,2,t-2.99 Leftk cn,34.801614,135.770964
1,4,34801614,135770964,7,90,0,0,0,2,0,0,2,t-2.99 Leftk cn,34.801614,135.770964
1,4.1,34801614,135770964,7,78.75,0,0,0,2,0,0,2,t-2.99 Leftk cn,34.801614,135.770964
1,4.2,34801614,135770964,7,78.75,0,0,0,2,0,0,2,t-2.99 Leftk cn,34.801614,135.770964
1,4.3,34801615,135770963,7,101.25,0,0,0,2,0,0,2,t-2.69 Leftk cn,34.801615,135.770963
1,4.4,34801615,135770963,7,90,0,0,0,2,0,0,2,t-2.69 Leftk cn,34.801615,135.770963
1,4.5,34801615,135770963,7,78.75,0,0,0,2,0,0,2,t-2.69 Leftk cn,34.801615,135.770963
1,4.6,34801615,135770963,7,78.75,0,0,0,2,0,0,2,t-2.69 Leftk cn,34.801615,135.770963
1,4.7,34801616,135770963,7,67.5,0,0,0,2,0,0,2,t-2.57 Leftk cn,34.801616,135.770963
1,4.9,34801616,135770963,7,101.25,0,0,0,2,0,0,2,t-3.09 Leftk cn,34.801616,135.770963
1,4.1,34801616,135770963,7,101.25,0,0,0,2,0,0,2,t-3.08 Leftk cn,34.801616,135.770963
1,4.11,34801617,135770963,8,101.25,0,0,0,2,0,0,2,t-3.02 Leftk cn,34.801617,135.770963
1,4.12,34801617,135770964,7,101.25,0,0,0,2,0,0,2,t-3.10 Leftk cn,34.801617,135.770964
1,4.13,34801617,135770964,7,101.25,0,0,0,0,2,0,2,t3.12 Rightk cn,34.801617,135.770964
1,4.14,34801617,135770963,8,112.5,0,0,0,0,2,0,2,t2.94 Rightk cn,34.801617,135.770963
1,4.15,34801617,135770963,7,112.5,0,0,0,0,2,0,2,t2.94 Rightk cn,34.801617,135.770963
1,4.16,34801617,135770963,7,112.5,0,0,0,0,2,0,2,t2.94 Rightk cn,34.801617,135.770963
1,4.17,34801617,135770963,7,112.5,0,0,0,0,2,0,2,t2.94 Rightk cn,34.801617,135.770963
1,4.18,34801618,135770964,7,112.5,0,0,0,0,2,0,2,t3.05 Rightk cn,34.801618,135.770964
1,4.19,34801618,135770964,7,112.5,0,0,0,0,2,0,2,t3.05 Rightk cn,34.801618,135.770964
1,4.2,34801618,135770964,7,112.5,0,0,0,0,2,0,2,t2.90 Rightk cn,34.801618,135.770964
1,4.21,34801618,135770964,7,112.5,0,0,0,0,2,0,2,t2.90 Rightk cn,34.801618,135.770964
1,4.22,34801618,135770964,7,112.5,0,0,0,0,2,0,2,t2.90 Rightk cn,34.801618,135.770964
1,4.23,34801618,135770964,7,101.25,0,0,0,0,2,0,2,t2.90 Rightk cn,34.801618,135.770964
1,4.24,34801619,135770965,7,112.5,0,0,0,0,2,0,2,t3.11 Rightk cn,34.801619,135.770965
1,4.25,34801619,135770965,7,101.25,0,0,0,0,2,0,2,t3.11 Rightk cn,34.801619,135.770965
1,4.26,34801619,135770965,7,112.5,0,0,0,2,0,0,2,t-3.09 Leftk cn,34.801619,135.770965
1,4.27,34801619,135770965,7,101.25,0,0,0,2,0,0,2,t-3.09 Leftk cn,34.801619,135.770965
1,4.28,34801619,135770965,7,101.25,0,0,0,2,0,0,2,t-3.09 Leftk cn,34.801619,135.770965
1,4.29,34801619,135770965,7,101.25,0,0,0,2,0,0,2,t-3.09 Leftk cn,34.801619,135.770965
1,4.3,34801620,135770965,7,112.5,0,0,0,2,0,0,2,t-2.95 Leftk cn,34.80162,135.770965
1,4.31,34801620,135770965,7,112.5,0,0,0,0,2,0,2,t3.11 Rightk cn,34.80162,135.770965
1,4.32,34801620,135770965,7,112.5,0,0,0,0,2,0,2,t3.11 Rightk cn,34.80162,135.770965
1,4.33,34801620,135770965,7,112.5,0,0,0,0,2,0,2,t3.11 Rightk cn,34.80162,135.770965
1,4.35,34801620,135770966,7,112.5,0,0,0,0,2,0,2,t3.05 Rightk cn,34.80162,135.770966
1,4.36,34801620,135770966,7,112.5,0,0,0,0,2,0,2,t3.05 Rightk cn,34.80162,135.770966
1,4.37,34801620,135770966,7,112.5,0,0,0,0,2,0,2,t2.93 Rightk cn,34.80162,135.770966
1,4.38,34801620,135770966,7,112.5,0,0,0,0,2,0,2,t2.93 Rightk cn,34.80162,135.770966
1,4.39,34801620,135770966,7,112.5,0,0,0,0,2,0,2,t2.93 Rightk cn,34.80162,135.770966
1,4.4,34801620,135770966,7,101.25,0,0,0,0,2,0,2,t2.93 Rightk cn,34.80162,135.770966
1,4.41,34801620,135770966,7,101.25,0,0,0,2,0,0,2,t-3.07 Leftk cn,34.80162,135.770966
1,4.42,34801620,135770966,7,112.5,0,0,0,2,0,0,2,t-3.07 Leftk cn,34.80162,135.770966
1,4.43,34801620,135770967,7,101.25,0,0,0,2,0,0,2,t-3.13 Leftk cn,34.80162,135.770967
1,4.44,34801620,135770967,7,101.25,0,0,0,2,0,0,2,t-3.13 Leftk cn,34.80162,135.770967
1,4.45,34801620,135770967,7,112.5,0,0,0,2,0,0,2,t-3.13 Leftk cn,34.80162,135.770967
1,4.46,34801620,135770967,7,112.5,0,0,0,0,2,0,2,t3.03 Rightk cn,34.80162,135.770967
1,4.47,34801620,135770967,7,112.5,0,0,0,0,2,0,2,t3.03 Rightk cn,34.80162,135.770967
1,4.48,34801620,135770967,7,112.5,0,0,0,0,2,0,2,t3.03 Rightk cn,34.80162,135.770967
1,4.49,34801619,135770968,7,112.5,0,0,0,0,2,0,2,t2.93 Rightk cn,34.801619,135.770968
1,4.5,34801619,135770968,7,112.5,0,0,0,0,2,0,2,t2.93 Rightk cn,34.801619,135.770968
1,4.51,34801619,135770968,7,112.5,0,0,0,0,2,0,2,t2.93 Rightk cn,34.801619,135.770968
1,4.52,34801619,135770968,7,112.5,0,0,0,0,2,0,2,t3.00 Rightk cn,34.801619,135.770968
1,4.53,34801619,135770968,7,112.5,0,0,0,0,2,0,2,t3.00 Rightk cn,34.801619,135.770968
1,4.54,34801619,135770969,7,112.5,0,0,0,0,2,0,2,t2.98 Rightk cn,34.801619,135.770969
1,4.55,34801619,135770969,7,112.5,0,0,0,0,2,0,2,t2.98 Rightk cn,34.801619,135.770969
1,4.56,34801619,135770969,7,112.5,0,0,0,0,2,0,2,t2.98 Rightk cn,34.801619,135.770969
1,4.57,34801619,135770969,7,112.5,0,0,0,0,2,0,2,t2.96 Rightk cn,34.801619,135.770969
1,4.58,34801618,135770969,7,112.5,0,0,0,0,2,0,2,t3.00 Rightk cn,34.801618,135.770969
1,4.59,34801618,135770969,7,112.5,0,0,0,0,2,0,2,t3.00 Rightk cn,34.801618,135.770969
1,5.1,34801618,135770969,7,112.5,0,0,0,0,2,0,2,t2.94 Rightk cn,34.801618,135.770969
1,5.2,34801618,135770969,7,112.5,0,0,0,0,2,0,2,t2.94 Rightk cn,34.801618,135.770969
1,5.3,34801618,135770969,7,112.5,0,0,0,0,2,0,2,t2.94 Rightk cn,34.801618,135.770969
1,5.4,34801618,135770969,7,112.5,0,0,0,0,2,0,2,t3.10 Rightk cn,34.801618,135.770969
1,5.5,34801618,135770969,7,112.5,0,0,0,0,2,0,2,t2.92 Rightk cn,34.801618,135.770969
1,5.6,34801618,135770969,7,112.5,0,0,0,0,2,0,2,t3.06 Rightk cn,34.801618,135.770969
1,5.7,34801618,135770969,7,112.5,0,0,0,0,2,0,2,t3.06 Rightk cn,34.801618,135.770969
1,5.8,34801618,135770969,7,112.5,0,0,0,0,2,0,2,t3.06 Rightk cn,34.801618,135.770969
1,5.9,34801618,135770969,7,112.5,0,0,0,0,2,0,2,t3.06 Rightk cn,34.801618,135.770969
1,5.1,34801618,135770969,7,112.5,0,0,0,0,2,0,2,t3.06 Rightk cn,34.801618,135.770969
1,5.11,34801618,135770969,7,112.5,0,0,0,0,2,0,2,t2.96 Rightk cn,34.801618,135.770969
1,5.12,34801618,135770969,7,112.5,0,0,0,0,2,0,2,t2.99 Rightk cn,34.801618,135.770969
1,5.13,34801618,135770969,7,112.5,0,0,0,0,2,0,2,t2.99 Rightk cn,34.801618,135.770969
1,5.14,34801618,135770969,7,101.25,0,0,0,0,2,0,2,t2.99 Rightk cn,34.801618,135.770969
1,5.15,34801618,135770969,7,90,0,0,0,2,0,0,2,t-2.90 Leftk cn,34.801618,135.770969
1,5.16,34801618,135770969,7,112.5,0,0,0,2,0,0,2,t-2.90 Leftk cn,34.801618,135.770969
1,5.17,34801618,135770969,7,112.5,0,0,0,2,0,0,2,t-2.90 Leftk cn,34.801618,135.770969
1,5.18,34801618,135770969,7,123.75,0,0,0,2,0,0,2,t-2.90 Leftk cn,34.801618,135.770969
1,5.19,34801618,135770969,7,112.5,0,0,0,2,0,0,2,t-2.90 Leftk cn,34.801618,135.770969
1,5.2,34801618,135770969,7,112.5,0,0,0,2,0,0,2,t-2.90 Leftk cn,34.801618,135.770969
1,5.21,34801617,135770970,7,112.5,0,0,0,0,2,0,2,t2.98 Rightk cn,34.801617,135.77097
1,5.22,34801617,135770970,7,112.5,0,0,0,0,2,0,2,t2.98 Rightk cn,34.801617,135.77097
1,5.23,34801617,135770970,7,112.5,0,0,0,0,2,0,2,t2.92 Rightk cn,34.801617,135.77097
1,5.24,34801617,135770970,7,112.5,0,0,0,0,2,0,2,t3.07 Rightk cn,34.801617,135.77097
1,5.25,34801617,135770970,7,112.5,0,0,0,0,2,0,2,t3.07 Rightk cn,34.801617,135.77097
1,5.27,34801617,135770970,7,112.5,0,0,0,0,2,0,2,t3.07 Rightk cn,34.801617,135.77097
1,5.28,34801617,135770970,7,112.5,0,0,0,0,2,0,2,t3.00 Rightk cn,34.801617,135.77097
1,5.29,34801617,135770970,7,112.5,0,0,0,0,2,0,2,t3.00 Rightk cn,34.801617,135.77097
1,5.3,34801617,135770971,7,112.5,0,0,0,0,2,0,2,t3.04 Rightk cn,34.801617,135.770971
1,5.31,34801617,135770971,7,112.5,0,0,0,0,2,0,2,t3.01 Rightk cn,34.801617,135.770971
1,5.32,34801617,135770971,7,112.5,0,0,0,0,2,0,2,t3.01 Rightk cn,34.801617,135.770971
1,5.33,34801617,135770971,7,112.5,0,0,0,0,2,0,2,t3.01 Rightk cn,34.801617,135.770971
1,5.34,34801617,135770971,7,112.5,0,0,0,0,2,0,2,t2.97 Rightk cn,34.801617,135.770971
1,5.35,34801617,135770972,7,112.5,0,0,0,0,2,0,2,t3.06 Rightk cn,34.801617,135.770972
1,5.36,34801617,135770972,7,101.25,0,0,0,0,2,0,2,t3.06 Rightk cn,34.801617,135.770972
1,5.37,34801617,135770972,7,112.5,0,0,0,0,2,0,2,t3.11 Rightk cn,34.801617,135.770972
1,5.38,34801617,135770972,7,112.5,0,0,0,0,2,0,2,t3.11 Rightk cn,34.801617,135.770972
1,5.39,34801617,135770972,6,112.5,0,0,0,0,2,0,2,t3.11 Rightk cn,34.801617,135.770972
1,5.4,34801617,135770972,7,112.5,0,0,0,0,2,0,2,t2.94 Rightk cn,34.801617,135.770972
1,5.41,34801617,135770972,7,112.5,0,0,0,0,2,0,2,t3.03 Rightk cn,34.801617,135.770972
1,5.42,34801617,135770972,7,112.5,0,0,0,0,2,0,2,t3.04 Rightk cn,34.801617,135.770972
1,5.43,34801617,135770972,7,112.5,0,0,0,0,2,0,2,t3.04 Rightk cn,34.801617,135.770972
1,5.44,34801617,135770972,6,112.5,0,0,0,0,2,0,2,t3.04 Rightk cn,34.801617,135.770972
1,5.45,34801617,135770972,6,112.5,0,0,0,0,2,0,2,t3.04 Rightk cn,34.801617,135.770972
1,5.46,34801617,135770972,6,112.5,0,0,0,0,2,0,2,t3.04 Rightk cn,34.801617,135.770972
1,5.47,34801617,135770973,7,112.5,0,0,0,0,2,0,2,t2.92 Rightk cn,34.801617,135.770973
1,5.48,34801617,135770973,7,112.5,0,0,0,0,2,0,2,t3.04 Rightk cn,34.801617,135.770973
1,5.49,34801617,135770973,7,112.5,0,0,0,0,2,0,2,t3.04 Rightk cn,34.801617,135.770973
1,5.5,34801617,135770973,6,112.5,0,0,0,0,2,0,2,t3.04 Rightk cn,34.801617,135.770973
1,5.51,34801617,135770974,7,112.5,0,0,0,0,2,0,2,t2.96 Rightk cn,34.801617,135.770974
1,5.53,34801617,135770974,7,112.5,0,0,0,0,2,0,2,t3.01 Rightk cn,34.801617,135.770974
1,5.54,34801617,135770974,6,112.5,0,0,0,0,2,0,2,t3.01 Rightk cn,34.801617,135.770974
1,5.55,34801617,135770974,7,112.5,0,0,0,0,2,0,2,t2.95 Rightk cn,34.801617,135.770974
1,5.56,34801617,135770974,7,112.5,0,0,0,2,0,0,2,t-3.13 Leftk cn,34.801617,135.770974
1,5.57,34801617,135770974,6,112.5,0,0,0,2,0,0,2,t-3.13 Leftk cn,34.801617,135.770974
1,5.58,34801617,135770974,6,123.75,0,0,0,2,0,0,2,t-3.13 Leftk cn,34.801617,135.770974
1,5.59,34801617,135770975,7,112.5,0,0,0,0,2,0,2,t2.86 Rightk cn,34.801617,135.770975
1,6,34801617,135770975,7,112.5,0,0,0,0,2,0,2,t3.04 Rightk cn,34.801617,135.770975
1,6.1,34801617,135770975,6,112.5,0,0,0,0,2,0,2,t3.04 Rightk cn,34.801617,135.770975
1,6.2,34801617,135770975,7,112.5,0,0,0,0,2,0,2,t2.92 Rightk cn,34.801617,135.770975
1,6.3,34801617,135770975,7,112.5,0,0,0,0,2,0,2,t3.02 Rightk cn,34.801617,135.770975
1,6.4,34801617,135770975,6,112.5,0,0,0,0,2,0,2,t3.02 Rightk cn,34.801617,135.770975
1,6.5,34801617,135770975,6,112.5,0,0,0,0,2,0,2,t3.02 Rightk cn,34.801617,135.770975
1,6.6,34801617,135770975,6,112.5,0,0,0,0,2,0,2,t3.02 Rightk cn,34.801617,135.770975
1,6.7,34801617,135770975,6,112.5,0,0,0,0,2,0,2,t3.02 Rightk cn,34.801617,135.770975
1,6.8,34801617,135770975,7,112.5,0,0,0,0,2,0,2,t2.93 Rightk cn,34.801617,135.770975
1,6.9,34801617,135770975,7,112.5,0,0,0,0,2,0,2,t2.99 Rightk cn,34.801617,135.770975
1,6.1,34801617,135770975,7,112.5,0,0,0,0,2,0,2,t2.93 Rightk cn,34.801617,135.770975
1,6.11,34801617,135770975,6,123.75,0,0,0,0,2,0,2,t2.93 Rightk cn,34.801617,135.770975
1,6.12,34801617,135770975,6,123.75,0,0,0,0,2,0,2,t2.93 Rightk cn,34.801617,135.770975
1,6.13,34801617,135770975,6,123.75,0,0,0,0,2,0,2,t2.93 Rightk cn,34.801617,135.770975
1,6.14,34801617,135770975,6,123.75,0,0,0,0,2,0,2,t2.93 Rightk cn,34.801617,135.770975
1,6.15,34801617,135770975,6,123.75,0,0,0,0,2,0,2,t2.93 Rightk cn,34.801617,135.770975
1,6.16,34801617,135770975,6,123.75,0,0,0,0,2,0,2,t2.93 Rightk cn,34.801617,135.770975
1,6.17,34801616,135770976,6,123.75,0,0,0,0,2,0,2,t2.83 Rightk cn,34.801616,135.770976
1,6.19,34801616,135770976,6,112.5,0,0,0,0,2,0,2,t2.83 Rightk cn,34.801616,135.770976
1,6.2,34801616,135770976,6,123.75,0,0,0,0,2,0,2,t2.83 Rightk cn,34.801616,135.770976
1,6.21,34801616,135770976,6,123.75,0,0,0,0,2,0,2,t2.83 Rightk cn,34.801616,135.770976
1,6.22,34801617,135770976,6,123.75,0,0,0,0,2,0,2,t2.79 Rightk cn,34.801617,135.770976
1,6.23,34801617,135770976,6,112.5,0,0,0,0,2,0,2,t2.79 Rightk cn,34.801617,135.770976
1,6.24,34801617,135770976,6,123.75,0,0,0,0,2,0,2,t2.90 Rightk cn,34.801617,135.770976
1,6.25,34801617,135770976,6,123.75,0,0,0,0,2,0,2,t2.91 Rightk cn,34.801617,135.770976
1,6.26,34801617,135770976,6,112.5,0,0,0,0,2,0,2,t2.91 Rightk cn,34.801617,135.770976
1,6.27,34801616,135770976,6,112.5,0,0,0,0,2,0,2,t2.92 Rightk cn,34.801616,135.770976
1,6.28,34801616,135770976,6,112.5,0,0,0,0,2,0,2,t2.99 Rightk cn,34.801616,135.770976
1,6.29,34801616,135770976,6,112.5,0,0,0,0,2,0,2,t2.99 Rightk cn,34.801616,135.770976
1,6.3,34801616,135770976,6,123.75,0,0,0,0,2,0,2,t2.99 Rightk cn,34.801616,135.770976
1,6.31,34801616,135770976,6,112.5,0,0,0,0,2,0,2,t2.89 Rightk cn,34.801616,135.770976
1,6.32,34801616,135770976,6,112.5,0,0,0,0,2,0,2,t2.89 Rightk cn,34.801616,135.770976
1,6.33,34801616,135770976,6,112.5,0,0,0,0,2,0,2,t2.95 Rightk cn,34.801616,135.770976
1,6.34,34801616,135770976,6,112.5,0,0,0,0,2,0,2,t2.95 Rightk cn,34.801616,135.770976
1,6.35,34801616,135770976,6,112.5,0,0,0,0,2,0,2,t2.90 Rightk cn,34.801616,135.770976
1,6.36,34801616,135770976,6,112.5,0,0,0,0,2,0,2,t2.90 Rightk cn,34.801616,135.770976
1,6.37,34801616,135770976,6,112.5,0,0,0,0,2,0,2,t2.92 Rightk cn,34.801616,135.770976
1,6.38,34801616,135770976,6,112.5,0,0,0,0,2,0,2,t3.00 Rightk cn,34.801616,135.770976
1,6.39,34801616,135770976,6,112.5,0,0,0,0,2,0,2,t3.00 Rightk cn,34.801616,135.770976
1,6.4,34801616,135770976,6,112.5,0,0,0,0,2,0,2,t3.00 Rightk cn,34.801616,135.770976
1,6.41,34801616,135770976,6,112.5,0,0,0,0,2,0,2,t3.00 Rightk cn,34.801616,135.770976
1,6.42,34801616,135770976,6,112.5,0,0,0,0,2,0,2,t2.98 Rightk cn,34.801616,135.770976
1,6.43,34801616,135770976,6,112.5,0,0,0,0,2,0,2,t2.98 Rightk cn,34.801616,135.770976
1,6.45,34801616,135770976,6,123.75,0,0,0,0,2,0,2,t2.98 Rightk cn,34.801616,135.770976
1,6.46,34801616,135770976,6,123.75,0,0,0,0,2,0,2,t2.98 Rightk cn,34.801616,135.770976
1,6.47,34801616,135770976,6,123.75,0,0,0,0,2,0,2,t2.98 Rightk cn,34.801616,135.770976
1,6.48,34801616,135770976,6,123.75,0,0,0,0,2,0,2,t2.87 Rightk cn,34.801616,135.770976
1,6.49,34801616,135770976,6,112.5,0,0,0,0,2,0,2,t2.87 Rightk cn,34.801616,135.770976
1,6.5,34801616,135770976,6,123.75,0,0,0,0,2,0,2,t2.87 Rightk cn,34.801616,135.770976
1,6.51,34801616,135770976,6,123.75,0,0,0,0,2,0,2,t2.85 Rightk cn,34.801616,135.770976
1,6.52,34801616,135770976,6,123.75,0,0,0,0,2,0,2,t2.85 Rightk cn,34.801616,135.770976
1,6.53,34801616,135770976,6,123.75,0,0,0,0,2,0,2,t2.85 Rightk cn,34.801616,135.770976
1,6.54,34801616,135770976,6,123.75,0,0,0,0,2,0,2,t2.85 Rightk cn,34.801616,135.770976
1,6.55,34801616,135770976,6,112.5,0,0,0,0,2,0,2,t3.01 Rightk cn,34.801616,135.770976
1,6.56,34801616,135770976,6,112.5,0,0,0,0,2,0,2,t3.01 Rightk cn,34.801616,135.770976
1,6.57,34801616,135770977,6,112.5,0,0,0,0,2,0,2,t2.96 Rightk cn,34.801616,135.770977
1,6.58,34801616,135770977,6,112.5,0,0,0,0,2,0,2,t2.96 Rightk cn,34.801616,135.770977
1,6.59,34801616,135770977,6,112.5,0,0,0,0,2,0,2,t2.96 Rightk cn,34.801616,135.770977
1,7,34801616,135770977,6,112.5,0,0,0,0,2,0,2,t2.92 Rightk cn,34.801616,135.770977
1,7.1,34801616,135770977,6,112.5,0,0,0,0,2,0,2,t3.13 Rightk cn,34.801616,135.770977
1,7.2,34801616,135770977,6,112.5,0,0,0,2,0,0,2,t-3.10 Leftk cn,34.801616,135.770977
1,7.3,34801616,135770977,6,123.75,0,0,0,2,0,0,2,t-3.10 Leftk cn,34.801616,135.770977
1,7.4,34801616,135770977,6,123.75,0,0,0,2,0,0,2,t-3.10 Leftk cn,34.801616,135.770977
1,7.5,34801621,135770966,7,112.5,0,0,0,0,2,0,2,t2.87 Rightk cn,34.801621,135.770966
1,7.6,34801621,135770966,7,112.5,0,0,0,0,2,0,2,t2.87 Rightk cn,34.801621,135.770966
1,7.7,34801621,135770966,7,112.5,0,0,0,0,2,0,2,t2.87 Rightk cn,34.801621,135.770966
1,7.8,34801632,135770954,9,112.5,0,0,0,0,2,0,2,t3.06 Rightk cn,34.801632,135.770954
1,7.9,34801632,135770954,9,112.5,0,0,0,0,2,0,2,t3.06 Rightk cn,34.801632,135.770954
1,7.11,34801632,135770954,8,112.5,0,0,0,0,2,0,2,t3.06 Rightk cn,34.801632,135.770954
1,7.12,34801632,135770954,8,123.75,0,0,0,0,2,0,2,t3.06 Rightk cn,34.801632,135.770954
1,7.13,34801632,135770954,8,123.75,0,0,0,0,2,0,2,t3.06 Rightk cn,34.801632,135.770954
1,7.14,34801624,135770950,9,112.5,0,0,0,0,2,0,2,t2.89 Rightk cn,34.801624,135.77095
1,7.15,34801625,135770955,8,123.75,0,0,0,0,2,0,2,t2.79 Rightk cn,34.801625,135.770955
1,7.16,34801624,135770957,8,112.5,0,0,0,0,2,0,2,t2.95 Rightk cn,34.801624,135.770957
1,7.17,34801624,135770957,8,112.5,0,0,0,0,2,0,2,t2.95 Rightk cn,34.801624,135.770957
1,7.18,34801624,135770957,8,123.75,0,0,0,0,2,0,2,t2.95 Rightk cn,34.801624,135.770957
1,7.19,34801624,135770957,8,123.75,0,0,0,0,2,0,2,t2.95 Rightk cn,34.801624,135.770957
1,7.2,34801626,135770966,8,123.75,0,0,0,0,2,0,2,t2.92 Rightk cn,34.801626,135.770966
1,7.21,34801625,135770966,8,123.75,0,0,0,0,2,0,2,t2.96 Rightk cn,34.801625,135.770966
1,7.22,34801625,135770966,7,112.5,0,0,0,0,2,0,2,t2.96 Rightk cn,34.801625,135.770966
1,7.23,34801625,135770966,7,112.5,0,0,0,0,2,0,2,t2.96 Rightk cn,34.801625,135.770966
1,7.24,34801624,135770967,7,112.5,0,0,0,0,2,0,2,t3.02 Rightk cn,34.801624,135.770967
1,7.25,34801624,135770967,7,112.5,0,0,0,0,2,0,2,t3.02 Rightk cn,34.801624,135.770967
1,7.26,34801623,135770967,7,112.5,0,0,0,0,2,0,2,t2.99 Rightk cn,34.801623,135.770967
1,7.27,34801623,135770967,7,112.5,0,0,0,0,2,0,2,t3.07 Rightk cn,34.801623,135.770967
1,7.28,34801623,135770967,7,112.5,0,0,0,0,2,0,2,t2.98 Rightk cn,34.801623,135.770967
1,7.29,34801623,135770967,7,123.75,0,0,0,0,2,0,2,t2.98 Rightk cn,34.801623,135.770967
1,7.3,34801623,135770967,7,123.75,0,0,0,0,2,0,2,t2.98 Rightk cn,34.801623,135.770967
1,7.31,34801622,135770967,7,112.5,0,0,0,0,2,0,2,t2.92 Rightk cn,34.801622,135.770967
1,7.32,34801622,135770967,7,112.5,0,0,0,0,2,0,2,t2.92 Rightk cn,34.801622,135.770967
1,7.33,34801622,135770968,7,112.5,0,0,0,0,2,0,2,t2.94 Rightk cn,34.801622,135.770968
1,7.34,34801622,135770968,7,112.5,0,0,0,0,2,0,2,t2.94 Rightk cn,34.801622,135.770968
1,7.35,34801622,-135716666,225,112.5,0,0,0,2,0,0,2,t-0.46 Leftk cn,34.801622,-135.716666
1,7.37,34801622,0,192,112.5,0,0,0,0,0,0,2,t-0.34 Forwardn,34.801622,0
1,7.38,34801622,-135766666,4,112.5,0,0,0,2,0,0,2,t-0.43 Leftrdn,34.801622,-135.766666
1,7.39,34801622,-135766666,3,112.5,0,0,0,2,0,0,2,t-0.43 Leftrdn,34.801622,-135.766666
1,7.4,34801622,-135766666,3,123.75,0,0,0,2,0,0,2,t-0.43 Leftrdn,34.801622,-135.766666
1,7.41,34801622,-135766666,3,112.5,0,0,0,2,0,0,2,t-0.43 Leftrdn,34.801622,-135.766666
1,7.42,34801622,135770971,7,112.5,0,0,0,0,2,0,2,t3.02 Rightrdn,34.801622,135.770971
1,7.43,34801622,135770972,7,112.5,0,0,0,0,2,0,2,t3.04 Rightrdn,34.801622,135.770972
1,7.44,34801622,135770972,7,112.5,0,0,0,0,2,0,2,t3.04 Rightrdn,34.801622,135.770972
1,7.45,34801623,135770973,7,112.5,0,0,0,0,2,0,2,t3.06 Rightrdn,34.801623,135.770973
1,7.46,34801623,135770973,7,112.5,0,0,0,0,2,0,2,t3.06 Rightrdn,34.801623,135.770973
1,7.47,34801623,135770973,7,123.75,0,0,0,0,2,0,2,t3.06 Rightrdn,34.801623,135.770973
1,7.48,34801623,135770974,7,123.75,0,0,0,0,2,0,2,t2.91 Rightrdn,34.801623,135.770974
1,7.49,34801623,135770975,7,112.5,0,0,0,0,2,0,2,t3.04 Rightrdn,34.801623,135.770975
1,7.5,34801623,135770975,7,112.5,0,0,0,0,2,0,2,t3.04 Rightrdn,34.801623,135.770975
1,7.51,34801623,135770975,6,112.5,0,0,0,0,2,0,2,t3.04 Rightrdn,34.801623,135.770975
1,7.52,34801623,135770976,7,112.5,0,0,0,0,2,0,2,t3.04 Rightrdn,34.801623,135.770976
1,7.53,34801623,135770976,6,123.75,0,0,0,0,2,0,2,t3.04 Rightrdn,34.801623,135.770976
1,7.54,34801623,135770977,7,112.5,0,0,0,0,2,0,2,t2.97 Rightrdn,34.801623,135.770977
1,7.55,34801623,135770977,7,112.5,0,0,0,0,2,0,2,t3.01 Rightrdn,34.801623,135.770977
1,7.56,34801623,135770977,7,112.5,0,0,0,0,2,0,2,t3.05 Rightrdn,34.801623,135.770977
1,7.57,34801623,135770977,6,112.5,0,0,0,0,2,0,2,t3.05 Rightrdn,34.801623,135.770977
1,7.58,34801623,135770978,6,112.5,0,0,0,0,2,0,2,t3.07 Rightrdn,34.801623,135.770978
1,7.59,34801623,135770978,6,112.5,0,0,0,0,2,0,2,t3.07 Rightrdn,34.801623,135.770978
1,8,34801623,135770978,6,112.5,0,0,0,0,2,0,2,t3.07 Rightrdn,34.801623,135.770978
1,8.1,34801622,135770979,6,112.5,0,0,0,0,2,0,2,t3.10 Rightrdn,34.801622,135.770979
1,8.3,34801622,135770979,6,112.5,0,0,0,0,2,0,2,t3.10 Rightrdn,34.801622,135.770979
1,8.4,34801622,135770979,6,123.75,0,0,0,0,2,0,2,t2.98 Rightrdn,34.801622,135.770979
1,8.5,34801622,135770979,6,112.5,0,0,0,2,0,0,2,t-3.14 Leftrdn,34.801622,135.770979
1,8.6,34801622,135770979,6,112.5,0,0,0,0,2,0,2,t3.03 Rightrdn,34.801622,135.770979
1,8.7,34801622,135770979,6,112.5,0,0,0,0,2,0,2,t3.03 Rightrdn,34.801622,135.770979
1,8.8,34801622,135770979,6,123.75,0,0,0,0,2,0,2,t2.98 Rightrdn,34.801622,135.770979
1,8.9,34801622,135770979,6,112.5,0,0,0,0,2,0,2,t2.98 Rightrdn,34.801622,135.770979
1,8.1,34801622,135770979,6,112.5,0,0,0,0,2,0,2,t2.98 Rightrdn,34.801622,135.770979
1,8.11,34801622,135770978,6,112.5,0,0,0,0,2,0,2,t3.11 Rightrdn,34.801622,135.770978
1,8.12,34801622,135770978,6,112.5,0,0,0,0,2,0,2,t3.08 Rightrdn,34.801622,135.770978
1,8.13,34801622,135770978,6,112.5,0,0,0,0,2,0,2,t3.08 Rightrdn,34.801622,135.770978
1,8.14,34801622,135770978,6,112.5,0,0,0,0,2,0,2,t3.08 Rightrdn,34.801622,135.770978
1,8.15,34801622,135770978,6,112.5,0,0,0,0,2,0,2,t3.02 Rightrdn,34.801622,135.770978
1,8.16,34801622,135770978,6,112.5,0,0,0,0,2,0,2,t3.02 Rightrdn,34.801622,135.770978
1,8.17,34801622,135770978,6,112.5,0,0,0,0,2,0,2,t2.98 Rightrdn,34.801622,135.770978
1,8.18,34801622,135770978,6,112.5,0,0,0,0,2,0,2,t3.04 Rightrdn,34.801622,135.770978
1,8.19,34801622,135770978,6,112.5,0,0,0,0,2,0,2,t3.04 Rightrdn,34.801622,135.770978
1,8.2,34801622,135770978,6,112.5,0,0,0,0,2,0,2,t3.04 Rightrdn,34.801622,135.770978
1,8.21,34801622,135770978,6,112.5,0,0,0,0,2,0,2,t3.04 Rightrdn,34.801622,135.770978
1,8.22,34801622,135770978,6,112.5,0,0,0,0,2,0,2,t3.04 Rightrdn,34.801622,135.770978
1,8.23,34801622,135770978,6,112.5,0,0,0,0,2,0,2,t3.04 Rightrdn,34.801622,135.770978
1,8.24,34801622,135770979,6,112.5,0,0,0,0,2,0,2,t3.07 Rightrdn,34.801622,135.770979
1,8.25,34801622,135770979,6,112.5,0,0,0,0,2,0,2,t3.07 Rightrdn,34.801622,135.770979
1,8.26,34801622,135770979,6,112.5,0,0,0,0,2,0,2,t3.07 Rightrdn,34.801622,135.770979
1,8.27,34801622,135770979,6,112.5,0,0,0,0,2,0,2,t3.07 Rightrdn,34.801622,135.770979
1,8.29,34801622,135770978,6,112.5,0,0,0,0,2,0,2,t3.02 Rightrdn,34.801622,135.770978
1,8.3,34801622,135770978,6,123.75,0,0,0,0,2,0,2,t2.94 Rightrdn,34.801622,135.770978
1,8.31,34801621,135770978,6,123.75,0,0,0,0,2,0,2,t2.85 Rightrdn,34.801621,135.770978
1,8.32,34801621,135770978,6,112.5,0,0,0,0,2,0,2,t2.85 Rightrdn,34.801621,135.770978
1,8.33,34801621,135770978,6,123.75,0,0,0,0,2,0,2,t2.94 Rightrdn,34.801621,135.770978
1,8.34,34801621,135770978,6,112.5,0,0,0,0,2,0,2,t2.94 Rightrdn,34.801621,135.770978
1,8.35,34801621,135770977,6,123.75,0,0,0,0,2,0,2,t2.96 Rightk cn,34.801621,135.770977
1,8.36,34801621,135770977,6,112.5,0,0,0,0,2,0,2,t3.04 Rightk cn,34.801621,135.770977
1,8.37,34801621,135770977,6,112.5,0,0,0,0,2,0,2,t3.04 Rightk cn,34.801621,135.770977
1,8.38,34801621,135770977,6,123.75,0,0,0,0,2,0,2,t3.04 Rightk cn,34.801621,135.770977
1,8.39,34801621,135770977,6,123.75,0,0,0,0,2,0,2,t2.87 Rightk cn,34.801621,135.770977
1,8.4,34801621,135770977,6,112.5,0,0,0,0,2,0,2,t2.87 Rightk cn,34.801621,135.770977
1,8.41,34801621,135770976,7,123.75,0,0,0,0,2,0,2,t2.95 Rightk cn,34.801621,135.770976
1,8.42,34801621,135770976,6,123.75,0,0,0,0,2,0,2,t2.95 Rightk cn,34.801621,135.770976
1,8.43,34801621,135770976,7,112.5,0,0,0,0,2,0,2,t2.99 Rightk cn,34.801621,135.770976
1,8.44,34801621,135770976,6,112.5,0,0,0,0,2,0,2,t2.99 Rightk cn,34.801621,135.770976
1,8.45,34801621,135770976,6,112.5,0,0,0,0,2,0,2,t2.99 Rightk cn,34.801621,135.770976
1,8.46,34801621,135770976,7,112.5,0,0,0,0,2,0,2,t3.05 Rightk cn,34.801621,135.770976
1,8.47,34801621,135770975,7,112.5,0,0,0,0,2,0,2,t3.03 Rightk cn,34.801621,135.770975
1,8.48,34801621,135770975,6,112.5,0,0,0,0,2,0,2,t3.03 Rightk cn,34.801621,135.770975
1,8.49,34801621,135770975,6,112.5,0,0,0,0,2,0,2,t3.03 Rightk cn,34.801621,135.770975
1,8.5,34801621,135770975,7,112.5,0,0,0,0,2,0,2,t2.96 Rightk cn,34.801621,135.770975
1,8.51,34801621,135770975,6,112.5,0,0,0,0,2,0,2,t2.96 Rightk cn,34.801621,135.770975
1,8.52,34801621,135770975,7,112.5,0,0,0,0,2,0,2,t3.00 Rightk cn,34.801621,135.770975
1,8.53,34801620,135770975,7,112.5,0,0,0,0,2,0,2,t3.05 Rightk cn,34.80162,135.770975
1,8.55,34801620,135770975,6,123.75,0,0,0,0,2,0,2,t3.05 Rightk cn,34.80162,135.770975
1,8.56,34801620,135770975,6,123.75,0,0,0,0,2,0,2,t3.05 Rightk cn,34.80162,135.770975
1,8.57,34801620,135770975,6,112.5,0,0,0,0,2,0,2,t3.05 Rightk cn,34.80162,135.770975
1,8.58,34801620,135770975,6,112.5,0,0,0,0,2,0,2,t3.05 Rightk cn,34.80162,135.770975
1,8.59,34801621,135770976,7,112.5,0,0,0,0,2,0,2,t3.03 Rightk cn,34.801621,135.770976
1,9,34801621,135770976,6,123.75,0,0,0,0,2,0,2,t3.03 Rightk cn,34.801621,135.770976
1,9.1,34801621,135770976,6,112.5,0,0,0,0,2,0,2,t3.03 Rightk cn,34.801621,135.770976
1,9.2,34801621,135770976,7,112.5,0,0,0,0,2,0,2,t2.99 Rightk cn,34.801621,135.770976
1,9.3,34801621,135770976,6,123.75,0,0,0,0,2,0,2,t2.99 Rightk cn,34.801621,135.770976
1,9.4,34801621,135770976,6,123.75,0,0,0,0,2,0,2,t2.99 Rightk cn,34.801621,135.770976
1,9.5,34801620,135770976,7,112.5,0,0,0,0,2,0,2,t2.98 Rightk cn,34.80162,135.770976
1,9.6,34801620,135770976,6,112.5,0,0,0,0,2,0,2,t2.98 Rightk cn,34.80162,135.770976
1,9.7,34801620,135770976,7,123.75,0,0,0,0,2,0,2,t2.91 Rightk cn,34.80162,135.770976
1,9.8,34801620,135770976,6,112.5,0,0,0,0,2,0,2,t2.91 Rightk cn,34.80162,135.770976
1,9.9,34801620,135770976,6,112.5,0,0,0,0,2,0,2,t2.91 Rightk cn,34.80162,135.770976
1,9.1,34801620,135770976,6,123.75,0,0,0,0,2,0,2,t2.91 Rightk cn,34.80162,135.770976
1,9.11,34801620,135770976,7,112.5,0,0,0,0,2,0,2,t2.93 Rightk cn,34.80162,135.770976
1,9.12,34801620,135770976,6,123.75,0,0,0,0,2,0,2,t2.93 Rightk cn,34.80162,135.770976
1,9.13,34801620,135770976,7,112.5,0,0,0,0,2,0,2,t2.91 Rightk cn,34.80162,135.770976
1,9.14,34801620,135770976,7,112.5,0,0,0,0,2,0,2,t2.94 Rightk cn,34.80162,135.770976
1,9.15,34801620,135770976,6,123.75,0,0,0,0,2,0,2,t2.94 Rightk cn,34.80162,135.770976
1,9.16,34801620,135770976,7,112.5,0,0,0,0,2,0,2,t2.80 Rightk cn,34.80162,135.770976
1,9.17,34801620,135770976,6,123.75,0,0,0,0,2,0,2,t2.80 Rightk cn,34.80162,135.770976
1,9.18,34801620,135770976,7,112.5,0,0,0,0,2,0,2,t2.81 Rightk cn,34.80162,135.770976
1,9.19,34801620,135770976,6,123.75,0,0,0,0,2,0,2,t2.81 Rightk cn,34.80162,135.770976
1,9.21,34801620,135770976,6,123.75,0,0,0,0,2,0,2,t2.81 Rightk cn,34.80162,135.770976
1,9.22,34801620,135770976,7,123.75,0,0,0,0,2,0,2,t2.79 Rightk cn,34.80162,135.770976
1,9.23,34801620,135770976,6,123.75,0,0,0,0,2,0,2,t2.79 Rightk cn,34.80162,135.770976
1,9.24,34801620,135770976,7,123.75,0,0,0,0,2,0,2,t2.81 Rightk cn,34.80162,135.770976
1,9.25,34801620,135770976,6,123.75,0,0,0,0,2,0,2,t2.81 Rightk cn,34.80162,135.770976
1,9.26,34801620,135770976,6,123.75,0,0,0,0,2,0,2,t2.81 Rightk cn,34.80162,135.770976
1,9.27,34801620,135770976,6,123.75,0,0,0,0,2,0,2,t2.81 Rightk cn,34.80162,135.770976
1,9.28,34801620,135770975,7,123.75,0,0,0,0,2,0,2,t2.77 Rightk cn,34.80162,135.770975
1,9.29,34801620,135770975,7,123.75,0,0,0,0,2,0,2,t2.88 Rightk cn,34.80162,135.770975
1,9.3,34801620,135770975,7,123.75,0,0,0,0,2,0,2,t2.86 Rightk cn,34.80162,135.770975
1,9.31,34801620,135770975,6,123.75,0,0,0,0,2,0,2,t2.86 Rightk cn,34.80162,135.770975
1,9.32,34801620,135770975,7,123.75,0,0,0,0,2,0,2,t2.84 Rightk cn,34.80162,135.770975
1,9.33,34801620,135770975,6,123.75,0,0,0,0,2,0,2,t2.84 Rightk cn,34.80162,135.770975
1,9.34,34801620,135770975,6,135,0,0,0,0,2,0,2,t2.84 Rightk cn,34.80162,135.770975
1,9.35,34801620,135770975,6,123.75,0,0,0,0,2,0,2,t2.84 Rightk cn,34.80162,135.770975
1,9.36,34801619,135770975,7,112.5,0,0,0,0,2,0,2,t2.81 Rightk cn,34.801619,135.770975
1,9.37,34801619,135770975,7,112.5,0,0,0,0,2,0,2,t2.88 Rightk cn,34.801619,135.770975
1,9.38,34801619,135770975,6,123.75,0,0,0,0,2,0,2,t2.88 Rightk cn,34.801619,135.770975
1,9.39,34801619,135770975,6,123.75,0,0,0,0,2,0,2,t2.88 Rightk cn,34.801619,135.770975
1,9.4,34801619,135770975,7,112.5,0,0,0,0,2,0,2,t2.93 Rightk cn,34.801619,135.770975
1,9.41,34801619,135770975,6,123.75,0,0,0,0,2,0,2,t2.93 Rightk cn,34.801619,135.770975
1,9.42,34801619,135770975,7,112.5,0,0,0,0,2,0,2,t2.76 Rightk cn,34.801619,135.770975
1,9.43,34801619,135770975,6,123.75,0,0,0,0,2,0,2,t2.76 Rightk cn,34.801619,135.770975
1,9.44,34801619,135770975,6,123.75,0,0,0,0,2,0,2,t2.76 Rightk cn,34.801619,135.770975
1,9.45,34801619,135770975,7,112.5,0,0,0,0,2,0,2,t2.86 Rightk cn,34.801619,135.770975
1,9.47,34801619,135770975,6,123.75,0,0,0,0,2,0,2,t2.86 Rightk cn,34.801619,135.770975
1,9.48,34801619,135770975,6,123.75,0,0,0,0,2,0,2,t2.86 Rightk cn,34.801619,135.770975
1,9.49,34801619,135770975,7,123.75,0,0,0,0,2,0,2,t2.85 Rightk cn,34.801619,135.770975
1,9.5,34801619,135770975,7,112.5,0,0,0,0,2,0,2,t2.94 Rightk cn,34.801619,135.770975
1,9.51,34801619,135770976,6,112.5,0,0,0,0,2,0,2,t2.95 Rightk cn,34.801619,135.770976
1,9.52,34801619,135770976,6,112.5,0,0,0,0,2,0,2,t2.95 Rightk cn,34.801619,135.770976
1,9.53,34801619,135770976,6,112.5,0,0,0,0,2,0,2,t2.95 Rightk cn,34.801619,135.770976
1,9.54,34801619,135770976,6,123.75,0,0,0,0,2,0,2,t2.95 Rightk cn,34.801619,135.770976
1,9.55,34801619,135770976,6,123.75,0,0,0,0,2,0,2,t2.95 Rightk cn,34.801619,135.770976
1,9.56,34801619,135770977,6,123.75,0,0,0,0,2,0,2,t2.88 Rightk cn,34.801619,135.770977
1,9.57,34801619,135770977,6,123.75,0,0,0,0,2,0,2,t2.94 Rightk cn,34.801619,135.770977
1,9.58,34801619,135770977,6,112.5,0,0,0,0,2,0,2,t3.03 Rightk cn,34.801619,135.770977
1,9.59,34801619,135770977,6,112.5,0,0,0,0,2,0,2,t2.95 Rightk cn,34.801619,135.770977
1,10,34801619,135770977,6,112.5,0,0,0,0,2,0,2,t2.95 Rightk cn,34.801619,135.770977
1,10.1,34801619,135770977,6,123.75,0,0,0,0,2,0,2,t2.95 Rightk cn,34.801619,135.770977
1,10.2,34801619,135770977,6,123.75,0,0,0,0,2,0,2,t2.95 Rightk cn,34.801619,135.770977
1,10.3,34801619,135770978,6,112.5,0,0,0,0,2,0,2,t2.86 Rightk cn,34.801619,135.770978
1,10.4,34801619,135770978,6,112.5,0,0,0,0,2,0,2,t2.98 Rightk cn,34.801619,135.770978
1,10.5,34801619,135770978,6,112.5,0,0,0,0,2,0,2,t2.92 Rightk cn,34.801619,135.770978
1,10.6,34801619,135770978,6,123.75,0,0,0,0,2,0,2,t2.92 Rightk cn,34.801619,135.770978
1,10.7,34801619,135770978,6,123.75,0,0,0,0,2,0,2,t2.92 Rightk cn,34.801619,135.770978
1,10.8,34801619,135770978,6,123.75,0,0,0,0,2,0,2,t2.92 Rightk cn,34.801619,135.770978
1,10.9,34801620,135770978,6,112.5,0,0,0,0,2,0,2,t2.91 Rightk cn,34.80162,135.770978
1,10.1,34801620,135770978,6,112.5,0,0,0,0,2,0,2,t2.91 Rightk cn,34.80162,135.770978
1,10.11,34801620,135770978,6,112.5,0,0,0,0,2,0,2,t3.01 Rightk cn,34.80162,135.770978
1,10.13,34801620,135770978,6,112.5,0,0,0,0,2,0,2,t3.01 Rightk cn,34.80162,135.770978
1,10.14,34801620,135770978,6,112.5,0,0,0,0,2,0,2,t3.01 Rightk cn,34.80162,135.770978
1,10.15,34801620,135770979,6,112.5,0,0,0,0,2,0,2,t2.98 Rightk cn,34.80162,135.770979
1,10.16,34801620,135770979,6,112.5,0,0,0,0,2,0,2,t2.98 Rightk cn,34.80162,135.770979
1,10.17,34801620,135770979,6,123.75,0,0,0,0,2,0,2,t2.98 Rightk cn,34.80162,135.770979
1,10.18,34801620,135770979,6,123.75,0,0,0,0,2,0,2,t2.98 Rightk cn,34.80162,135.770979
1,10.19,34801620,135770979,6,123.75,0,0,0,0,2,0,2,t2.96 Rightk cn,34.80162,135.770979
1,10.2,34801620,135770979,6,112.5,0,0,0,0,2,0,2,t3.01 Rightk cn,34.80162,135.770979
1,10.21,34801619,135770979,6,123.75,0,0,0,0,2,0,2,t2.95 Rightk cn,34.801619,135.770979
1,10.22,34801619,135770979,6,112.5,0,0,0,0,2,0,2,t2.95 Rightk cn,34.801619,135.770979
1,10.23,34801619,135770979,6,112.5,0,0,0,0,2,0,2,t2.95 Rightk cn,34.801619,135.770979
1,10.24,34801619,135770979,6,123.75,0,0,0,0,2,0,2,t2.95 Rightk cn,34.801619,135.770979
1,10.25,34801619,135770979,6,112.5,0,0,0,0,2,0,2,t2.96 Rightk cn,34.801619,135.770979
1,10.26,34801619,135770979,6,123.75,0,0,0,0,2,0,2,t2.96 Rightk cn,34.801619,135.770979
1,10.27,34801620,135770979,6,112.5,0,0,0,0,2,0,2,t2.88 Rightk cn,34.80162,135.770979
1,10.28,34801620,135770979,6,123.75,0,0,0,0,2,0,2,t2.88 Rightk cn,34.80162,135.770979
1,10.29,34801620,135770979,6,123.75,0,0,0,0,2,0,2,t2.88 Rightk cn,34.80162,135.770979
1,10.3,34801620,135770979,6,123.75,0,0,0,0,2,0,2,t2.88 Rightk cn,34.80162,135.770979
1,10.31,34801620,135770979,6,123.75,0,0,0,0,2,0,2,t2.88 Rightk cn,34.80162,135.770979
1,10.32,34801620,135770979,6,112.5,0,0,0,0,2,0,2,t2.89 Rightk cn,34.80162,135.770979
1,10.33,34801620,135770979,6,112.5,0,0,0,0,2,0,2,t2.92 Rightk cn,34.80162,135.770979
1,10.34,34801620,135770979,6,123.75,0,0,0,0,2,0,2,t2.92 Rightk cn,34.80162,135.770979
1,10.35,34801620,135770979,6,123.75,0,0,0,0,2,0,2,t2.92 Rightk cn,34.80162,135.770979
1,10.36,34801620,135770979,6,112.5,0,0,0,0,2,0,2,t2.94 Rightk cn,34.80162,135.770979
1,10.37,34801620,135770979,6,123.75,0,0,0,0,2,0,2,t2.94 Rightk cn,34.80162,135.770979
1,10.39,34801620,135770979,6,123.75,0,0,0,0,2,0,2,t2.94 Rightk cn,34.80162,135.770979
1,10.4,34801620,135770979,6,123.75,0,0,0,0,2,0,2,t2.94 Rightk cn,34.80162,135.770979
1,10.41,34801620,135770979,6,123.75,0,0,0,0,2,0,2,t2.94 Rightk cn,34.80162,135.770979
1,10.42,34801620,135770979,6,123.75,0,0,0,0,2,0,2,t2.94 Rightk cn,34.80162,135.770979
1,10.43,34801620,135770979,6,123.75,0,0,0,0,2,0,2,t2.94 Rightk cn,34.80162,135.770979
1,10.44,34801620,135770979,6,112.5,0,0,0,0,2,0,2,t2.99 Rightk cn,34.80162,135.770979
1,10.45,34801620,135770979,6,112.5,0,0,0,0,2,0,2,t2.99 Rightk cn,34.80162,135.770979
1,10.46,34801620,135770979,6,112.5,0,0,0,0,2,0,2,t2.99 Rightk cn,34.80162,135.770979
1,10.47,34801620,135770979,6,112.5,0,0,0,0,2,0,2,t3.00 Rightk cn,34.80162,135.770979
1,10.48,34801620,135770979,6,112.5,0,0,0,0,2,0,2,t3.00 Rightk cn,34.80162,135.770979
1,10.49,34801620,135770979,6,112.5,0,0,0,0,2,0,2,t3.00 Rightk cn,34.80162,135.770979
1,10.5,34801620,135770979,6,123.75,0,0,0,0,2,0,2,t2.91 Rightk cn,34.80162,135.770979
1,10.51,34801620,135770979,6,112.5,0,0,0,0,2,0,2,t3.05 Rightk cn,34.80162,135.770979
1,10.52,34801620,135770979,6,112.5,0,0,0,0,2,0,2,t2.99 Rightk cn,34.80162,135.770979
1,10.53,34801620,135770979,6,112.5,0,0,0,0,2,0,2,t2.99 Rightk cn,34.80162,135.770979
1,10.54,34801620,135770979,6,112.5,0,0,0,0,2,0,2,t2.99 Rightk cn,34.80162,135.770979
1,10.55,34801619,135770978,6,112.5,0,0,0,0,2,0,2,t2.98 Rightk cn,34.801619,135.770978
1,10.56,34801619,135770978,6,112.5,0,0,0,0,2,0,2,t3.04 Rightk cn,34.801619,135.770978
1,10.57,34801619,135770978,6,123.75,0,0,0,0,2,0,2,t3.04 Rightk cn,34.801619,135.770978
1,10.58,34801619,135770978,6,123.75,0,0,0,0,2,0,2,t3.04 Rightk cn,34.801619,135.770978
1,10.59,34801619,135770978,6,112.5,0,0,0,0,2,0,2,t2.93 Rightk cn,34.801619,135.770978
1,11,34801619,135770978,6,112.5,0,0,0,0,2,0,2,t2.96 Rightk cn,34.801619,135.770978
1,11.1,34801619,135770978,6,112.5,0,0,0,0,2,0,2,t2.97 Rightk cn,34.801619,135.770978
1,11.2,34801619,135770978,6,123.75,0,0,0,0,2,0,2,t2.97 Rightk cn,34.801619,135.770978
1,11.3,34801619,135770978,6,123.75,0,0,0,0,2,0,2,t2.97 Rightk cn,34.801619,135.770978
1,11.5,34801619,135770978,6,123.75,0,0,0,0,2,0,2,t2.97 Rightk cn,34.801619,135.770978
1,11.6,34801619,135770978,6,123.75,0,0,0,0,2,0,2,t2.97 Rightk cn,34.801619,135.770978
1,11.7,34801619,135770978,6,123.75,0,0,0,0,2,0,2,t2.97 Rightk cn,34.801619,135.770978
1,11.8,34801619,135770978,6,123.75,0,0,0,0,2,0,2,t2.97 Rightk cn,34.801619,135.770978
1,11.9,34801619,135770978,6,123.75,0,0,0,0,2,0,2,t2.97 Rightk cn,34.801619,135.770978
1,11.1,34801619,135770978,6,123.75,0,0,0,0,2,0,2,t2.89 Rightk cn,34.801619,135.770978
1,11.11,34801619,135770978,6,112.5,0,0,0,0,2,0,2,t2.89 Rightk cn,34.801619,135.770978
1,11.12,34801619,135770978,6,123.75,0,0,0,0,2,0,2,t2.89 Rightk cn,34.801619,135.770978
1,11.13,34801619,135770978,6,123.75,0,0,0,0,2,0,2,t2.91 Rightk cn,34.801619,135.770978
1,11.14,34801619,135770978,6,112.5,0,0,0,0,2,0,2,t2.91 Rightk cn,34.801619,135.770978
1,11.15,34801619,135770978,6,112.5,0,0,0,0,2,0,2,t2.97 Rightk cn,34.801619,135.770978
1,11.16,34801619,135770978,6,123.75,0,0,0,0,2,0,2,t2.97 Rightk cn,34.801619,135.770978
1,11.17,34801619,135770978,6,123.75,0,0,0,0,2,0,2,t2.97 Rightk cn,34.801619,135.770978
1,11.18,34801619,135770978,6,123.75,0,0,0,0,2,0,2,t2.97 Rightk cn,34.801619,135.770978
1,11.19,34801619,135770978,6,123.75,0,0,0,0,2,0,2,t2.90 Rightk cn,34.801619,135.770978
1,11.2,34801619,135770978,6,112.5,0,0,0,0,2,0,2,t2.90 Rightk cn,34.801619,135.770978
1,11.21,34801619,135770978,6,112.5,0,0,0,0,2,0,2,t2.91 Rightk cn,34.801619,135.770978
1,11.22,34801619,135770978,6,112.5,0,0,0,0,2,0,2,t2.90 Rightk cn,34.801619,135.770978
1,11.23,34801618,135770978,6,112.5,0,0,0,0,2,0,2,t2.97 Rightk cn,34.801618,135.770978
1,11.24,34801618,135770978,6,112.5,0,0,0,0,2,0,2,t2.97 Rightk cn,34.801618,135.770978
1,11.25,34801618,135770978,6,112.5,0,0,0,0,2,0,2,t3.00 Rightk cn,34.801618,135.770978
1,11.26,34801618,135770978,6,112.5,0,0,0,0,2,0,2,t3.00 Rightk cn,34.801618,135.770978
1,11.27,34801618,135770978,6,112.5,0,0,0,0,2,0,2,t3.00 Rightk cn,34.801618,135.770978
1,11.28,34801618,135770978,6,112.5,0,0,0,0,2,0,2,t2.92 Rightk cn,34.801618,135.770978
1,11.29,34801618,135770978,6,112.5,0,0,0,0,2,0,2,t2.92 Rightk cn,34.801618,135.770978
1,11.31,34801618,135770978,6,112.5,0,0,0,0,2,0,2,t2.92 Rightk cn,34.801618,135.770978
1,11.32,34801618,135770978,6,112.5,0,0,0,0,2,0,2,t2.99 Rightk cn,34.801618,135.770978
1,11.33,34801618,135770978,6,112.5,0,0,0,0,2,0,2,t2.99 Rightk cn,34.801618,135.770978
1,11.34,34801618,135770978,6,112.5,0,0,0,0,2,0,2,t2.99 Rightk cn,34.801618,135.770978
1,11.35,34801618,135770978,6,112.5,0,0,0,0,2,0,2,t2.99 Rightk cn,34.801618,135.770978
1,11.36,34801618,135770978,6,123.75,0,0,0,0,2,0,2,t2.89 Rightk cn,34.801618,135.770978
1,11.37,34801618,135770978,6,112.5,0,0,0,0,2,0,2,t2.97 Rightk cn,34.801618,135.770978
1,11.38,34801618,135770978,6,112.5,0,0,0,0,2,0,2,t2.97 Rightk cn,34.801618,135.770978
1,11.39,34801618,135770978,6,123.75,0,0,0,0,2,0,2,t2.97 Rightk cn,34.801618,135.770978
1,11.4,34801617,135770977,6,123.75,0,0,0,0,2,0,2,t2.87 Rightk cn,34.801617,135.770977
1,11.41,34801617,135770977,6,112.5,0,0,0,0,2,0,2,t2.87 Rightk cn,34.801617,135.770977
1,11.42,34801617,135770977,6,123.75,0,0,0,0,2,0,2,t2.89 Rightk cn,34.801617,135.770977
1,11.43,34801617,135770977,6,112.5,0,0,0,0,2,0,2,t2.89 Rightk cn,34.801617,135.770977
1,11.44,34801617,135770977,6,112.5,0,0,0,0,2,0,2,t3.02 Rightk cn,34.801617,135.770977
1,11.45,34801617,135770977,6,112.5,0,0,0,0,2,0,2,t3.02 Rightk cn,34.801617,135.770977
1,11.46,34801617,135770977,6,123.75,0,0,0,0,2,0,2,t3.02 Rightk cn,34.801617,135.770977
1,11.47,34801617,135770977,6,123.75,0,0,0,0,2,0,2,t3.02 Rightk cn,34.801617,135.770977
1,11.48,34801617,135770977,6,112.5,0,0,0,0,2,0,2,t2.90 Rightk cn,34.801617,135.770977
1,11.49,34801617,135770977,6,112.5,0,0,0,0,2,0,2,t3.01 Rightk cn,34.801617,135.770977
1,11.5,34801617,135770977,6,112.5,0,0,0,0,2,0,2,t3.01 Rightk cn,34.801617,135.770977
1,11.51,34801617,135770977,6,112.5,0,0,0,0,2,0,2,t2.97 Rightk cn,34.801617,135.770977
1,11.52,34801617,135770977,6,123.75,0,0,0,0,2,0,2,t2.97 Rightk cn,34.801617,135.770977
1,11.53,34801617,135770977,6,123.75,0,0,0,0,2,0,2,t2.97 Rightk cn,34.801617,135.770977
1,11.54,34801617,135770976,6,112.5,0,0,0,0,2,0,2,t2.87 Rightk cn,34.801617,135.770976
1,11.55,34801617,135770976,6,123.75,0,0,0,0,2,0,2,t2.87 Rightk cn,34.801617,135.770976
1,11.57,34801617,135770976,6,123.75,0,0,0,0,2,0,2,t2.87 Rightk cn,34.801617,135.770976
1,11.58,34801617,135770976,6,123.75,0,0,0,0,2,0,2,t2.87 Rightk cn,34.801617,135.770976
1,11.59,34801617,135770976,6,123.75,0,0,0,0,2,0,2,t2.91 Rightk cn,34.801617,135.770976
1,12,34801617,135770976,6,112.5,0,0,0,0,2,0,2,t2.96 Rightk cn,34.801617,135.770976
1,12.1,34801617,135770976,6,112.5,0,0,0,0,2,0,2,t2.96 Rightk cn,34.801617,135.770976
1,12.2,34801617,135770976,6,123.75,0,0,0,0,2,0,2,t2.96 Rightk cn,34.801617,135.770976
1,12.3,34801617,135770976,6,112.5,0,0,0,0,2,0,2,t2.92 Rightk cn,34.801617,135.770976
1,12.4,34801617,135770976,6,112.5,0,0,0,0,2,0,2,t2.92 Rightk cn,34.801617,135.770976
1,12.5,34801617,135770976,6,123.75,0,0,0,0,2,0,2,t2.91 Rightk cn,34.801617,135.770976
1,12.6,34801617,135770976,6,112.5,0,0,0,0,2,0,2,t3.00 Rightk cn,34.801617,135.770976
1,12.7,34801617,135770976,6,112.5,0,0,0,0,2,0,2,t2.97 Rightk cn,34.801617,135.770976
1,12.8,34801617,135770976,6,123.75,0,0,0,0,2,0,2,t2.97 Rightk cn,34.801617,135.770976
1,12.9,34801617,135770976,6,112.5,0,0,0,0,2,0,2,t2.97 Rightk cn,34.801617,135.770976
1,12.1,34801617,135770976,6,123.75,0,0,0,0,2,0,2,t2.92 Rightk cn,34.801617,135.770976
1,12.11,34801617,135770976,6,112.5,0,0,0,0,2,0,2,t2.95 Rightk cn,34.801617,135.770976
1,12.12,34801617,135770976,6,112.5,0,0,0,0,2,0,2,t2.95 Rightk cn,34.801617,135.770976
1,12.13,34801617,135770976,6,112.5,0,0,0,0,2,0,2,t2.89 Rightk cn,34.801617,135.770976
1,12.14,34801617,135770976,6,112.5,0,0,0,0,2,0,2,t2.89 Rightk cn,34.801617,135.770976
1,12.15,34801617,135770976,6,112.5,0,0,0,0,2,0,2,t2.89 Rightk cn,34.801617,135.770976
1,12.16,34801617,135770976,6,123.75,0,0,0,0,2,0,2,t2.89 Rightk cn,34.801617,135.770976
1,12.17,34801617,135770977,6,112.5,0,0,0,0,2,0,2,t2.90 Rightk cn,34.801617,135.770977
1,12.18,34801617,135770977,6,112.5,0,0,0,0,2,0,2,t2.85 Rightk cn,34.801617,135.770977
1,12.19,34801617,135770977,6,112.5,0,0,0,0,2,0,2,t2.85 Rightk cn,34.801617,135.770977
1,12.2,34801617,135770977,6,112.5,0,0,0,0,2,0,2,t2.85 Rightk cn,34.801617,135.770977
1,12.21,34801617,135770977,6,112.5,0,0,0,0,2,0,2,t2.85 Rightk cn,34.801617,135.770977
1,12.23,34801617,135770977,6,112.5,0,0,0,0,2,0,2,t2.85 Rightk cn,34.801617,135.770977
1,12.24,34801617,135770978,6,112.5,0,0,0,0,2,0,2,t3.01 Rightk cn,34.801617,135.770978
1,12.25,34801617,135770978,6,123.75,0,0,0,0,2,0,2,t3.01 Rightk cn,34.801617,135.770978
1,12.26,34801617,135770978,6,123.75,0,0,0,0,2,0,2,t3.01 Rightk cn,34.801617,135.770978
1,12.27,34801617,135770978,6,123.75,0,0,0,0,2,0,2,t3.01 Rightk cn,34.801617,135.770978
1,12.28,34801617,135770978,6,123.75,0,0,0,0,2,0,2,t3.01 Rightk cn,34.801617,135.770978
1,12.29,34801617,135770978,6,123.75,0,0,0,0,2,0,2,t2.87 Rightk cn,34.801617,135.770978
1,12.3,34801617,135770978,6,112.5,0,0,0,0,2,0,2,t2.97 Rightk cn,34.801617,135.770978
1,12.31,34801617,135770978,6,112.5,0,0,0,0,2,0,2,t2.97 Rightk cn,34.801617,135.770978
1,12.32,34801617,135770978,6,112.5,0,0,0,0,2,0,2,t2.97 Rightk cn,34.801617,135.770978
1,12.33,34801617,135770978,6,123.75,0,0,0,0,2,0,2,t2.97 Rightk cn,34.801617,135.770978
1,12.34,34801617,135770978,6,112.5,0,0,0,0,2,0,2,t2.96 Rightk cn,34.801617,135.770978
1,12.35,34801617,135770978,6,112.5,0,0,0,0,2,0,2,t2.96 Rightk cn,34.801617,135.770978
1,12.36,34801617,135770978,6,112.5,0,0,0,0,2,0,2,t2.96 Rightk cn,34.801617,135.770978
1,12.37,34801617,135770978,6,112.5,0,0,0,0,2,0,2,t2.96 Rightk cn,34.801617,135.770978
