code,min.sec,lat,lon,dist,yaw,roll,pitch,yaw_to_goal,motor_left,motor_right,stack,seq,data,latitude,longitude
10,0.4,0,0,244,202.5,0,0,0,0,0,0,1,172.9 altNRdy,0,0
10,0.5,0,0,3,202.5,0,0,0,0,0,0,1,173.0 altNRdy,0,0
10,0.4,0,0,244,247.5,0,0,0,0,0,0,1,169.9 altNRdy,0,0
10,0.5,0,0,3,247.5,0,0,0,0,0,0,1,169.9 altNRdy,0,0
10,0.6,0,0,244,247.5,0,0,0,0,0,0,1,170.0 altNRdy,0,0
10,0.7,0,0,244,247.5,0,0,0,0,0,0,1,170.0 altNRdy,0,0
10,0.8,0,0,244,247.5,0,0,0,0,0,0,1,170.0 altNRdy,0,0
10,0.9,0,0,244,247.5,0,0,0,0,0,0,1,170.0 altNRdy,0,0
10,0.1,0,0,244,247.5,0,0,0,0,0,0,1,170.0 altNRdy,0,0
10,0.11,0,0,244,247.5,0,0,0,0,0,0,1,170.0 altNRdy,0,0
10,0.12,0,0,244,247.5,0,0,0,0,0,0,1,170.0 altNRdy,0,0
10,0.13,0,0,244,247.5,0,0,0,0,0,0,1,170.0 altNRdy,0,0
10,0.15,0,0,244,247.5,0,0,0,0,0,0,1,170.0 altNRdy,0,0
10,0.16,0,0,244,247.5,0,0,0,0,0,0,1,170.0 altNRdy,0,0
10,0.17,0,0,244,247.5,0,0,0,0,0,0,1,170.0 altNRdy,0,0
10,0.18,0,0,244,247.5,0,0,0,0,0,0,1,170.0 altNRdy,0,0
10,0.19,0,0,3,247.5,0,0,0,0,0,0,1,170.0 altNRdy,0,0
10,0.2,0,0,244,225,0,0,0,0,0,0,1,170.0 altNRdy,0,0
10,0.21,0,0,244,258.75,0,22.5,0,0,0,0,1,170.0 altNRdy,0,0
10,0.22,0,0,244,247.5,0,22.5,0,0,0,0,1,170.0 altNRdy,0,0
10,0.23,0,0,244,247.5,0,0,0,0,0,0,1,170.0 altNRdy,0,0
10,0.24,0,0,244,236.25,0,0,0,0,0,0,1,171.7 c5 Rise,0,0
10,0.25,0,0,3,191.25,0,0,0,0,0,0,1,171.7 c5 Rise,0,0
10,0.26,0,0,244,168.75,0,0,0,0,0,0,1,171.7 c5 Rise,0,0
10,0.27,0,0,244,213.75,0,0,0,0,0,0,1,171.7 c5 Rise,0,0
10,0.28,0,0,244,236.25,0,0,0,0,0,0,1,170.3 c5 Fall,0,0
10,0.29,0,0,3,202.5,0,0,0,0,0,0,1,170.3 c5 Fall,0,0
10,0.3,0,0,244,213.75,0,0,0,0,0,0,1,170.3 c5 Fall,0,0
10,0.31,0,0,3,213.75,0,0,0,0,0,0,1,170.3 c5 Fall,0,0
10,0.32,0,0,15,213.75,0,0,0,0,0,0,6,0.1 s0.01 a -0 L,0,0
10,0.33,0,0,244,281.25,0,0,0,0,0,0,6,NC 1 Heata -0 L,0,0
10,0.34,0,0,244,337.5,0,0,0,0,0,0,6,NC 3 Heata -0 L,0,0
10,0.35,34801614,135770957,8,315,0,0,0,0,0,0,6,NC 5 Heata -0 L,34.801614,135.770957
10,0.36,34801614,135770957,8,337.5,0,0,0,0,0,0,2,NC 0 Donea -0 L,34.801614,135.770957
10,0.37,34801613,135770959,8,236.25,0,0,0,0,2,0,2,t0.83 RightrdL,34.801613,135.770959
10,0.38,34801615,135770962,8,236.25,0,0,0,0,2,0,2,t0.86 RightrdL,34.801615,135.770962
10,0.39,34801615,135770962,7,225,0,0,0,0,2,0,2,t0.86 RightrdL,34.801615,135.770962
10,0.41,34801626,135770971,7,225,0,0,0,0,2,0,2,t1.07 RightrdL,34.801626,135.770971
10,0.42,34801626,135770971,7,225,0,0,0,0,2,0,2,t1.07 RightrdL,34.801626,135.770971
10,0.43,34801639,135770977,7,225,0,0,0,0,2,0,2,t1.39 RightrdL,34.801639,135.770977
10,0.44,34801639,135770977,7,236.25,0,0,0,0,2,0,2,t1.39 RightrdL,34.801639,135.770977
10,0.45,34801639,135770977,7,236.25,0,0,0,0,2,0,2,t1.39 RightrdL,34.801639,135.770977
10,0.46,34801625,135770967,7,236.25,0,0,0,0,2,0,2,t1.01 RightrdL,34.801625,135.770967
10,0.47,3801625,135770965,234,236.25,0,0,0,0,2,0,2,t2.16 RightrdL,3.801625,135.770965
10,0.48,34801626,135770961,8,236.25,0,0,0,0,2,0,2,t0.97 RightrdL,34.801626,135.770961
10,0.49,34801626,135770960,8,236.25,0,0,0,0,2,0,2,t0.88 RightrdL,34.801626,135.77096
10,0.5,34801626,135770960,8,236.25,0,0,0,0,2,0,2,t0.88 RightrdL,34.801626,135.77096
10,0.51,34801626,135770960,8,236.25,0,0,0,0,2,0,2,t0.88 RightrdL,34.801626,135.77096
10,0.52,34801626,135770960,8,236.25,0,0,0,0,2,0,2,t0.88 RightrdL,34.801626,135.77096
10,0.53,34801626,135770960,7,236.25,0,0,0,0,2,0,2,t0.88 RightrdL,34.801626,135.77096
10,0.54,34801626,135770960,7,236.25,0,0,0,0,2,0,2,t0.88 RightrdL,34.801626,135.77096
10,0.55,34801623,135770959,8,247.5,0,0,0,0,2,0,2,t0.92 RightrdL,34.801623,135.770959
10,0.56,34801623,135770959,8,236.25,0,0,0,0,2,0,2,t0.92 RightrdL,34.801623,135.770959
10,0.57,34801623,135770959,8,236.25,0,0,0,0,2,0,2,t0.92 RightrdL,34.801623,135.770959
10,0.58,34801623,135770959,8,236.25,0,0,0,0,2,0,2,t0.92 RightrdL,34.801623,135.770959
10,0.59,34801620,135770956,8,236.25,0,0,0,0,2,0,2,t0.92 RightrdL,34.80162,135.770956
10,1,34801620,135770956,8,236.25,0,0,0,0,2,0,2,t0.92 RightrdL,34.80162,135.770956
10,1.1,34801620,135770956,8,236.25,0,0,0,0,2,0,2,t0.92 RightrdL,34.80162,135.770956
10,1.2,34801620,135770956,8,236.25,0,0,0,0,2,0,2,t0.92 RightrdL,34.80162,135.770956
10,1.3,34801618,135770951,9,236.25,0,0,0,0,2,0,2,t0.86 RightrdL,34.801618,135.770951
10,1.4,34801618,135770951,8,236.25,0,0,0,0,2,0,2,t0.86 RightrdL,34.801618,135.770951
10,1.5,34801618,135770951,8,236.25,0,0,0,0,2,0,2,t0.86 RightrdL,34.801618,135.770951
10,1.7,34801618,135770951,8,225,0,0,0,0,2,0,2,t0.86 RightrdL,34.801618,135.770951
10,1.8,34801618,135770951,8,236.25,0,0,0,0,2,0,2,t0.86 RightrdL,34.801618,135.770951
10,1.9,34801618,135770949,9,225,0,0,0,0,2,0,2,t0.90 RightrdL,34.801618,135.770949
10,1.1,34801618,135770949,9,236.25,0,0,0,0,2,0,2,t0.90 RightrdL,34.801618,135.770949
10,1.11,34801618,135770949,8,236.25,0,0,0,0,2,0,2,t0.90 RightrdL,34.801618,135.770949
10,1.12,34801618,135770949,8,236.25,0,0,0,0,2,0,2,t0.90 RightrdL,34.801618,135.770949
10,1.13,34801618,135770949,8,236.25,0,0,0,0,2,0,2,t0.90 RightrdL,34.801618,135.770949
10,1.14,34801617,135770948,9,236.25,0,0,0,0,2,0,2,t0.77 RightrdL,34.801617,135.770948
10,1.15,34801617,135770948,9,236.25,0,0,0,0,2,0,2,t0.77 RightrdL,34.801617,135.770948
10,1.16,34801617,135770948,9,236.25,0,0,0,0,2,0,2,t0.77 RightrdL,34.801617,135.770948
10,1.17,34801617,135770948,8,236.25,0,0,0,0,2,0,2,t0.77 RightrdL,34.801617,135.770948
10,1.18,34801615,135770948,9,236.25,0,0,0,0,2,0,2,t0.85 RightrdL,34.801615,135.770948
10,1.19,34801615,135770948,9,236.25,0,0,0,0,2,0,2,t0.85 RightrdL,34.801615,135.770948
10,1.2,34801615,135770948,8,236.25,0,0,0,0,2,0,2,t0.85 RightrdL,34.801615,135.770948
10,1.21,34801615,135770948,8,236.25,0,0,0,0,2,0,2,t0.85 RightrdL,34.801615,135.770948
10,1.22,34801614,135770948,9,236.25,0,0,0,0,2,0,2,t0.76 RightrdL,34.801614,135.770948
10,1.23,34801614,135770948,9,225,0,0,0,0,2,0,2,t0.76 RightrdL,34.801614,135.770948
10,1.24,34801613,135770948,9,247.5,0,0,0,0,2,0,2,t0.86 RightrdL,34.801613,135.770948
10,1.25,34801613,135770948,9,225,0,0,0,0,2,0,2,t0.86 RightrdL,34.801613,135.770948
10,1.26,34801613,135770948,8,225,0,0,0,0,2,0,2,t0.86 RightrdL,34.801613,135.770948
10,1.27,34801613,135770948,8,225,0,0,0,0,2,0,2,t0.86 RightrdL,34.801613,135.770948
10,1.28,34801613,135770948,8,225,0,0,0,0,2,0,2,t0.86 RightrdL,34.801613,135.770948
10,1.29,34801613,135770948,9,225,0,0,0,0,2,0,2,t0.86 RightrdL,34.801613,135.770948
10,1.3,34801613,135770948,9,225,0,0,0,0,2,0,2,t0.86 RightrdL,34.801613,135.770948
10,1.31,34801611,135770950,8,225,0,0,0,0,2,0,2,t0.88 RightrdL,34.801611,135.77095
10,1.33,34801610,135770951,8,236.25,0,0,0,0,2,0,2,t0.79 RightrdL,34.80161,135.770951
10,1.34,34801610,135770951,8,225,0,0,0,0,2,0,2,t0.79 RightrdL,34.80161,135.770951
10,1.35,34801610,135770951,8,225,0,0,0,0,2,0,2,t0.79 RightrdL,34.80161,135.770951
10,1.36,34801610,135770951,8,225,0,0,0,0,2,0,2,t0.79 RightrdL,34.80161,135.770951
10,1.37,34801610,135770951,8,225,0,0,0,0,2,0,2,t0.79 RightrdL,34.80161,135.770951
10,1.38,34801610,135770952,8,225,0,0,0,0,2,0,2,t0.89 RightrdL,34.80161,135.770952
10,1.39,34801610,135770952,8,236.25,0,0,0,0,2,0,2,t0.89 RightrdL,34.80161,135.770952
10,1.4,34801610,135770952,8,236.25,0,0,0,0,2,0,2,t0.72 RightrdL,34.80161,135.770952
10,1.41,34801610,135770952,8,225,0,0,0,0,2,0,2,t0.72 RightrdL,34.80161,135.770952
10,1.42,34801610,135770952,8,225,0,0,0,0,2,0,2,t0.72 RightrdL,34.80161,135.770952
10,1.43,34801610,135770952,8,225,0,0,0,0,2,0,2,t0.72 RightrdL,34.80161,135.770952
10,1.44,34801611,135770953,8,236.25,0,0,0,0,2,0,2,t0.91 RightrdL,34.801611,135.770953
10,1.45,34801611,135770953,8,236.25,0,0,0,0,2,0,2,t0.76 RightrdL,34.801611,135.770953
10,1.46,34801611,135770953,8,225,0,0,0,0,2,0,2,t0.76 RightrdL,34.801611,135.770953
10,1.47,34801611,135770953,8,225,0,0,0,0,2,0,2,t0.76 RightrdL,34.801611,135.770953
10,1.48,34801611,135770953,8,225,0,0,0,0,2,0,2,t0.76 RightrdL,34.801611,135.770953
10,1.49,34801611,135770953,8,225,0,0,0,0,2,0,2,t0.76 RightrdL,34.801611,135.770953
10,1.5,34801611,135770953,8,225,0,0,0,0,2,0,2,t0.76 RightrdL,34.801611,135.770953
10,1.51,34801611,135770954,8,236.25,0,0,0,0,2,0,2,t0.88 RightrdL,34.801611,135.770954
10,1.52,34801611,135770954,8,225,0,0,0,0,2,0,2,t0.88 RightrdL,34.801611,135.770954
10,1.53,34801611,135770954,8,225,0,0,0,0,2,0,2,t0.88 RightrdL,34.801611,135.770954
10,1.54,34801611,135770954,8,225,0,0,0,0,2,0,2,t0.88 RightrdL,34.801611,135.770954
10,1.55,34801611,135770954,8,225,0,0,0,0,2,0,2,t0.88 RightrdL,34.801611,135.770954
10,1.56,34801611,135770954,8,225,0,0,0,0,2,0,2,t0.88 RightrdL,34.801611,135.770954
10,1.57,34801611,135770955,8,225,0,0,0,0,2,0,2,t0.92 RightrdL,34.801611,135.770955
10,1.59,34801611,135770955,8,236.25,0,0,0,0,2,0,2,t0.92 RightrdL,34.801611,135.770955
10,2,34801611,135770955,8,236.25,0,0,0,0,2,0,2,t0.92 RightrdL,34.801611,135.770955
10,2.1,34801611,135770955,8,236.25,0,0,0,0,2,0,2,t0.92 RightrdL,34.801611,135.770955
10,2.2,34801611,135770955,8,236.25,0,0,0,0,2,0,2,t0.77 RightrdL,34.801611,135.770955
10,2.3,34801610,135770955,8,225,0,0,0,0,2,0,2,t0.86 RightrdL,34.80161,135.770955
10,2.4,34801610,135770955,8,236.25,0,0,0,0,2,0,2,t0.73 RightrdL,34.80161,135.770955
10,2.5,34801610,135770955,8,225,0,0,0,0,2,0,2,t0.73 RightrdL,34.80161,135.770955
10,2.6,34801610,135770955,8,225,0,0,0,0,2,0,2,t0.90 RightrdL,34.80161,135.770955
10,2.7,34801610,135770955,8,236.25,0,0,0,0,2,0,2,t0.70 RightrdL,34.80161,135.770955
10,2.8,34801610,135770955,8,225,0,0,0,0,2,0,2,t0.70 RightrdL,34.80161,135.770955
10,2.9,34801610,135770955,8,225,0,0,0,0,2,0,2,t0.70 RightrdL,34.80161,135.770955
10,2.1,34801610,135770955,8,225,0,0,0,0,2,0,2,t0.70 RightrdL,34.80161,135.770955
10,2.11,34801610,135770955,8,225,0,0,0,0,2,0,2,t0.70 RightrdL,34.80161,135.770955
10,2.12,34801610,135770955,8,225,0,0,0,0,2,0,2,t0.70 RightrdL,34.80161,135.770955
10,2.13,34801610,135770955,8,236.25,0,0,0,0,2,0,2,t0.88 RightrdL,34.80161,135.770955
10,2.14,34801610,135770955,8,225,0,0,0,0,2,0,2,t0.88 RightrdL,34.80161,135.770955
10,2.15,34801610,135770955,8,225,0,0,0,0,2,0,2,t0.88 RightrdL,34.80161,135.770955
10,2.16,34801610,135770955,8,225,0,0,0,0,2,0,2,t0.88 RightrdL,34.80161,135.770955
10,2.17,34801610,135770955,8,225,0,0,0,0,2,0,2,t0.88 RightrdL,34.80161,135.770955
10,2.18,34801610,135770955,8,225,0,0,0,0,2,0,2,t0.88 RightrdL,34.80161,135.770955
10,2.19,34801609,135770955,8,236.25,0,0,0,0,2,0,2,t0.89 RightrdL,34.801609,135.770955
10,2.2,34801609,135770955,8,236.25,0,0,0,0,2,0,2,t0.89 RightrdL,34.801609,135.770955
10,2.21,34801609,135770955,8,236.25,0,0,0,0,2,0,2,t0.89 RightrdL,34.801609,135.770955
10,2.22,34801609,135770955,8,236.25,0,0,0,0,2,0,2,t0.89 RightrdL,34.801609,135.770955
10,2.23,34801609,135770955,8,236.25,0,0,0,0,2,0,2,t0.89 RightrdL,34.801609,135.770955
10,2.25,34801609,135770955,8,236.25,0,0,0,0,2,0,2,t0.80 RightrdL,34.801609,135.770955
10,2.26,34801609,135770955,8,225,0,0,0,0,2,0,2,t0.80 RightrdL,34.801609,135.770955
10,2.27,34801609,135770955,8,225,0,0,0,0,2,0,2,t0.80 RightrdL,34.801609,135.770955
10,2.28,34801609,135770955,8,225,0,0,0,0,2,0,2,t0.80 RightrdL,34.801609,135.770955
10,2.29,34801609,135770955,8,225,0,0,0,0,2,0,2,t0.80 RightrdL,34.801609,135.770955
10,2.3,34801609,135770955,8,225,0,0,0,0,2,0,2,t0.90 RightrdL,34.801609,135.770955
10,2.31,34801609,135770955,8,236.25,0,0,0,0,2,0,2,t0.90 RightrdL,34.801609,135.770955
10,2.32,34801609,135770955,8,236.25,0,0,0,0,2,0,2,t0.68 RightrdL,34.801609,135.770955
10,2.33,34801609,135770955,8,225,0,0,0,0,2,0,2,t0.68 RightrdL,34.801609,135.770955
10,2.34,34801609,135770955,8,225,0,0,0,0,2,0,2,t0.68 RightrdL,34.801609,135.770955
10,2.35,34801609,135770955,8,225,0,0,0,0,2,0,2,t0.68 RightrdL,34.801609,135.770955
10,2.36,34801609,135770955,8,225,0,0,0,0,2,0,2,t0.68 RightrdL,34.801609,135.770955
10,2.37,34801609,135770955,8,236.25,0,0,0,0,2,0,2,t0.91 RightrdL,34.801609,135.770955
10,2.38,34801609,135770955,8,225,0,0,0,0,2,0,2,t0.91 RightrdL,34.801609,135.770955
10,2.39,34801609,135770955,8,225,0,0,0,0,2,0,2,t0.91 RightrdL,34.801609,135.770955
10,2.4,34801609,135770955,8,225,0,0,0,0,2,0,2,t0.91 RightrdL,34.801609,135.770955
10,2.41,34801610,135770956,8,236.25,0,0,0,0,2,0,2,t0.91 RightrdL,34.80161,135.770956
10,2.42,34801610,135770956,8,225,0,0,0,0,2,0,2,t0.91 RightrdL,34.80161,135.770956
10,2.43,34801610,135770956,8,236.25,0,0,0,0,2,0,2,t0.86 RightrdL,34.80161,135.770956
10,2.44,34801610,135770956,8,225,0,0,0,0,2,0,2,t0.86 RightrdL,34.80161,135.770956
10,2.45,34801610,135770956,8,236.25,0,0,0,0,2,0,2,t0.94 RightrdL,34.80161,135.770956
10,2.46,34801610,135770956,8,236.25,0,0,0,0,2,0,2,t0.94 RightrdL,34.80161,135.770956
10,2.47,34801610,135770956,8,236.25,0,0,0,0,2,0,2,t0.94 RightrdL,34.80161,135.770956
10,2.48,34801610,135770956,8,236.25,0,0,0,0,2,0,2,t0.94 RightrdL,34.80161,135.770956
10,2.49,34801610,135770956,8,236.25,0,0,0,0,2,0,2,t0.80 RightrdL,34.80161,135.770956
10,2.51,34801610,135770956,8,225,0,0,0,0,2,0,2,t0.92 RightrdL,34.80161,135.770956
10,2.52,34801610,135770956,8,236.25,0,0,0,0,2,0,2,t0.74 RightrdL,34.80161,135.770956
10,2.53,34801610,135770956,8,225,0,0,0,0,2,0,2,t0.74 RightrdL,34.80161,135.770956
10,2.54,34801610,135770956,8,225,0,0,0,0,2,0,2,t0.93 RightrdL,34.80161,135.770956
10,2.55,34801610,135770956,8,225,0,0,0,0,2,0,2,t0.93 RightrdL,34.80161,135.770956
10,2.56,34801610,135770956,8,225,0,0,0,0,0,1,2,stack leftrdL,34.80161,135.770956
10,2.57,34801610,135770956,8,225,0,0,0,0,0,1,2,stack leftrdL,34.80161,135.770956
10,2.58,34801610,135770956,8,225,0,0,0,0,0,1,2,stack rightrdL,34.80161,135.770956
10,2.59,34801610,135770956,8,225,0,11.2,0,0,0,1,2,stack rightrdL,34.80161,135.770956
10,3,34801610,135770956,8,225,0,11.2,0,0,0,1,2,stack rightrdL,34.80161,135.770956
10,3.1,34801610,135770956,8,225,0,11.2,0,0,0,1,2,stack rightrdL,34.80161,135.770956
10,3.2,34801610,135770955,8,225,0,11.2,0,0,0,1,2,stack leftrdL,34.80161,135.770955
10,3.3,34801610,135770955,8,236.25,0,33.8,0,0,0,1,2,stack rightrdL,34.80161,135.770955
10,3.4,34801610,135770955,8,213.75,0,45,0,0,0,1,2,stack leftrdL,34.80161,135.770955
10,3.5,34801610,135770955,8,213.75,0,45,0,0,0,1,2,stack leftrdL,34.80161,135.770955
10,3.6,34801610,135770955,8,213.75,0,45,0,0,0,1,2,stack leftrdL,34.80161,135.770955
10,3.7,34801610,135770955,8,213.75,0,45,0,0,0,1,2,stack leftrdL,34.80161,135.770955
10,3.8,34801610,135770955,8,213.75,0,45,0,0,0,1,2,stack leftrdL,34.80161,135.770955
10,3.9,34801609,135770955,8,225,0,56.2,0,0,0,1,2,stack rightrdL,34.801609,135.770955
10,3.1,34801609,135770955,8,146.25,0,78.8,0,0,0,1,2,stack rightrdL,34.801609,135.770955
10,3.11,34801609,135770955,8,146.25,0,78.8,0,0,0,1,2,stack rightrdL,34.801609,135.770955
10,3.12,34801609,135770955,8,146.25,0,78.8,0,0,0,1,2,stack rightrdL,34.801609,135.770955
10,3.13,34801610,135770955,8,135,0,78.8,0,0,0,1,2,stack leftrdL,34.80161,135.770955
10,3.14,34801610,135770955,8,123.75,0,78.8,0,0,0,1,2,stack leftrdL,34.80161,135.770955
10,3.15,34801610,135770955,8,123.75,0,78.8,0,0,0,1,2,stack leftrdL,34.80161,135.770955
10,3.17,34801610,135770954,8,123.75,0,78.8,0,0,0,1,2,stack leftrdL,34.80161,135.770954
10,3.18,34801610,135770954,8,123.75,0,78.8,0,0,0,1,2,stack leftrdL,34.80161,135.770954
10,3.19,34801610,135770954,8,123.75,0,78.8,0,0,0,1,2,stack leftrdL,34.80161,135.770954
10,3.2,34801610,135770954,8,123.75,0,78.8,0,0,0,1,2,stack rightrdL,34.80161,135.770954
10,3.21,34801610,135770954,8,90,0,67.5,0,0,0,1,2,stack rightrdL,34.80161,135.770954
10,3.22,34801610,135770954,8,90,0,67.5,0,2,0,0,2,t-3.05 Leftk cn,34.80161,135.770954
10,3.23,34801610,135770954,8,90,0,78.8,0,2,0,0,2,t-3.02 Leftk cn,34.80161,135.770954
10,3.24,34801610,135770954,8,191.25,0,56.2,0,2,0,0,2,t-3.02 Leftk cn,34.80161,135.770954
10,3.25,34801610,135770954,8,191.25,0,56.2,0,2,0,0,2,t-3.02 Leftk cn,34.80161,135.770954
10,3.26,34801610,135770954,8,191.25,0,56.2,0,0,2,0,2,t1.55 Rightk cn,34.80161,135.770954
10,3.27,34801610,135770954,8,202.5,0,33.8,0,0,2,0,2,t1.55 Rightk cn,34.80161,135.770954
10,3.28,34801610,135770954,8,202.5,0,33.8,0,0,2,0,2,t1.55 Rightk cn,34.80161,135.770954
10,3.29,34801610,135770954,8,202.5,0,33.8,0,0,2,0,2,t1.34 Rightk cn,34.80161,135.770954
10,3.3,34801610,135770954,8,225,0,0,0,0,2,0,2,t1.34 Rightk cn,34.80161,135.770954
10,3.31,34801610,135770954,8,236.25,0,0,0,0,2,0,2,t0.99 Rightk cn,34.80161,135.770954
10,3.32,34801610,135770954,8,247.5,0,0,0,0,2,0,2,t0.99 Rightk cn,34.80161,135.770954
10,3.33,34801610,135770954,8,247.5,0,0,0,0,2,0,2,t0.99 Rightk cn,34.80161,135.770954
10,3.34,34801610,135770954,8,247.5,0,0,0,0,2,0,2,t0.99 Rightk cn,34.80161,135.770954
10,3.35,34801609,135770954,8,247.5,0,0,0,0,2,0,2,t0.56 Rightk cn,34.801609,135.770954
10,3.36,34801609,135770954,8,247.5,0,0,0,0,2,0,2,t0.56 Rightk cn,34.801609,135.770954
10,3.37,34801609,135770954,8,247.5,0,0,0,0,2,0,2,t0.56 Rightk cn,34.801609,135.770954
10,3.38,34801609,135770954,8,247.5,0,0,0,0,2,0,2,t0.56 Rightk cn,34.801609,135.770954
10,3.39,34801609,135770954,8,247.5,0,0,0,0,2,0,2,t0.56 Rightk cn,34.801609,135.770954
10,3.4,34801609,135770954,8,247.5,0,0,0,0,2,0,2,t0.58 Rightk cn,34.801609,135.770954
10,3.41,34801609,135770954,8,236.25,0,0,0,0,2,0,2,t0.58 Rightk cn,34.801609,135.770954
10,3.43,34801609,135770954,8,236.25,0,0,0,0,2,0,2,t0.58 Rightk cn,34.801609,135.770954
10,3.44,34801609,135770954,8,236.25,0,0,0,0,2,0,2,t0.58 Rightk cn,34.801609,135.770954
10,3.45,34801609,135770954,8,236.25,0,0,0,0,2,0,2,t0.64 Rightk cn,34.801609,135.770954
10,3.46,34801609,135770954,8,236.25,0,0,0,0,2,0,2,t0.64 Rightk cn,34.801609,135.770954
10,3.47,34801609,135770954,8,236.25,0,0,0,0,2,0,2,t0.64 Rightk cn,34.801609,135.770954
10,3.48,34801609,135770954,8,236.25,0,0,0,0,2,0,2,t0.64 Rightk cn,34.801609,135.770954
10,3.49,34801609,135770954,8,236.25,0,0,0,0,2,0,2,t0.64 Rightk cn,34.801609,135.770954
10,3.5,34801609,135770955,8,236.25,0,0,0,0,2,0,2,t0.64 Rightk cn,34.801609,135.770955
10,3.51,34801609,135770955,8,236.25,0,0,0,0,2,0,2,t0.64 Rightk cn,34.801609,135.770955
10,3.52,34801609,135770955,8,236.25,0,0,0,0,2,0,2,t0.63 Rightk cn,34.801609,135.770955
10,3.53,34801609,135770955,8,247.5,0,0,0,0,2,0,2,t0.53 Rightk cn,34.801609,135.770955
10,3.54,34801609,135770955,8,236.25,0,0,0,0,2,0,2,t0.53 Rightk cn,34.801609,135.770955
10,3.55,34801609,135770955,8,236.25,0,0,0,0,2,0,2,t0.53 Rightk cn,34.801609,135.770955
10,3.56,34801609,135770955,8,236.25,0,0,0,0,2,0,2,t0.53 Rightk cn,34.801609,135.770955
10,3.57,34801609,135770955,8,236.25,0,0,0,0,2,0,2,t0.53 Rightk cn,34.801609,135.770955
10,3.58,34801609,135770955,8,236.25,0,0,0,0,2,0,2,t0.53 Rightk cn,34.801609,135.770955
10,3.59,34801609,135770955,8,236.25,0,0,0,0,2,0,2,t0.53 Rightk cn,34.801609,135.770955
10,4,34801609,135770954,8,236.25,0,0,0,0,2,0,2,t0.76 Rightk cn,34.801609,135.770954
10,4.1,34801609,135770954,8,247.5,0,0,0,0,2,0,2,t0.76 Rightk cn,34.801609,135.770954
10,4.2,34801609,135770954,8,247.5,0,0,0,0,2,0,2,t0.76 Rightk cn,34.801609,135.770954
10,4.3,34801609,135770954,8,247.5,0,0,0,0,2,0,2,t0.76 Rightk cn,34.801609,135.770954
10,4.4,34801609,135770954,8,247.5,0,0,0,0,2,0,2,t0.76 Rightk cn,34.801609,135.770954
10,4.5,34801609,135770954,8,247.5,0,0,0,0,2,0,2,t0.76 Rightk cn,34.801609,135.770954
10,4.6,34801609,135770954,8,247.5,0,0,0,0,2,0,2,t0.57 Rightk cn,34.801609,135.770954
10,4.7,34801609,135770954,8,236.25,0,0,0,0,2,0,2,t0.74 Rightk cn,34.801609,135.770954
10,4.9,34801609,135770954,8,213.75,0,0,0,0,2,0,2,t0.74 Rightk cn,34.801609,135.770954
10,4.1,34801609,135770954,8,213.75,0,0,0,0,2,0,2,t0.74 Rightk cn,34.801609,135.770954
10,4.11,34801609,135770954,8,213.75,0,11.2,0,0,2,0,2,t0.74 Rightk cn,34.801609,135.770954
10,4.12,34801609,135770954,8,213.75,0,0,0,0,2,0,2,t0.74 Rightk cn,34.801609,135.770954
10,4.13,34801609,135770954,8,213.75,0,11.2,0,0,2,0,2,t0.74 Rightk cn,34.801609,135.770954
10,4.14,34801609,135770955,8,213.75,0,0,0,0,2,0,2,t1.05 Rightk cn,34.801609,135.770955
10,4.15,34801609,135770955,8,247.5,0,0,0,0,2,0,2,t0.55 Rightk cn,34.801609,135.770955
10,4.16,34801599,135770955,8,247.5,0,0,0,0,2,0,2,t0.49 Rightk cn,34.801599,135.770955
10,4.17,34801588,135770956,8,247.5,0,0,0,0,0,0,2,t0.33 Forwardcn,34.801588,135.770956
10,4.18,34801588,135770956,8,236.25,0,0,0,0,0,0,2,t0.33 Forwardcn,34.801588,135.770956
10,4.19,34801590,135770956,8,236.25,0,0,0,0,2,0,2,t0.53 Rightdcn,34.80159,135.770956
10,4.2,34801590,135770956,8,236.25,0,0,0,0,2,0,2,t0.53 Rightdcn,34.80159,135.770956
10,4.21,34801590,135770957,8,247.5,0,0,0,0,2,0,2,t0.53 Rightdcn,34.80159,135.770957
10,4.22,34801590,135770958,7,258.75,0,0,0,0,2,0,2,t0.48 Rightdcn,34.80159,135.770958
10,4.23,34801590,135770958,8,236.25,0,0,0,0,2,0,2,t0.48 Rightdcn,34.80159,135.770958
10,4.24,34801590,135770958,8,236.25,0,0,0,0,2,0,2,t0.48 Rightdcn,34.80159,135.770958
10,4.25,34801590,135770958,8,236.25,0,0,0,0,2,0,2,t0.48 Rightdcn,34.80159,135.770958
10,4.26,34801591,135770959,8,247.5,0,0,0,0,2,0,2,t0.54 Rightdcn,34.801591,135.770959
10,4.27,34801591,135770959,8,247.5,0,0,0,0,2,0,2,t0.60 Rightdcn,34.801591,135.770959
10,4.28,34801591,135770959,8,236.25,0,0,0,0,2,0,2,t0.60 Rightdcn,34.801591,135.770959
10,4.29,34801591,135770959,8,236.25,0,0,0,0,2,0,2,t0.60 Rightdcn,34.801591,135.770959
10,4.3,34801591,135770959,8,236.25,0,0,0,0,2,0,2,t0.60 Rightdcn,34.801591,135.770959
10,4.31,34801591,135770959,8,236.25,0,0,0,0,2,0,2,t0.60 Rightdcn,34.801591,135.770959
10,4.32,34801591,135770959,8,236.25,0,0,0,0,2,0,2,t0.60 Rightdcn,34.801591,135.770959
10,4.33,34801591,135770959,7,236.25,0,0,0,0,2,0,2,t0.60 Rightdcn,34.801591,135.770959
10,4.35,34801595,135770959,7,236.25,0,0,0,0,2,0,2,t0.59 Rightdcn,34.801595,135.770959
10,4.36,34801595,135770958,8,236.25,0,0,0,0,2,0,2,t0.52 Rightdcn,34.801595,135.770958
10,4.37,34801595,135770958,8,236.25,0,0,0,0,2,0,2,t0.59 Rightdcn,34.801595,135.770958
10,4.38,34801595,135770958,8,236.25,0,0,0,0,2,0,2,t0.59 Rightdcn,34.801595,135.770958
10,4.39,34801595,135770958,8,236.25,0,0,0,0,2,0,2,t0.59 Rightdcn,34.801595,135.770958
10,4.4,34801595,135770958,8,236.25,0,0,0,0,2,0,2,t0.59 Rightdcn,34.801595,135.770958
10,4.41,34801596,135770958,8,236.25,0,0,0,0,2,0,2,t0.62 Rightdcn,34.801596,135.770958
10,4.42,34801596,135770958,8,236.25,0,0,0,0,2,0,2,t0.62 Rightdcn,34.801596,135.770958
10,4.43,34801597,135770958,8,236.25,0,0,0,0,2,0,2,t0.61 Rightdcn,34.801597,135.770958
10,4.44,34801597,135770958,8,236.25,0,0,0,0,2,0,2,t0.61 Rightdcn,34.801597,135.770958
10,4.45,34801597,135770958,8,236.25,0,0,0,0,2,0,2,t0.61 Rightdcn,34.801597,135.770958
10,4.46,34801597,135770958,8,236.25,0,0,0,0,2,0,2,t0.61 Rightdcn,34.801597,135.770958
10,4.47,34801597,135770958,8,247.5,0,0,0,0,2,0,2,t0.61 Rightdcn,34.801597,135.770958
10,4.48,34801597,135770958,8,236.25,0,0,0,0,2,0,2,t0.61 Rightdcn,34.801597,135.770958
10,4.49,34801597,135770958,8,236.25,0,0,0,0,2,0,2,t0.61 Rightdcn,34.801597,135.770958
10,4.5,34801597,135770958,8,236.25,0,0,0,0,2,0,2,t0.61 Rightdcn,34.801597,135.770958
10,4.51,34801597,135770958,8,236.25,0,0,0,0,2,0,2,t0.61 Rightdcn,34.801597,135.770958
10,4.52,34801598,135770959,8,258.75,0,0,0,0,2,0,2,t0.58 Rightdcn,34.801598,135.770959
10,4.53,34801598,135770959,8,247.5,0,0,0,0,2,0,2,t0.59 Rightdcn,34.801598,135.770959
10,4.54,34801598,135770959,8,236.25,0,0,0,0,2,0,2,t0.59 Rightdcn,34.801598,135.770959
10,4.55,34801598,135770959,7,236.25,0,0,0,0,2,0,2,t0.59 Rightdcn,34.801598,135.770959
10,4.56,34801598,135770959,7,236.25,0,0,0,0,2,0,2,t0.59 Rightdcn,34.801598,135.770959
10,4.57,34801598,135770959,7,236.25,0,0,0,0,2,0,2,t0.59 Rightdcn,34.801598,135.770959
10,4.58,34801598,135770959,7,236.25,0,0,0,0,2,0,2,t0.59 Rightdcn,34.801598,135.770959
10,4.59,34801599,135770958,8,236.25,0,0,0,0,2,0,2,t0.57 Rightdcn,34.801599,135.770958
10,5.1,34801599,135770958,8,236.25,0,0,0,0,2,0,2,t0.57 Rightdcn,34.801599,135.770958
10,5.2,34801599,135770958,8,236.25,0,0,0,0,2,0,2,t0.57 Rightdcn,34.801599,135.770958
10,5.3,34801599,135770958,8,236.25,0,0,0,0,2,0,2,t0.57 Rightdcn,34.801599,135.770958
10,5.4,34801599,135770958,8,236.25,0,0,0,0,2,0,2,t0.57 Rightdcn,34.801599,135.770958
10,5.5,34801599,135770958,8,236.25,0,0,0,0,2,0,2,t0.57 Rightdcn,34.801599,135.770958
10,5.6,34801599,135770957,8,236.25,0,0,0,0,2,0,2,t0.59 Rightdcn,34.801599,135.770957
10,5.7,34801600,135770957,8,236.25,0,0,0,0,2,0,2,t0.62 Rightdcn,34.8016,135.770957
10,5.8,34801600,135770957,8,236.25,0,0,0,0,2,0,2,t0.67 Rightdcn,34.8016,135.770957
10,5.9,34801600,135770957,8,236.25,0,0,0,0,2,0,2,t0.67 Rightdcn,34.8016,135.770957
10,5.1,34801600,135770957,8,236.25,0,0,0,0,2,0,2,t0.67 Rightdcn,34.8016,135.770957
10,5.11,34801600,135770957,8,236.25,0,0,0,0,2,0,2,t0.65 Rightdcn,34.8016,135.770957
10,5.12,34801600,135770957,8,236.25,0,0,0,0,2,0,2,t0.65 Rightdcn,34.8016,135.770957
10,5.13,34801600,135770957,8,236.25,0,0,0,0,2,0,2,t0.65 Rightdcn,34.8016,135.770957
10,5.14,34801601,135770956,8,258.75,0,0,0,0,2,0,2,t0.63 Rightdcn,34.801601,135.770956
10,5.15,34801601,135770956,8,236.25,0,0,0,0,2,0,2,t0.63 Rightdcn,34.801601,135.770956
10,5.16,34801601,135770956,8,236.25,0,0,0,0,2,0,2,t0.63 Rightdcn,34.801601,135.770956
10,5.17,34801601,135770956,8,247.5,0,0,0,0,2,0,2,t0.67 Rightk cn,34.801601,135.770956
10,5.18,34801601,135770956,8,258.75,0,0,0,0,2,0,2,t0.60 Rightk cn,34.801601,135.770956
10,5.19,34801601,135770956,8,236.25,0,0,0,0,2,0,2,t0.60 Rightk cn,34.801601,135.770956
10,5.2,34801601,135770956,8,236.25,0,0,0,0,2,0,2,t0.60 Rightk cn,34.801601,135.770956
10,5.21,34801601,135770956,8,236.25,0,0,0,0,2,0,2,t0.60 Rightk cn,34.801601,135.770956
10,5.22,34801602,135770956,8,247.5,0,0,0,0,2,0,2,t0.66 Rightk cn,34.801602,135.770956
10,5.23,34801602,135770956,8,236.25,0,0,0,0,2,0,2,t0.66 Rightk cn,34.801602,135.770956
10,5.24,34801602,135770956,8,236.25,0,0,0,0,2,0,2,t0.66 Rightk cn,34.801602,135.770956
10,5.25,34801602,135770956,8,236.25,0,0,0,0,2,0,2,t0.66 Rightk cn,34.801602,135.770956
10,5.27,34801602,135770956,8,236.25,0,0,0,0,2,0,2,t0.66 Rightk cn,34.801602,135.770956
10,5.28,34801602,135770955,8,236.25,0,0,0,0,2,0,2,t0.57 Rightk cn,34.801602,135.770955
10,5.29,34801602,135770955,8,236.25,0,0,0,0,2,0,2,t0.57 Rightk cn,34.801602,135.770955
10,5.3,34801602,135770955,8,236.25,0,0,0,0,2,0,2,t0.60 Rightk cn,34.801602,135.770955
10,5.31,34801602,135770954,8,247.5,0,0,0,0,2,0,2,t0.51 Rightk cn,34.801602,135.770954
10,5.32,34801602,135770954,8,236.25,0,0,0,0,2,0,2,t0.59 Rightk cn,34.801602,135.770954
10,5.33,34801602,135770954,8,236.25,0,0,0,0,2,0,2,t0.59 Rightk cn,34.801602,135.770954
10,5.34,34801602,135770954,8,236.25,0,0,0,0,2,0,2,t0.60 Rightk cn,34.801602,135.770954
10,5.35,34801602,135770953,8,247.5,0,0,0,0,2,0,2,t0.53 Rightk cn,34.801602,135.770953
10,5.36,34801603,135770953,8,247.5,0,0,0,0,2,0,2,t0.51 Rightk cn,34.801603,135.770953
10,5.37,34801603,135770953,8,236.25,0,0,0,0,2,0,2,t0.59 Rightk cn,34.801603,135.770953
10,5.38,34801603,135770953,8,236.25,0,0,0,0,2,0,2,t0.66 Rightk cn,34.801603,135.770953
10,5.39,34801603,135770953,8,236.25,0,0,0,0,2,0,2,t0.57 Rightk cn,34.801603,135.770953
10,5.4,34801603,135770953,8,258.75,0,0,0,0,0,0,2,t0.33 Forwardcn,34.801603,135.770953
10,5.41,34801603,135770953,8,247.5,0,0,0,0,2,0,2,t0.65 Rightk cn,34.801603,135.770953
10,5.42,34801603,135770953,8,236.25,0,0,0,0,2,0,2,t0.65 Rightk cn,34.801603,135.770953
10,5.43,34801603,135770953,8,247.5,0,0,0,0,2,0,2,t0.66 Rightk cn,34.801603,135.770953
10,5.44,34801603,135770953,8,247.5,0,0,0,0,2,0,2,t0.70 Rightk cn,34.801603,135.770953
10,5.45,34801603,135770953,8,236.25,0,0,0,0,2,0,2,t0.70 Rightk cn,34.801603,135.770953
10,5.46,34801603,135770953,8,236.25,0,0,0,0,2,0,2,t0.70 Rightk cn,34.801603,135.770953
10,5.47,34801603,135770952,8,258.75,0,0,0,0,2,0,2,t0.64 Rightk cn,34.801603,135.770952
10,5.48,34801603,135770952,8,236.25,0,0,0,0,2,0,2,t0.64 Rightk cn,34.801603,135.770952
10,5.49,34801603,135770952,8,236.25,0,0,0,0,2,0,2,t0.64 Rightk cn,34.801603,135.770952
10,5.5,34801603,135770952,8,236.25,0,0,0,0,2,0,2,t0.64 Rightk cn,34.801603,135.770952
10,5.51,34801603,135770952,8,236.25,0,0,0,0,2,0,2,t0.64 Rightk cn,34.801603,135.770952
10,5.53,34801603,135770952,8,236.25,0,0,0,0,2,0,2,t0.64 Rightk cn,34.801603,135.770952
10,5.54,34801603,135770952,8,236.25,0,0,0,0,2,0,2,t0.64 Rightk cn,34.801603,135.770952
10,5.55,34801603,135770952,8,236.25,0,0,0,0,2,0,2,t0.68 Rightk cn,34.801603,135.770952
10,5.56,34801603,135770952,8,236.25,0,0,0,0,2,0,2,t0.66 Rightk cn,34.801603,135.770952
10,5.57,34801603,135770952,8,236.25,0,0,0,0,2,0,2,t0.66 Rightk cn,34.801603,135.770952
10,5.58,34801603,135770952,8,236.25,0,0,0,0,2,0,2,t0.66 Rightk cn,34.801603,135.770952
10,5.59,34801603,135770952,8,236.25,0,0,0,0,2,0,2,t0.68 Rightk cn,34.801603,135.770952
10,6,34801603,135770952,8,236.25,0,0,0,0,2,0,2,t0.68 Rightk cn,34.801603,135.770952
10,6.1,34801603,135770952,8,236.25,0,0,0,0,2,0,2,t0.68 Rightk cn,34.801603,135.770952
10,6.2,34801603,135770952,8,236.25,0,0,0,0,2,0,2,t0.59 Rightk cn,34.801603,135.770952
10,6.3,34801603,135770952,8,236.25,0,0,0,0,2,0,2,t0.67 Rightk cn,34.801603,135.770952
10,6.4,34801603,135770951,8,236.25,0,0,0,0,2,0,2,t0.65 Rightk cn,34.801603,135.770951
10,6.5,34801603,135770951,8,258.75,0,0,0,0,0,0,2,t0.38 Forwardcn,34.801603,135.770951
10,6.6,34801603,135770951,8,247.5,0,0,0,0,2,0,2,t0.66 Rightk cn,34.801603,135.770951
10,6.7,34801603,135770951,8,236.25,0,0,0,0,2,0,2,t0.66 Rightk cn,34.801603,135.770951
10,6.8,34801603,135770951,8,236.25,0,0,0,0,2,0,2,t0.66 Rightk cn,34.801603,135.770951
10,6.9,34801603,135770951,8,236.25,0,0,0,0,2,0,2,t0.66 Rightk cn,34.801603,135.770951
10,6.1,34801604,135770951,8,247.5,0,0,0,0,2,0,2,t0.60 Rightk cn,34.801604,135.770951
10,6.11,34801604,135770951,8,247.5,0,0,0,0,2,0,2,t0.78 Rightk cn,34.801604,135.770951
10,6.12,34801604,135770951,8,247.5,0,0,0,0,2,0,2,t0.68 Rightk cn,34.801604,135.770951
10,6.13,34801604,135770951,8,258.75,0,0,0,0,2,0,2,t0.69 Rightk cn,34.801604,135.770951
10,6.14,34801604,135770951,8,236.25,0,0,0,0,2,0,2,t0.69 Rightk cn,34.801604,135.770951
10,6.15,34801604,135770951,8,236.25,0,0,0,0,2,0,2,t0.69 Rightk cn,34.801604,135.770951
10,6.16,34801604,135770951,8,236.25,0,0,0,0,2,0,2,t0.69 Rightk cn,34.801604,135.770951
10,6.17,34801605,135770951,8,236.25,0,0,0,0,2,0,2,t0.71 Rightk cn,34.801605,135.770951
10,6.19,34801605,135770951,8,236.25,0,0,0,0,2,0,2,t0.63 Rightk cn,34.801605,135.770951
10,6.2,34801605,135770951,8,236.25,0,0,0,0,2,0,2,t0.63 Rightk cn,34.801605,135.770951
10,6.21,34801605,135770951,8,236.25,0,0,0,0,2,0,2,t0.63 Rightk cn,34.801605,135.770951
10,6.22,34801605,135770951,8,236.25,0,0,0,0,2,0,2,t0.63 Rightk cn,34.801605,135.770951
10,6.23,34801605,135770951,8,236.25,0,0,0,0,2,0,2,t0.63 Rightk cn,34.801605,135.770951
10,6.24,34801605,135770951,8,236.25,0,0,0,0,2,0,2,t0.63 Rightk cn,34.801605,135.770951
10,6.25,34801605,135770950,8,236.25,0,0,0,0,2,0,2,t0.69 Rightk cn,34.801605,135.77095
10,6.26,34801605,135770950,8,236.25,0,0,0,0,2,0,2,t0.61 Rightk cn,34.801605,135.77095
10,6.27,34801605,135770950,8,236.25,0,0,0,0,2,0,2,t0.61 Rightk cn,34.801605,135.77095
10,6.28,34801605,135770950,8,236.25,0,0,0,0,2,0,2,t0.65 Rightk cn,34.801605,135.77095
10,6.29,34801605,135770950,8,247.5,0,0,0,0,2,0,2,t0.65 Rightk cn,34.801605,135.77095
10,6.3,34801605,135770950,8,258.75,0,0,0,0,2,0,2,t0.56 Rightk cn,34.801605,135.77095
10,6.31,34801605,135770950,8,247.5,0,0,0,0,2,0,2,t0.62 Rightk cn,34.801605,135.77095
10,6.32,34801605,135770950,8,247.5,0,0,0,0,2,0,2,t0.68 Rightk cn,34.801605,135.77095
10,6.33,34801605,135770950,8,247.5,0,0,0,0,2,0,2,t0.64 Rightk cn,34.801605,135.77095
10,6.34,34801605,135770950,8,258.75,0,0,0,0,2,0,2,t0.62 Rightk cn,34.801605,135.77095
10,6.35,34801605,135770950,8,236.25,0,0,0,0,2,0,2,t0.62 Rightk cn,34.801605,135.77095
10,6.36,34801605,135770950,8,236.25,0,0,0,0,2,0,2,t0.62 Rightk cn,34.801605,135.77095
10,6.37,34801605,135770950,8,236.25,0,0,0,0,2,0,2,t0.62 Rightk cn,34.801605,135.77095
10,6.38,34801605,135770950,8,236.25,0,0,0,0,2,0,2,t0.62 Rightk cn,34.801605,135.77095
10,6.39,34801605,135770950,8,236.25,0,0,0,0,2,0,2,t0.62 Rightk cn,34.801605,135.77095
10,6.4,34801605,135770950,8,236.25,0,0,0,0,2,0,2,t0.62 Rightk cn,34.801605,135.77095
10,6.41,34801605,135770950,8,236.25,0,0,0,0,2,0,2,t0.62 Rightk cn,34.801605,135.77095
10,6.42,34801605,135770950,8,236.25,0,0,0,0,2,0,2,t0.62 Rightk cn,34.801605,135.77095
10,6.43,34801605,135770950,8,236.25,0,0,0,0,2,0,2,t0.62 Rightk cn,34.801605,135.77095
10,6.45,34801606,135770951,8,236.25,0,0,0,0,2,0,2,t0.64 Rightk cn,34.801606,135.770951
10,6.46,34801606,135770951,8,236.25,0,0,0,0,2,0,2,t0.64 Rightk cn,34.801606,135.770951
10,6.47,34801606,135770951,8,236.25,0,0,0,0,2,0,2,t0.64 Rightk cn,34.801606,135.770951
10,6.48,34801606,135770951,8,236.25,0,0,0,0,2,0,2,t0.70 Rightk cn,34.801606,135.770951
10,6.49,34801606,135770951,8,236.25,0,0,0,0,2,0,2,t0.62 Rightk cn,34.801606,135.770951
10,6.5,34801606,135770951,8,236.25,0,0,0,0,2,0,2,t0.62 Rightk cn,34.801606,135.770951
10,6.51,34801606,135770951,8,236.25,0,0,0,0,2,0,2,t0.62 Rightk cn,34.801606,135.770951
10,6.52,34801606,135770950,8,236.25,0,0,0,0,2,0,2,t0.63 Rightk cn,34.801606,135.77095
10,6.53,34801606,135770950,8,247.5,0,0,0,0,2,0,2,t0.56 Rightk cn,34.801606,135.77095
10,6.54,34801606,135770950,8,236.25,0,0,0,0,2,0,2,t0.62 Rightk cn,34.801606,135.77095
10,6.55,34801606,135770950,8,247.5,0,0,0,0,2,0,2,t0.62 Rightk cn,34.801606,135.77095
10,6.56,34801606,135770950,8,258.75,0,0,0,0,2,0,2,t0.54 Rightk cn,34.801606,135.77095
10,6.57,34801606,135770950,8,236.25,0,0,0,0,2,0,2,t0.54 Rightk cn,34.801606,135.77095
10,6.58,34801606,135770950,8,236.25,0,0,0,0,2,0,2,t0.54 Rightk cn,34.801606,135.77095
10,6.59,34801606,135770950,8,258.75,0,0,0,0,2,0,2,t0.64 Rightk cn,34.801606,135.77095
10,7,34801606,135770949,8,247.5,0,0,0,0,2,0,2,t0.66 Rightk cn,34.801606,135.770949
10,7.1,34801605,135770949,8,258.75,0,0,0,0,2,0,2,t0.63 Rightk cn,34.801605,135.770949
10,7.2,34801605,135770949,8,236.25,0,0,0,0,2,0,2,t0.63 Rightk cn,34.801605,135.770949
10,7.3,34801605,135770949,9,236.25,0,0,0,0,2,0,2,t0.63 Rightk cn,34.801605,135.770949
10,7.4,34801605,135770949,8,236.25,0,0,0,0,2,0,2,t0.63 Rightk cn,34.801605,135.770949
10,7.5,34801605,135770949,8,236.25,0,0,0,0,2,0,2,t0.63 Rightk cn,34.801605,135.770949
10,7.6,34801605,135770949,8,236.25,0,0,0,0,2,0,2,t0.63 Rightk cn,34.801605,135.770949
10,7.7,34801605,135770949,8,236.25,0,0,0,0,2,0,2,t0.63 Rightk cn,34.801605,135.770949
10,7.8,34801605,135770949,8,236.25,0,0,0,0,2,0,2,t0.63 Rightk cn,34.801605,135.770949
10,7.9,34801605,135770949,8,236.25,0,0,0,0,2,0,2,t0.63 Rightk cn,34.801605,135.770949
10,7.11,34801605,135770950,8,236.25,0,0,0,0,2,0,2,t0.63 Rightk cn,34.801605,135.77095
10,7.12,34801605,135770950,8,236.25,0,0,0,0,2,0,2,t0.63 Rightk cn,34.801605,135.77095
10,7.13,34801605,135770950,8,236.25,0,0,0,0,2,0,2,t0.67 Rightk cn,34.801605,135.77095
10,7.14,34801605,135770950,8,236.25,0,0,0,0,2,0,2,t0.60 Rightk cn,34.801605,135.77095
10,7.15,34801605,135770950,8,236.25,0,0,0,0,2,0,2,t0.60 Rightk cn,34.801605,135.77095
10,7.16,34801605,135770950,8,236.25,0,0,0,0,2,0,2,t0.60 Rightk cn,34.801605,135.77095
10,7.17,34801605,135770950,8,236.25,0,0,0,0,2,0,2,t0.60 Rightk cn,34.801605,135.77095
10,7.18,34801605,135770950,8,236.25,0,0,0,0,2,0,2,t0.62 Rightk cn,34.801605,135.77095
10,7.19,34801605,135770950,8,247.5,0,0,0,0,2,0,2,t0.62 Rightk cn,34.801605,135.77095
10,7.2,34801605,135770950,8,247.5,0,0,0,0,2,0,2,t0.62 Rightk cn,34.801605,135.77095
10,7.21,34801605,135770950,8,247.5,0,0,0,0,2,0,2,t0.62 Rightk cn,34.801605,135.77095
10,7.22,34801605,135770950,8,258.75,0,0,0,0,2,0,2,t0.54 Rightk cn,34.801605,135.77095
10,7.23,34801605,135770950,8,258.75,0,0,0,0,2,0,2,t0.62 Rightk cn,34.801605,135.77095
10,7.24,34801605,135770950,8,270,0,0,0,0,2,0,2,t0.51 Rightk cn,34.801605,135.77095
10,7.25,34801605,135770950,8,236.25,0,0,0,0,2,0,2,t0.51 Rightk cn,34.801605,135.77095
10,7.26,34801605,135770949,8,258.75,0,0,0,0,2,0,2,t0.63 Rightk cn,34.801605,135.770949
10,7.27,34801605,135770949,8,236.25,0,0,0,0,2,0,2,t0.63 Rightk cn,34.801605,135.770949
10,7.28,34801605,135770949,9,236.25,0,0,0,0,2,0,2,t0.63 Rightk cn,34.801605,135.770949
10,7.29,34801605,135770949,8,258.75,0,0,0,0,2,0,2,t0.63 Rightk cn,34.801605,135.770949
10,7.3,34801605,135770949,8,236.25,0,0,0,0,2,0,2,t0.63 Rightk cn,34.801605,135.770949
10,7.31,34801605,135770949,9,236.25,0,0,0,0,2,0,2,t0.63 Rightk cn,34.801605,135.770949
10,7.32,34801605,135770949,8,258.75,0,0,0,0,2,0,2,t0.62 Rightk cn,34.801605,135.770949
10,7.33,34801605,135770949,8,247.5,0,0,0,0,2,0,2,t0.62 Rightk cn,34.801605,135.770949
10,7.34,34801605,135770949,8,236.25,0,0,0,0,2,0,2,t0.62 Rightk cn,34.801605,135.770949
10,7.35,34801605,135770949,9,236.25,0,0,0,0,2,0,2,t0.62 Rightk cn,34.801605,135.770949
10,7.37,34801605,135770949,8,236.25,0,0,0,0,2,0,2,t0.62 Rightk cn,34.801605,135.770949
10,7.38,34801605,135770949,8,236.25,0,0,0,0,2,0,2,t0.62 Rightk cn,34.801605,135.770949
10,7.39,34801605,135770950,8,236.25,0,0,0,0,2,0,2,t0.61 Rightk cn,34.801605,135.77095
10,7.4,34801605,135770950,8,236.25,0,0,0,0,2,0,2,t0.63 Rightk cn,34.801605,135.77095
10,7.41,34801605,135770950,8,247.5,0,0,0,0,2,0,2,t0.63 Rightk cn,34.801605,135.77095
10,7.42,34801605,135770950,8,236.25,0,0,0,0,2,0,2,t0.63 Rightk cn,34.801605,135.77095
10,7.43,34801605,135770950,8,236.25,0,0,0,0,2,0,2,t0.63 Rightk cn,34.801605,135.77095
10,7.44,34801605,135770950,8,236.25,0,0,0,0,2,0,2,t0.59 Rightk cn,34.801605,135.77095
10,7.45,34801605,135770950,8,236.25,0,0,0,0,2,0,2,t0.59 Rightk cn,34.801605,135.77095
10,7.46,34801605,135770950,8,236.25,0,0,0,0,2,0,2,t0.62 Rightk cn,34.801605,135.77095
10,7.47,34801605,135770950,8,247.5,0,0,0,0,2,0,2,t0.53 Rightk cn,34.801605,135.77095
10,7.48,34801605,135770950,8,258.75,0,0,0,0,0,0,2,t0.30 Forwardcn,34.801605,135.77095
10,7.49,34801605,135770950,8,236.25,0,0,0,0,0,0,2,t0.30 Forwardcn,34.801605,135.77095
10,7.5,34801605,135770950,8,258.75,0,0,0,0,2,0,2,t0.64 Rightk cn,34.801605,135.77095
10,7.51,34801605,135770950,8,258.75,0,0,0,0,2,0,2,t0.62 Rightk cn,34.801605,135.77095
10,7.52,34801605,135770950,8,236.25,0,0,0,0,2,0,2,t0.62 Rightk cn,34.801605,135.77095
10,7.53,34801605,135770950,8,236.25,0,0,0,0,2,0,2,t0.62 Rightk cn,34.801605,135.77095
10,7.54,34801605,135770950,8,258.75,0,0,0,0,2,0,2,t0.64 Rightk cn,34.801605,135.77095
10,7.55,34801605,135770950,8,236.25,0,0,0,0,2,0,2,t0.64 Rightk cn,34.801605,135.77095
10,7.56,34801605,135770950,8,258.75,0,0,0,0,2,0,2,t0.63 Rightk cn,34.801605,135.77095
10,7.57,34801605,135770950,8,236.25,0,0,0,0,2,0,2,t0.63 Rightk cn,34.801605,135.77095
10,7.58,34801605,135770950,8,236.25,0,0,0,0,2,0,2,t0.63 Rightk cn,34.801605,135.77095
10,7.59,34801605,135770950,8,236.25,0,0,0,0,2,0,2,t0.63 Rightk cn,34.801605,135.77095
10,8,34801605,135770950,8,236.25,0,0,0,0,2,0,2,t0.63 Rightk cn,34.801605,135.77095
10,8.1,34801605,135770949,8,236.25,0,0,0,0,2,0,2,t0.64 Rightk cn,34.801605,135.770949
10,8.3,34801605,135770949,8,236.25,0,0,0,0,2,0,2,t0.59 Rightk cn,34.801605,135.770949
10,8.4,34801605,135770949,8,236.25,0,0,0,0,2,0,2,t0.59 Rightk cn,34.801605,135.770949
10,8.5,34801605,135770949,9,236.25,0,0,0,0,2,0,2,t0.59 Rightk cn,34.801605,135.770949
10,8.6,34801605,135770948,8,236.25,0,0,0,0,2,0,2,t0.63 Rightk cn,34.801605,135.770948
10,8.7,34801605,135770948,8,247.5,0,0,0,0,2,0,2,t0.63 Rightk cn,34.801605,135.770948
10,8.8,34801605,135770948,9,247.5,0,0,0,0,2,0,2,t0.63 Rightk cn,34.801605,135.770948
10,8.9,34801605,135770948,8,247.5,0,0,0,0,2,0,2,t0.54 Rightk cn,34.801605,135.770948
10,8.1,34801605,135770948,8,236.25,0,0,0,0,2,0,2,t0.54 Rightk cn,34.801605,135.770948
10,8.11,34801605,135770948,9,236.25,0,0,0,0,2,0,2,t0.54 Rightk cn,34.801605,135.770948
10,8.12,34801605,135770948,9,236.25,0,0,0,0,2,0,2,t0.54 Rightk cn,34.801605,135.770948
10,8.13,34801605,135770948,9,236.25,0,0,0,0,2,0,2,t0.54 Rightk cn,34.801605,135.770948
10,8.14,34801605,135770948,9,236.25,0,0,0,0,2,0,2,t0.54 Rightk cn,34.801605,135.770948
10,8.15,34801605,135770948,8,258.75,0,0,0,0,2,0,2,t0.62 Rightk cn,34.801605,135.770948
10,8.16,34801605,135770948,8,247.5,0,0,0,0,2,0,2,t0.62 Rightk cn,34.801605,135.770948
10,8.17,34801605,135770948,9,247.5,0,0,0,0,2,0,2,t0.62 Rightk cn,34.801605,135.770948
10,8.18,34801605,135770948,8,258.75,0,0,0,0,2,0,2,t0.54 Rightk cn,34.801605,135.770948
10,8.19,34801605,135770948,8,236.25,0,0,0,0,2,0,2,t0.54 Rightk cn,34.801605,135.770948
10,8.2,34801605,135770948,8,258.75,0,0,0,0,2,0,2,t0.63 Rightk cn,34.801605,135.770948
10,8.21,34801605,135770948,8,258.75,0,0,0,0,2,0,2,t0.48 Rightk cn,34.801605,135.770948
10,8.22,34801605,135770948,8,236.25,0,0,0,0,2,0,2,t0.48 Rightk cn,34.801605,135.770948
10,8.23,34801605,135770948,9,236.25,0,0,0,0,2,0,2,t0.48 Rightk cn,34.801605,135.770948
10,8.24,34801605,135770948,9,236.25,0,0,0,0,2,0,2,t0.48 Rightk cn,34.801605,135.770948
10,8.25,34801605,135770948,9,236.25,0,0,0,0,2,0,2,t0.48 Rightk cn,34.801605,135.770948
10,8.26,34801605,135770948,9,236.25,0,0,0,0,2,0,2,t0.48 Rightk cn,34.801605,135.770948
10,8.27,34801605,135770947,8,236.25,0,0,0,0,2,0,2,t0.63 Rightk cn,34.801605,135.770947
10,8.29,34801605,135770947,8,236.25,0,0,0,0,2,0,2,t0.63 Rightk cn,34.801605,135.770947
10,8.3,34801605,135770947,9,236.25,0,0,0,0,2,0,2,t0.63 Rightk cn,34.801605,135.770947
10,8.31,34801605,135770947,9,236.25,0,0,0,0,2,0,2,t0.63 Rightk cn,34.801605,135.770947
10,8.32,34801605,135770947,8,236.25,0,0,0,0,2,0,2,t0.63 Rightk cn,34.801605,135.770947
10,8.33,34801605,135770947,8,236.25,0,0,0,0,2,0,2,t0.63 Rightk cn,34.801605,135.770947
10,8.34,34801605,135770947,8,236.25,0,0,0,0,2,0,2,t0.63 Rightk cn,34.801605,135.770947
10,8.35,34801605,135770947,8,236.25,0,0,0,0,2,0,2,t0.63 Rightk cn,34.801605,135.770947
10,8.36,34801605,135770947,9,236.25,0,0,0,0,2,0,2,t0.63 Rightk cn,34.801605,135.770947
10,8.37,34801605,135770947,9,236.25,0,0,0,0,2,0,2,t0.63 Rightk cn,34.801605,135.770947
10,8.38,34801605,135770947,9,236.25,0,0,0,0,2,0,2,t0.63 Rightk cn,34.801605,135.770947
10,8.39,34801605,135770947,9,236.25,0,0,0,0,2,0,2,t0.63 Rightk cn,34.801605,135.770947
10,8.4,34801599,135770952,8,236.25,0,0,0,0,2,0,2,t0.57 Rightk cn,34.801599,135.770952
10,8.41,34801599,135770952,8,236.25,0,0,0,0,2,0,2,t0.57 Rightk cn,34.801599,135.770952
10,8.42,34801599,135770952,8,236.25,0,0,0,0,2,0,2,t0.57 Rightk cn,34.801599,135.770952
10,8.43,34801601,135770953,8,258.75,0,0,0,0,2,0,2,t0.58 Rightk cn,34.801601,135.770953
10,8.44,34801602,135770953,8,258.75,0,0,0,0,2,0,2,t0.60 Rightk cn,34.801602,135.770953
10,8.45,34801602,135770953,8,236.25,0,0,0,0,2,0,2,t0.60 Rightk cn,34.801602,135.770953
10,8.46,34801601,135770953,8,258.75,0,0,0,0,2,0,2,t0.57 Rightk cn,34.801601,135.770953
10,8.47,34801601,135770953,8,236.25,0,0,0,0,2,0,2,t0.57 Rightk cn,34.801601,135.770953
10,8.48,34801601,135770953,8,236.25,0,0,0,0,2,0,2,t0.57 Rightk cn,34.801601,135.770953
10,8.49,34801602,135770954,8,258.75,0,0,0,0,2,0,2,t0.61 Rightk cn,34.801602,135.770954
10,8.5,34801602,135770954,8,236.25,0,0,0,0,2,0,2,t0.61 Rightk cn,34.801602,135.770954
10,8.51,34801602,135770954,8,236.25,0,0,0,0,2,0,2,t0.61 Rightk cn,34.801602,135.770954
10,8.52,34801602,135770955,8,236.25,0,0,0,0,2,0,2,t0.56 Rightk cn,34.801602,135.770955
10,8.53,34801602,135770955,8,236.25,0,0,0,0,2,0,2,t0.60 Rightk cn,34.801602,135.770955
10,8.55,34801602,135770955,8,247.5,0,0,0,0,2,0,2,t0.60 Rightk cn,34.801602,135.770955
10,8.56,34801602,135770955,8,236.25,0,0,0,0,2,0,2,t0.60 Rightk cn,34.801602,135.770955
10,8.57,34801601,135770954,8,236.25,0,0,0,0,2,0,2,t0.55 Rightk cn,34.801601,135.770954
10,8.58,34801601,135770954,8,236.25,0,0,0,0,2,0,2,t0.59 Rightk cn,34.801601,135.770954
10,8.59,34801601,135770954,8,247.5,0,0,0,0,2,0,2,t0.53 Rightk cn,34.801601,135.770954
10,9,34801601,135770954,8,236.25,0,0,0,0,2,0,2,t0.53 Rightk cn,34.801601,135.770954
10,9.1,34801601,135770954,8,236.25,0,0,0,0,2,0,2,t0.59 Rightk cn,34.801601,135.770954
10,9.2,34801601,135770954,8,247.5,0,0,0,0,2,0,2,t0.59 Rightk cn,34.801601,135.770954
10,9.3,34801600,135770954,8,247.5,0,0,0,0,2,0,2,t0.51 Rightk cn,34.8016,135.770954
10,9.4,34801600,135770954,8,236.25,0,0,0,0,2,0,2,t0.56 Rightk cn,34.8016,135.770954
10,9.5,34801600,135770954,8,247.5,0,0,0,0,2,0,2,t0.51 Rightk cn,34.8016,135.770954
10,9.6,34801600,135770955,8,258.75,0,0,0,0,0,0,2,t0.26 Forwardcn,34.8016,135.770955
10,9.7,34801600,135770955,8,236.25,0,0,0,0,0,0,2,t0.26 Forwardcn,34.8016,135.770955
10,9.8,34801600,135770955,8,236.25,0,0,0,0,0,0,2,t0.26 Forwardcn,34.8016,135.770955
10,9.9,34801600,135770955,8,258.75,0,0,0,0,2,0,2,t0.60 Rightdcn,34.8016,135.770955
10,9.1,34801600,135770955,8,236.25,0,0,0,0,2,0,2,t0.60 Rightdcn,34.8016,135.770955
10,9.11,34801600,135770955,8,236.25,0,0,0,0,2,0,2,t0.60 Rightdcn,34.8016,135.770955
10,9.12,34801600,135770955,8,258.75,0,0,0,0,2,0,2,t0.57 Rightdcn,34.8016,135.770955
10,9.13,34801600,135770955,8,236.25,0,0,0,0,2,0,2,t0.57 Rightdcn,34.8016,135.770955
10,9.14,34801600,135770955,8,236.25,0,0,0,0,2,0,2,t0.57 Rightdcn,34.8016,135.770955
10,9.15,34801600,135770955,8,258.75,0,0,0,0,2,0,2,t0.59 Rightdcn,34.8016,135.770955
10,9.16,34801600,135770955,8,236.25,0,0,0,0,2,0,2,t0.59 Rightdcn,34.8016,135.770955
10,9.17,34801600,135770955,8,236.25,0,0,0,0,2,0,2,t0.59 Rightdcn,34.8016,135.770955
10,9.18,34801600,135770955,8,236.25,0,0,0,0,2,0,2,t0.59 Rightdcn,34.8016,135.770955
10,9.19,34801600,135770955,8,236.25,0,0,0,0,2,0,2,t0.56 Rightdcn,34.8016,135.770955
10,9.21,34801601,135770955,8,236.25,0,0,0,0,2,0,2,t0.58 Rightdcn,34.801601,135.770955
10,9.22,34801601,135770955,8,236.25,0,0,0,0,2,0,2,t0.56 Rightdcn,34.801601,135.770955
10,9.23,34801601,135770955,8,236.25,0,0,0,0,2,0,2,t0.58 Rightdcn,34.801601,135.770955
10,9.24,34801601,135770955,8,236.25,0,0,0,0,2,0,2,t0.55 Rightdcn,34.801601,135.770955
10,9.25,34801601,135770955,8,236.25,0,0,0,0,2,0,2,t0.55 Rightdcn,34.801601,135.770955
10,9.26,34801601,135770955,8,236.25,0,0,0,0,2,0,2,t0.59 Rightdcn,34.801601,135.770955
10,9.27,34801601,135770955,8,247.5,0,0,0,0,2,0,2,t0.59 Rightdcn,34.801601,135.770955
10,9.28,34801601,135770955,8,247.5,0,0,0,0,2,0,2,t0.59 Rightdcn,34.801601,135.770955
10,9.29,34801601,135770955,8,247.5,0,0,0,0,2,0,2,t0.54 Rightdcn,34.801601,135.770955
10,9.3,34801601,135770955,8,236.25,0,0,0,0,2,0,2,t0.54 Rightdcn,34.801601,135.770955
10,9.31,34801601,135770955,8,236.25,0,0,0,0,2,0,2,t0.54 Rightdcn,34.801601,135.770955
10,9.32,34801601,135770955,8,236.25,0,0,0,0,2,0,2,t0.54 Rightdcn,34.801601,135.770955
10,9.33,34801601,135770955,8,236.25,0,0,0,0,2,0,2,t0.54 Rightdcn,34.801601,135.770955
10,9.34,34801601,135770955,8,236.25,0,0,0,0,2,0,2,t0.54 Rightdcn,34.801601,135.770955
10,9.35,34801602,135770955,8,258.75,0,0,0,0,2,0,2,t0.61 Rightdcn,34.801602,135.770955
10,9.36,34801602,135770955,8,247.5,0,0,0,0,2,0,2,t0.61 Rightdcn,34.801602,135.770955
10,9.37,34801602,135770955,8,247.5,0,0,0,0,2,0,2,t0.61 Rightdcn,34.801602,135.770955
10,9.38,34801602,135770954,8,258.75,0,0,0,0,2,0,2,t0.51 Rightdcn,34.801602,135.770954
10,9.39,34801602,135770954,8,236.25,0,0,0,0,2,0,2,t0.51 Rightdcn,34.801602,135.770954
10,9.4,34801602,135770954,8,258.75,0,0,0,0,2,0,2,t0.60 Rightdcn,34.801602,135.770954
10,9.41,34801602,135770954,8,258.75,0,0,0,0,2,0,2,t0.58 Rightk cn,34.801602,135.770954
10,9.42,34801602,135770954,8,258.75,0,0,0,0,2,0,2,t0.51 Rightk cn,34.801602,135.770954
10,9.43,34801602,135770954,8,236.25,0,0,0,0,2,0,2,t0.51 Rightk cn,34.801602,135.770954
10,9.44,34801602,135770954,8,236.25,0,0,0,0,2,0,2,t0.51 Rightk cn,34.801602,135.770954
10,9.45,34801602,135770954,8,236.25,0,0,0,0,2,0,2,t0.51 Rightk cn,34.801602,135.770954
10,9.47,34801602,135770953,8,236.25,0,0,0,0,2,0,2,t0.62 Rightk cn,34.801602,135.770953
10,9.48,34801602,135770953,8,236.25,0,0,0,0,2,0,2,t0.60 Rightk cn,34.801602,135.770953
10,9.49,34801602,135770953,8,236.25,0,0,0,0,2,0,2,t0.63 Rightk cn,34.801602,135.770953
10,9.5,34801602,135770953,8,236.25,0,0,0,0,2,0,2,t0.63 Rightk cn,34.801602,135.770953
10,9.51,34801602,135770953,8,236.25,0,0,0,0,2,0,2,t0.63 Rightk cn,34.801602,135.770953
10,9.52,34801602,135770953,8,236.25,0,0,0,0,2,0,2,t0.63 Rightk cn,34.801602,135.770953
10,9.53,34801602,135770953,8,236.25,0,0,0,0,2,0,2,t0.63 Rightk cn,34.801602,135.770953
10,9.54,34801602,135770953,8,236.25,0,0,0,0,2,0,2,t0.59 Rightk cn,34.801602,135.770953
10,9.55,34801602,135770953,8,236.25,0,0,0,0,2,0,2,t0.67 Rightk cn,34.801602,135.770953
10,9.56,34801602,135770953,8,236.25,0,0,0,0,2,0,2,t0.67 Rightk cn,34.801602,135.770953
10,9.57,34801602,135770953,8,236.25,0,0,0,0,2,0,2,t0.67 Rightk cn,34.801602,135.770953
10,9.58,34801602,135770953,8,236.25,0,0,0,0,2,0,2,t0.67 Rightk cn,34.801602,135.770953
10,9.59,34801602,135770953,8,236.25,0,0,0,0,2,0,2,t0.67 Rightk cn,34.801602,135.770953
10,10,34801602,135770953,8,236.25,0,0,0,0,2,0,2,t0.67 Rightk cn,34.801602,135.770953
10,10.1,34801602,135770952,8,258.75,0,0,0,0,2,0,2,t0.59 Rightk cn,34.801602,135.770952
10,10.2,34801602,135770952,8,236.25,0,0,0,0,2,0,2,t0.59 Rightk cn,34.801602,135.770952
10,10.3,34801602,135770952,8,236.25,0,0,0,0,2,0,2,t0.59 Rightk cn,34.801602,135.770952
10,10.4,34801602,135770952,8,236.25,0,0,0,0,2,0,2,t0.59 Rightk cn,34.801602,135.770952
10,10.5,34801602,135770952,8,258.75,0,0,0,0,2,0,2,t0.60 Rightk cn,34.801602,135.770952
10,10.6,34801602,135770952,8,236.25,0,0,0,0,2,0,2,t0.60 Rightk cn,34.801602,135.770952
10,10.7,34801602,135770952,8,236.25,0,0,0,0,2,0,2,t0.60 Rightk cn,34.801602,135.770952
10,10.8,34801602,135770952,8,236.25,0,0,0,0,2,0,2,t0.60 Rightk cn,34.801602,135.770952
10,10.9,34801602,135770952,8,236.25,0,0,0,0,2,0,2,t0.60 Rightk cn,34.801602,135.770952
10,10.1,34801602,135770952,8,236.25,0,0,0,0,2,0,2,t0.60 Rightk cn,34.801602,135.770952
10,10.11,34801602,135770952,8,236.25,0,0,0,0,2,0,2,t0.57 Rightk cn,34.801602,135.770952
10,10.13,34801602,135770952,8,236.25,0,0,0,0,2,0,2,t0.57 Rightk cn,34.801602,135.770952
10,10.14,34801602,135770952,8,236.25,0,0,0,0,2,0,2,t0.57 Rightk cn,34.801602,135.770952
10,10.15,34801602,135770952,8,236.25,0,0,0,0,2,0,2,t0.57 Rightk cn,34.801602,135.770952
10,10.16,34801602,135770952,8,236.25,0,0,0,0,2,0,2,t0.60 Rightk cn,34.801602,135.770952
10,10.17,34801602,135770952,8,247.5,0,0,0,0,2,0,2,t0.60 Rightk cn,34.801602,135.770952
10,10.18,34801601,135770951,8,236.25,0,0,0,0,2,0,2,t0.55 Rightk cn,34.801601,135.770951
10,10.19,34801601,135770951,8,236.25,0,0,0,0,2,0,2,t0.55 Rightk cn,34.801601,135.770951
10,10.2,34801601,135770951,8,236.25,0,0,0,0,2,0,2,t0.55 Rightk cn,34.801601,135.770951
10,10.21,34801601,135770951,8,236.25,0,0,0,0,2,0,2,t0.55 Rightk cn,34.801601,135.770951
10,10.22,34801601,135770951,8,236.25,0,0,0,0,2,0,2,t0.59 Rightk cn,34.801601,135.770951
10,10.23,34801601,135770951,8,247.5,0,0,0,0,2,0,2,t0.59 Rightk cn,34.801601,135.770951
10,10.24,34801601,135770951,8,258.75,0,0,0,0,2,0,2,t0.53 Rightk cn,34.801601,135.770951
10,10.25,34801601,135770951,8,258.75,0,0,0,0,2,0,2,t0.57 Rightk cn,34.801601,135.770951
10,10.26,34801601,135770951,8,258.75,0,0,0,0,2,0,2,t0.51 Rightk cn,34.801601,135.770951
10,10.27,34801601,135770951,8,236.25,0,0,0,0,2,0,2,t0.51 Rightk cn,34.801601,135.770951
10,10.28,34801601,135770950,8,258.75,0,0,0,0,2,0,2,t0.59 Rightk cn,34.801601,135.77095
10,10.29,34801601,135770950,8,247.5,0,0,0,0,2,0,2,t0.59 Rightk cn,34.801601,135.77095
10,10.3,34801601,135770950,8,258.75,0,0,0,0,2,0,2,t0.52 Rightk cn,34.801601,135.77095
10,10.31,34801601,135770950,8,258.75,0,0,0,0,2,0,2,t0.57 Rightk cn,34.801601,135.77095
10,10.32,34801601,135770950,8,236.25,0,0,0,0,2,0,2,t0.57 Rightk cn,34.801601,135.77095
10,10.33,34801601,135770950,8,236.25,0,0,0,0,2,0,2,t0.57 Rightk cn,34.801601,135.77095
10,10.34,34801601,135770950,8,236.25,0,0,0,0,2,0,2,t0.57 Rightk cn,34.801601,135.77095
10,10.35,34801601,135770950,8,236.25,0,0,0,0,2,0,2,t0.57 Rightk cn,34.801601,135.77095
10,10.36,34801601,135770950,8,236.25,0,0,0,0,2,0,2,t0.57 Rightk cn,34.801601,135.77095
10,10.37,34801602,135770950,8,236.25,0,0,0,0,2,0,2,t0.57 Rightk cn,34.801602,135.77095
10,10.39,34801602,135770950,8,236.25,0,0,0,0,2,0,2,t0.57 Rightk cn,34.801602,135.77095
10,10.4,34801602,135770950,8,236.25,0,0,0,0,2,0,2,t0.57 Rightk cn,34.801602,135.77095
10,10.41,34801602,135770950,8,236.25,0,0,0,0,2,0,2,t0.57 Rightk cn,34.801602,135.77095
10,10.42,34801602,135770950,8,236.25,0,0,0,0,2,0,2,t0.57 Rightk cn,34.801602,135.77095
10,10.43,34801602,135770950,8,236.25,0,0,0,0,2,0,2,t0.57 Rightk cn,34.801602,135.77095
10,10.44,34801602,135770951,8,236.25,0,0,0,0,2,0,2,t0.61 Rightk cn,34.801602,135.770951
10,10.45,34801602,135770951,8,236.25,0,0,0,0,2,0,2,t0.61 Rightk cn,34.801602,135.770951
10,10.46,34801602,135770951,8,236.25,0,0,0,0,2,0,2,t0.61 Rightk cn,34.801602,135.770951
10,10.47,34801602,135770951,8,236.25,0,0,0,0,2,0,2,t0.61 Rightk cn,34.801602,135.770951
10,10.48,34801602,135770951,8,236.25,0,0,0,0,2,0,2,t0.61 Rightk cn,34.801602,135.770951
10,10.49,34801602,135770951,8,236.25,0,0,0,0,2,0,2,t0.61 Rightk cn,34.801602,135.770951
10,10.5,34801603,135770951,8,236.25,0,0,0,0,2,0,2,t0.62 Rightk cn,34.801603,135.770951
10,10.51,34801603,135770951,8,236.25,0,0,0,0,2,0,2,t0.62 Rightk cn,34.801603,135.770951
10,10.52,34801603,135770951,8,236.25,0,0,0,0,2,0,2,t0.62 Rightk cn,34.801603,135.770951
10,10.53,34801603,135770951,8,258.75,0,0,0,0,2,0,2,t0.62 Rightk cn,34.801603,135.770951
10,10.54,34801603,135770951,8,236.25,0,0,0,0,2,0,2,t0.62 Rightk cn,34.801603,135.770951
10,10.55,34801603,135770951,8,236.25,0,0,0,0,2,0,2,t0.62 Rightk cn,34.801603,135.770951
10,10.56,34801604,135770951,8,247.5,0,0,0,0,2,0,2,t0.63 Rightk cn,34.801604,135.770951
10,10.57,34801604,135770952,8,247.5,0,0,0,0,2,0,2,t0.64 Rightk cn,34.801604,135.770952
10,10.58,34801604,135770952,8,247.5,0,0,0,0,2,0,2,t0.71 Rightk cn,34.801604,135.770952
10,10.59,34801604,135770952,8,236.25,0,0,0,0,2,0,2,t0.71 Rightk cn,34.801604,135.770952
10,11,34801604,135770952,8,236.25,0,0,0,0,2,0,2,t0.71 Rightk cn,34.801604,135.770952
10,11.1,34801604,135770952,8,236.25,0,0,0,0,2,0,2,t0.71 Rightk cn,34.801604,135.770952
10,11.2,34801604,135770952,8,236.25,0,0,0,0,2,0,2,t0.71 Rightk cn,34.801604,135.770952
10,11.3,34801604,135770952,8,236.25,0,0,0,0,2,0,2,t0.60 Rightk cn,34.801604,135.770952
10,11.5,34801604,135770952,8,236.25,0,0,0,0,2,0,2,t0.60 Rightk cn,34.801604,135.770952
10,11.6,34801604,135770952,8,236.25,0,0,0,0,2,0,2,t0.60 Rightk cn,34.801604,135.770952
10,11.7,34801604,135770952,8,236.25,0,0,0,0,2,0,2,t0.63 Rightk cn,34.801604,135.770952
10,11.8,34801604,135770952,8,236.25,0,0,0,0,2,0,2,t0.63 Rightk cn,34.801604,135.770952
10,11.9,34801605,135770952,8,236.25,0,0,0,0,2,0,2,t0.62 Rightk cn,34.801605,135.770952
10,11.1,34801605,135770952,8,236.25,0,0,0,0,2,0,2,t0.65 Rightk cn,34.801605,135.770952
10,11.11,34801605,135770952,8,236.25,0,0,0,0,2,0,2,t0.75 Rightk cn,34.801605,135.770952
10,11.12,34801605,135770952,8,236.25,0,0,0,0,2,0,2,t0.75 Rightk cn,34.801605,135.770952
10,11.13,34801605,135770952,8,236.25,0,0,0,0,2,0,2,t0.63 Rightk cn,34.801605,135.770952
10,11.14,34801605,135770952,8,247.5,0,0,0,0,2,0,2,t0.63 Rightk cn,34.801605,135.770952
10,11.15,34801605,135770952,8,247.5,0,0,0,0,2,0,2,t0.63 Rightk cn,34.801605,135.770952
10,11.16,34801605,135770952,8,247.5,0,0,0,0,2,0,2,t0.63 Rightk cn,34.801605,135.770952
10,11.17,34801605,135770951,8,258.75,0,0,0,0,2,0,2,t0.54 Rightk cn,34.801605,135.770951
10,11.18,34801605,135770951,8,236.25,0,0,0,0,2,0,2,t0.54 Rightk cn,34.801605,135.770951
10,11.19,34801605,135770951,8,236.25,0,0,0,0,2,0,2,t0.54 Rightk cn,34.801605,135.770951
10,11.2,34801605,135770951,8,236.25,0,0,0,0,2,0,2,t0.54 Rightk cn,34.801605,135.770951
10,11.21,34801605,135770951,8,236.25,0,0,0,0,2,0,2,t0.54 Rightk cn,34.801605,135.770951
10,11.22,34801605,135770951,8,236.25,0,0,0,0,2,0,2,t0.54 Rightk cn,34.801605,135.770951
10,11.23,34801606,135770951,8,258.75,0,0,0,0,2,0,2,t0.64 Rightk cn,34.801606,135.770951
10,11.24,34801606,135770951,8,247.5,0,0,0,0,2,0,2,t0.64 Rightk cn,34.801606,135.770951
10,11.25,34801606,135770951,8,247.5,0,0,0,0,2,0,2,t0.64 Rightk cn,34.801606,135.770951
10,11.26,34801606,135770951,8,247.5,0,0,0,0,2,0,2,t0.64 Rightk cn,34.801606,135.770951
10,11.27,34801606,135770951,8,247.5,0,0,0,0,2,0,2,t0.64 Rightk cn,34.801606,135.770951
10,11.28,34801606,135770951,8,247.5,0,0,0,0,2,0,2,t0.64 Rightk cn,34.801606,135.770951
10,11.29,0,0,15,258.75,0,0,0,0,2,0,2,t2.86 Rightk cn,0,0
10,11.31,0,0,3,236.25,0,0,0,0,2,0,2,t2.86 Rightk cn,0,0
10,11.32,0,0,21,236.25,0,0,0,0,2,0,2,t2.86 Rightk cn,0,0
10,11.33,0,0,15,236.25,0,0,0,0,2,0,2,t2.86 Rightk cn,0,0
10,11.34,0,0,217,236.25,0,0,0,0,2,0,2,t2.86 Rightk cn,0,0
10,11.35,34801605,135770950,8,236.25,0,0,0,0,2,0,2,t0.62 Rightk cn,34.801605,135.77095
10,11.36,34801605,135770949,8,236.25,0,0,0,0,2,0,2,t0.63 Rightk cn,34.801605,135.770949
10,11.37,34801605,135770949,8,236.25,0,0,0,0,2,0,2,t0.71 Rightk cn,34.801605,135.770949
10,11.38,34801605,135770949,8,236.25,0,0,0,0,2,0,2,t0.62 Rightk cn,34.801605,135.770949
10,11.39,34801605,135770949,8,236.25,0,0,0,0,2,0,2,t0.62 Rightk cn,34.801605,135.770949
10,11.4,34801605,135770949,9,236.25,0,0,0,0,2,0,2,t0.62 Rightk cn,34.801605,135.770949
10,11.41,34801605,135770949,8,236.25,0,0,0,0,2,0,2,t0.63 Rightk cn,34.801605,135.770949
10,11.42,34801605,135770949,8,236.25,0,0,0,0,2,0,2,t0.63 Rightk cn,34.801605,135.770949
10,11.43,34801605,135770948,8,247.5,0,0,0,0,2,0,2,t0.63 Rightk cn,34.801605,135.770948
10,11.44,34801605,135770948,8,258.75,0,0,0,0,2,0,2,t0.69 Rightk cn,34.801605,135.770948
10,11.45,34801605,135770948,8,236.25,0,0,0,0,2,0,2,t0.69 Rightk cn,34.801605,135.770948
10,11.46,34801605,135770948,9,236.25,0,0,0,0,2,0,2,t0.69 Rightk cn,34.801605,135.770948
10,11.47,34801605,135770948,8,258.75,0,0,0,0,2,0,2,t0.64 Rightk cn,34.801605,135.770948
10,11.48,34801605,135770948,8,236.25,0,0,0,0,2,0,2,t0.64 Rightk cn,34.801605,135.770948
10,11.49,34801605,135770948,9,236.25,0,0,0,0,2,0,2,t0.64 Rightk cn,34.801605,135.770948
10,11.5,34801605,135770947,8,258.75,0,0,0,0,2,0,2,t0.61 Rightk cn,34.801605,135.770947
10,11.51,34801605,135770947,8,236.25,0,0,0,0,2,0,2,t0.61 Rightk cn,34.801605,135.770947
10,11.52,34801605,135770947,9,236.25,0,0,0,0,2,0,2,t0.61 Rightk cn,34.801605,135.770947
10,11.53,34801605,135770947,9,236.25,0,0,0,0,2,0,2,t0.61 Rightk cn,34.801605,135.770947
10,11.54,34801605,135770947,9,236.25,0,0,0,0,2,0,2,t0.61 Rightk cn,34.801605,135.770947
10,11.55,34801605,135770947,8,236.25,0,0,0,0,2,0,2,t0.64 Rightk cn,34.801605,135.770947
10,11.57,34801605,135770947,8,236.25,0,0,0,0,2,0,2,t0.70 Rightk cn,34.801605,135.770947
10,11.58,34801605,135770947,8,236.25,0,0,0,0,2,0,2,t0.70 Rightk cn,34.801605,135.770947
10,11.59,34801605,135770946,9,236.25,0,0,0,0,2,0,2,t0.63 Rightk cn,34.801605,135.770946
10,12,34801605,135770946,8,236.25,0,0,0,0,2,0,2,t0.63 Rightk cn,34.801605,135.770946
10,12.1,34801605,135770946,9,236.25,0,0,0,0,2,0,2,t0.61 Rightk cn,34.801605,135.770946
10,12.2,34801605,135770946,9,236.25,0,0,0,0,2,0,2,t0.63 Rightk cn,34.801605,135.770946
10,12.3,34801605,135770946,9,236.25,0,0,0,0,2,0,2,t0.63 Rightk cn,34.801605,135.770946
10,12.4,34801605,135770946,9,236.25,0,0,0,0,2,0,2,t0.62 Rightk cn,34.801605,135.770946
10,12.5,34801605,135770946,9,247.5,0,0,0,0,2,0,2,t0.56 Rightk cn,34.801605,135.770946
10,12.6,34801605,135770946,8,236.25,0,0,0,0,2,0,2,t0.56 Rightk cn,34.801605,135.770946
10,12.7,34801605,135770946,9,236.25,0,0,0,0,2,0,2,t0.56 Rightk cn,34.801605,135.770946
10,12.8,34801605,135770945,9,258.75,0,0,0,0,2,0,2,t0.62 Rightk cn,34.801605,135.770945
10,12.9,34801605,135770945,9,258.75,0,0,0,0,2,0,2,t0.56 Rightk cn,34.801605,135.770945
10,12.1,34801605,135770945,9,236.25,0,0,0,0,2,0,2,t0.56 Rightk cn,34.801605,135.770945
10,12.11,34801605,135770945,9,258.75,0,0,0,0,2,0,2,t0.65 Rightk cn,34.801605,135.770945
10,12.12,34801605,135770945,9,247.5,0,0,0,0,2,0,2,t0.65 Rightk cn,34.801605,135.770945
10,12.13,34801605,135770945,9,247.5,0,0,0,0,2,0,2,t0.65 Rightk cn,34.801605,135.770945
10,12.14,34801606,135770945,9,270,0,0,0,0,2,0,2,t0.56 Rightk cn,34.801606,135.770945
10,12.15,34801606,135770945,9,270,0,0,0,0,2,0,2,t0.44 Rightk cn,34.801606,135.770945
10,12.16,34801606,135770945,9,258.75,0,0,0,0,2,0,2,t0.54 Rightk cn,34.801606,135.770945
10,12.17,34801606,135770945,9,258.75,0,0,0,0,2,0,2,t0.64 Rightk cn,34.801606,135.770945
10,12.18,34801606,135770945,9,236.25,0,0,0,0,2,0,2,t0.64 Rightk cn,34.801606,135.770945
10,12.19,34801606,135770945,9,236.25,0,0,0,0,2,0,2,t0.64 Rightk cn,34.801606,135.770945
10,12.2,34801606,135770945,9,236.25,0,0,0,0,2,0,2,t0.64 Rightk cn,34.801606,135.770945
