code,min.sec,lat,lon,dist,yaw,roll,pitch,yaw_to_goal,motor_left,motor_right,stack,seq,data,latitude,longitude
2,0.4,0,0,244,281.25,0,0,0,0,0,0,1,173.5 altNRdy,0,0
2,0.5,34801597,135770977,6,303.75,0,0,0,0,0,0,1,173.6 altNRdy,34.801597,135.770977
2,0.4,34801599,135770962,7,258.75,0,0,0,0,0,0,1,169.8 altNRdy,34.801599,135.770962
2,0.5,34801599,135770962,7,303.75,0,0,0,0,0,0,1,169.8 altNRdy,34.801599,135.770962
2,0.6,34801599,135770962,7,315,0,0,0,0,0,0,1,169.8 altNRdy,34.801599,135.770962
2,0.7,34801599,135770962,7,326.25,0,0,0,0,0,0,1,169.9 altNRdy,34.801599,135.770962
2,0.8,34801599,135770962,7,326.25,0,0,0,0,0,0,1,169.9 altNRdy,34.801599,135.770962
2,0.9,34801599,135770962,7,326.25,0,0,0,0,0,0,1,169.9 altNRdy,34.801599,135.770962
2,0.1,34801599,135770962,7,326.25,0,0,0,0,0,0,1,169.9 altNRdy,34.801599,135.770962
2,0.11,34801599,135770962,7,326.25,0,0,0,0,0,0,1,169.9 altNRdy,34.801599,135.770962
2,0.12,34801599,135770962,7,326.25,0,0,0,0,0,0,1,169.9 altNRdy,34.801599,135.770962
2,0.13,34801625,135770947,9,326.25,0,0,0,0,0,0,1,169.9 altNRdy,34.801625,135.770947
2,0.15,34801625,135770946,10,326.25,0,0,0,0,0,0,1,169.9 altNRdy,34.801625,135.770946
2,0.16,34801629,135770953,9,11.25,0,0,0,0,0,0,1,169.9 altNRdy,34.801629,135.770953
2,0.17,34801631,135770951,9,303.75,45,0,0,0,0,0,1,169.9 altNRdy,34.801631,135.770951
2,0.18,34801631,135770951,9,303.75,11.2,0,0,0,0,0,1,169.9 altNRdy,34.801631,135.770951
2,0.19,34801631,135770951,8,326.25,0,0,0,0,0,0,1,169.9 altNRdy,34.801631,135.770951
2,0.2,34801631,135770951,8,337.5,0,0,0,0,0,0,1,171.6 c5 Rise,34.801631,135.770951
2,0.21,34801631,135770951,8,0,0,0,0,0,0,0,1,171.6 c5 Rise,34.801631,135.770951
2,0.22,34801626,135770952,9,348.75,0,0,0,0,0,0,1,171.6 c5 Rise,34.801626,135.770952
2,0.23,34801624,135770953,9,348.75,0,0,0,0,0,0,1,171.6 c5 Rise,34.801624,135.770953
2,0.24,34801622,135770953,9,348.75,0,0,0,0,0,0,1,171.6 c5 Rise,34.801622,135.770953
2,0.25,34801622,135770953,8,315,0,0,0,0,0,0,1,170.7 c5 Fall,34.801622,135.770953
2,0.26,34801622,135770953,8,303.75,33.8,0,0,0,0,0,1,170.7 c5 Fall,34.801622,135.770953
2,0.27,34801623,135770953,9,326.25,0,0,0,0,0,0,1,170.7 c5 Fall,34.801623,135.770953
2,0.28,34801623,135770954,9,326.25,0,0,0,0,0,0,1,170.7 c5 Fall,34.801623,135.770954
2,0.29,34801623,135770954,8,326.25,0,0,0,0,0,0,1,170.7 c5 Fall,34.801623,135.770954
2,0.3,34801622,135770956,9,326.25,0,0,0,0,0,0,6,NC 0 Heata -0 L,34.801622,135.770956
2,0.31,34801621,135770958,8,348.75,0,0,0,0,0,0,6,NC 2 Heata -0 L,34.801621,135.770958
2,0.32,34801620,135770960,8,348.75,0,0,0,0,0,0,6,NC 4 Heata -0 L,34.80162,135.77096
2,0.33,34801618,135770961,8,348.75,0,0,0,0,0,0,6,NC 6 Heata -0 L,34.801618,135.770961
2,0.34,34801618,135770962,8,337.5,0,0,0,2,0,0,2,t-0.93 Left-0 L,34.801618,135.770962
2,0.35,34801617,135770962,8,337.5,0,0,0,2,0,0,2,t-0.95 Left-0 L,34.801617,135.770962
2,0.36,34801616,135770962,8,337.5,0,0,0,2,0,0,2,t-0.75 Left-0 L,34.801616,135.770962
2,0.37,34801616,135770962,7,315,0,0,0,2,0,0,2,t-0.75 Left-0 L,34.801616,135.770962
2,0.38,34801616,135770962,7,315,0,0,0,2,0,0,2,t-0.75 Left-0 L,34.801616,135.770962
2,0.39,34801616,135770962,7,315,0,0,0,2,0,0,2,t-0.75 Left-0 L,34.801616,135.770962
2,0.41,34801615,135770965,7,315,0,0,0,2,0,0,2,t-0.61 Left-0 L,34.801615,135.770965
2,0.42,34801616,135770966,7,326.25,0,0,0,2,0,0,2,t-0.69 Left-0 L,34.801616,135.770966
2,0.43,34801616,135770966,7,337.5,0,0,0,2,0,0,2,t-1.01 Left-0 L,34.801616,135.770966
2,0.44,34801616,135770966,7,348.75,0,0,0,2,0,0,2,t-1.13 Left-0 L,34.801616,135.770966
2,0.45,34801616,135770966,7,348.75,0,0,0,2,0,0,2,t-1.16 Left-0 L,34.801616,135.770966
2,0.46,34801616,135770966,7,348.75,0,0,0,2,0,0,2,t-1.20 Left-0 L,34.801616,135.770966
2,0.47,34801616,135770966,7,11.25,0,0,0,2,0,0,2,t-1.48 Left-0 L,34.801616,135.770966
2,0.48,34801615,135770966,7,78.75,0,0,0,2,0,0,2,t-2.75 Left-0 L,34.801615,135.770966
2,0.49,34801615,135770966,7,123.75,0,0,0,0,2,0,2,t2.69 Right-0 L,34.801615,135.770966
2,0.5,34801615,135770967,7,78.75,11.2,0,0,2,0,0,2,t-2.76 Left-0 L,34.801615,135.770967
2,0.51,34801615,135770967,7,22.5,11.2,0,0,2,0,0,2,t-1.82 Left-0 L,34.801615,135.770967
2,0.52,34801615,135770967,7,0,0,0,0,2,0,0,2,t-1.53 Left-0 L,34.801615,135.770967
2,0.53,34801615,135770967,7,348.75,0,0,0,2,0,0,2,t-0.99 Left-0 L,34.801615,135.770967
2,0.54,34801615,135770968,7,337.5,0,0,0,2,0,0,2,t-0.76 Left-0 L,34.801615,135.770968
2,0.55,34801615,135770968,7,337.5,0,0,0,2,0,0,2,t-0.66 Left-0 L,34.801615,135.770968
2,0.56,34801615,135770968,7,326.25,0,0,0,2,0,0,2,t-0.62 Left-0 L,34.801615,135.770968
2,0.57,34801615,135770969,7,326.25,0,0,0,2,0,0,2,t-0.61 Left-0 L,34.801615,135.770969
2,0.58,34801615,135770969,7,326.25,0,0,0,2,0,0,2,t-0.61 Left-0 L,34.801615,135.770969
2,0.59,34801615,135770969,7,337.5,0,0,0,2,0,0,2,t-0.63 Left-0 L,34.801615,135.770969
2,1,34801615,135770969,7,337.5,0,0,0,2,0,0,2,t-0.65 Left-0 L,34.801615,135.770969
2,1.1,34801615,135770969,7,337.5,0,0,0,2,0,0,2,t-0.65 Left-0 L,34.801615,135.770969
2,1.2,34801615,135770969,7,315,0,0,0,2,0,0,2,t-0.65 Left-0 L,34.801615,135.770969
2,1.3,34801615,135770969,7,303.75,0,0,0,2,0,0,2,t-0.65 Left-0 L,34.801615,135.770969
2,1.4,34801615,135770969,7,303.75,0,0,0,2,0,0,2,t-0.65 Left-0 L,34.801615,135.770969
2,1.5,34801615,135770969,7,303.75,0,0,0,2,0,0,2,t-0.65 Left-0 L,34.801615,135.770969
2,1.7,34801615,135770970,7,303.75,0,0,0,2,0,0,2,t-0.41 Left-0 L,34.801615,135.77097
2,1.8,34801615,135770970,7,315,0,0,0,2,0,0,2,t-0.60 Left-0 L,34.801615,135.77097
2,1.9,34801614,135770970,7,326.25,0,0,0,2,0,0,2,t-0.68 Left-0 L,34.801614,135.77097
2,1.1,34801614,135770970,7,326.25,0,0,0,2,0,0,2,t-0.72 Left-0 L,34.801614,135.77097
2,1.11,34801614,135770970,7,326.25,0,0,0,2,0,0,2,t-0.70 Left-0 L,34.801614,135.77097
2,1.12,34801614,135770969,7,326.25,0,0,0,2,0,0,2,t-0.71 Left-0 L,34.801614,135.770969
2,1.13,34801614,135770969,7,326.25,0,0,0,2,0,0,2,t-0.71 Left-0 L,34.801614,135.770969
2,1.14,34801614,135770969,7,326.25,0,0,0,2,0,0,2,t-0.71 Left-0 L,34.801614,135.770969
2,1.15,34801613,135770969,7,326.25,0,0,0,2,0,0,2,t-0.73 Left-0 L,34.801613,135.770969
2,1.16,34801613,135770969,7,326.25,0,0,0,2,0,0,2,t-0.72 Left-0 L,34.801613,135.770969
2,1.17,34801613,135770969,7,326.25,0,0,0,2,0,0,2,t-0.72 Left-0 L,34.801613,135.770969
2,1.18,34801612,135770969,7,326.25,0,0,0,2,0,0,2,t-0.65 Left-0 L,34.801612,135.770969
2,1.19,34801612,135770969,7,337.5,0,0,0,2,0,0,2,t-0.70 Left-0 L,34.801612,135.770969
2,1.2,34801612,135770969,7,337.5,0,0,0,2,0,0,2,t-0.72 Left-0 L,34.801612,135.770969
2,1.21,34801612,135770969,7,337.5,0,0,0,2,0,0,2,t-0.73 Left-0 L,34.801612,135.770969
2,1.22,34801612,135770969,7,326.25,0,0,0,0,0,1,2,stack left-0 L,34.801612,135.770969
2,1.23,34801612,135770969,7,315,0,0,0,0,0,1,2,stack left-0 L,34.801612,135.770969
2,1.24,34801611,135770969,7,281.25,0,0,0,0,0,1,2,stack right-0 L,34.801611,135.770969
2,1.25,34801611,135770969,7,270,0,0,0,0,0,1,2,stack right-0 L,34.801611,135.770969
2,1.26,34801611,135770969,7,270,0,0,0,0,0,1,2,stack right-0 L,34.801611,135.770969
2,1.27,34801611,135770969,7,270,0,0,0,0,0,1,2,stack right-0 L,34.801611,135.770969
2,1.28,34801611,135770969,7,270,0,0,0,0,0,1,2,stack right-0 L,34.801611,135.770969
2,1.29,34801611,135770969,6,270,0,0,0,0,0,1,2,stack right-0 L,34.801611,135.770969
2,1.3,34801611,135770969,7,258.75,0,0,0,0,0,1,2,stack right-0 L,34.801611,135.770969
2,1.31,34801611,135770969,7,270,0,0,0,0,0,1,2,stack right-0 L,34.801611,135.770969
2,1.33,34801612,135770969,7,270,0,0,0,0,0,1,2,stack left-0 L,34.801612,135.770969
2,1.34,34801612,135770969,7,270,0,0,0,0,0,1,2,stack left-0 L,34.801612,135.770969
2,1.35,34801612,135770969,7,270,0,0,0,0,0,1,2,stack left-0 L,34.801612,135.770969
2,1.36,34801612,135770968,7,270,0,0,0,0,0,1,2,stack right-0 L,34.801612,135.770968
2,1.37,34801612,135770968,7,258.75,0,0,0,0,0,1,2,stack right-0 L,34.801612,135.770968
2,1.38,34801612,135770968,7,258.75,0,0,0,0,0,1,2,stack right-0 L,34.801612,135.770968
2,1.39,34801620,135770984,6,258.75,0,0,0,0,0,1,2,stack right-0 L,34.80162,135.770984
2,1.4,34801623,135770989,6,258.75,0,0,0,0,0,1,2,stack right-0 L,34.801623,135.770989
2,1.41,34801625,135770988,6,258.75,0,0,0,0,0,1,2,stack right-0 L,34.801625,135.770988
2,1.42,34801624,135770987,6,258.75,0,0,0,0,0,1,2,stack right-0 L,34.801624,135.770987
2,1.43,34801624,135770986,6,258.75,0,0,0,0,0,1,2,stack right-0 L,34.801624,135.770986
2,1.44,34801624,135770985,6,258.75,0,0,0,0,0,1,2,stack right-0 L,34.801624,135.770985
2,1.45,34801624,135770984,6,258.75,0,0,0,0,0,1,2,stack right-0 L,34.801624,135.770984
2,1.46,34801623,135770984,6,292.5,0,0,0,0,2,0,2,t0.64 Rightk cn,34.801623,135.770984
2,1.47,34801623,135770983,6,315,0,0,0,0,0,0,2,t0.08 Forwardcn,34.801623,135.770983
2,1.48,34801623,135770982,6,326.25,0,0,0,0,0,0,2,t-0.28 Forwardn,34.801623,135.770982
2,1.49,34801623,135770982,6,315,0,0,0,0,0,0,2,t-0.28 Forwardn,34.801623,135.770982
2,1.5,34801621,135770982,6,326.25,0,0,0,2,0,0,2,t-0.42 Leftrdn,34.801621,135.770982
2,1.51,34801621,135770982,6,315,0,0,0,2,0,0,2,t-0.42 Leftrdn,34.801621,135.770982
2,1.52,34801621,135770982,6,326.25,0,0,0,2,0,0,2,t-0.43 Leftrdn,34.801621,135.770982
2,1.53,34801621,135770982,6,315,0,0,0,2,0,0,2,t-0.43 Leftrdn,34.801621,135.770982
2,1.54,34801620,135770983,6,326.25,0,0,0,2,0,0,2,t-0.43 Leftrdn,34.80162,135.770983
2,1.55,34801620,135770983,6,315,0,0,0,2,0,0,2,t-0.43 Leftrdn,34.80162,135.770983
2,1.56,34801620,135770983,6,315,0,0,0,2,0,0,2,t-0.43 Leftrdn,34.80162,135.770983
2,1.57,34801620,135770983,6,315,0,0,0,2,0,0,2,t-0.43 Leftrdn,34.80162,135.770983
2,1.59,34801619,135770984,6,315,0,0,0,0,0,0,2,t-0.37 Forwardn,34.801619,135.770984
2,2,34801619,135770984,6,315,0,0,0,2,0,0,2,t-0.50 Leftrdn,34.801619,135.770984
2,2.1,34801619,135770984,6,326.25,0,0,0,2,0,0,2,t-0.57 Leftrdn,34.801619,135.770984
2,2.2,34801619,135770984,6,326.25,0,0,0,2,0,0,2,t-0.59 Leftrdn,34.801619,135.770984
2,2.3,34801619,135770984,6,326.25,0,0,0,2,0,0,2,t-0.60 Leftrdn,34.801619,135.770984
2,2.4,34801618,135770984,6,326.25,0,0,0,2,0,0,2,t-0.61 Leftrdn,34.801618,135.770984
2,2.5,34801619,135770984,6,326.25,0,0,0,2,0,0,2,t-0.61 Leftrdn,34.801619,135.770984
2,2.6,34801619,135770984,6,326.25,0,0,0,2,0,0,2,t-0.60 Leftrdn,34.801619,135.770984
2,2.7,34801618,135770984,6,326.25,0,0,0,2,0,0,2,t-0.63 Leftrdn,34.801618,135.770984
2,2.8,34801619,135770984,6,326.25,0,0,0,2,0,0,2,t-0.61 Leftk cn,34.801619,135.770984
2,2.9,34801618,135770984,6,326.25,0,0,0,2,0,0,2,t-0.62 Leftk cn,34.801618,135.770984
2,2.1,34801618,135770984,6,326.25,0,0,0,2,0,0,2,t-0.61 Leftk cn,34.801618,135.770984
2,2.11,34801618,135770984,6,326.25,0,0,0,2,0,0,2,t-0.61 Leftk cn,34.801618,135.770984
2,2.12,34801618,135770984,6,326.25,0,0,0,2,0,0,2,t-0.61 Leftk cn,34.801618,135.770984
2,2.13,34801618,135770984,6,337.5,0,0,0,2,0,0,2,t-0.81 Leftk cn,34.801618,135.770984
2,2.14,34801614,135770983,6,337.5,0,0,0,2,0,0,2,t-0.72 Leftk cn,34.801614,135.770983
2,2.15,34801613,135770982,6,337.5,0,0,0,2,0,0,2,t-0.71 Leftk cn,34.801613,135.770982
2,2.16,34801612,135770982,6,337.5,0,0,0,2,0,0,2,t-0.71 Leftk cn,34.801612,135.770982
2,2.17,34801612,135770982,6,337.5,0,0,0,2,0,0,2,t-0.70 Leftk cn,34.801612,135.770982
2,2.18,34801611,135770981,6,337.5,0,0,0,2,0,0,2,t-0.72 Leftk cn,34.801611,135.770981
2,2.19,34801611,135770981,6,337.5,0,0,0,2,0,0,2,t-0.72 Leftk cn,34.801611,135.770981
2,2.2,34801613,135770979,6,337.5,0,0,0,2,0,0,2,t-0.71 Leftk cn,34.801613,135.770979
2,2.21,34801613,135770979,6,315,0,0,0,2,0,0,2,t-0.71 Leftk cn,34.801613,135.770979
2,2.22,34801613,135770979,6,315,0,0,0,2,0,0,2,t-0.71 Leftk cn,34.801613,135.770979
2,2.23,34801613,135770979,6,315,0,0,0,2,0,0,2,t-0.71 Leftk cn,34.801613,135.770979
2,2.25,34801613,135770979,6,315,0,0,0,2,0,0,2,t-0.71 Leftk cn,34.801613,135.770979
2,2.26,34801613,135770978,6,315,0,0,0,2,0,0,2,t-0.49 Leftk cn,34.801613,135.770978
2,2.27,34801613,135770978,6,315,0,0,0,2,0,0,2,t-0.65 Leftk cn,34.801613,135.770978
2,2.28,34801613,135770978,6,326.25,0,0,0,2,0,0,2,t-0.69 Leftk cn,34.801613,135.770978
2,2.29,34801613,135770978,6,326.25,0,0,0,2,0,0,2,t-0.71 Leftk cn,34.801613,135.770978
2,2.3,34801613,135770977,6,326.25,0,0,0,2,0,0,2,t-0.71 Leftk cn,34.801613,135.770977
2,2.31,34801612,135770977,6,326.25,0,0,0,2,0,0,2,t-0.73 Leftk cn,34.801612,135.770977
2,2.32,34801612,135770977,6,326.25,0,0,0,2,0,0,2,t-0.73 Leftk cn,34.801612,135.770977
2,2.33,34801612,135770977,6,326.25,0,0,0,2,0,0,2,t-0.73 Leftk cn,34.801612,135.770977
2,2.34,34801612,135770977,6,326.25,0,0,0,2,0,0,2,t-0.73 Leftk cn,34.801612,135.770977
2,2.35,34801612,135770977,6,326.25,0,0,0,2,0,0,2,t-0.73 Leftk cn,34.801612,135.770977
2,2.36,34801611,135770977,6,326.25,0,0,0,2,0,0,2,t-0.73 Leftk cn,34.801611,135.770977
2,2.37,34801611,135770977,6,326.25,0,0,0,2,0,0,2,t-0.74 Leftk cn,34.801611,135.770977
2,2.38,34801611,135770977,6,337.5,0,0,0,2,0,0,2,t-0.94 Leftk cn,34.801611,135.770977
2,2.39,34801611,135770977,6,337.5,0,0,0,2,0,0,2,t-0.78 Leftk cn,34.801611,135.770977
2,2.4,34801610,135770977,6,337.5,0,0,0,2,0,0,2,t-0.76 Leftk cn,34.80161,135.770977
2,2.41,34801610,135770976,6,337.5,0,0,0,2,0,0,2,t-0.75 Leftk cn,34.80161,135.770976
2,2.42,34801610,135770976,6,337.5,0,0,0,2,0,0,2,t-0.74 Leftk cn,34.80161,135.770976
2,2.43,34801610,135770976,6,337.5,0,0,0,2,0,0,2,t-0.74 Leftk cn,34.80161,135.770976
2,2.44,34801610,135770976,6,337.5,0,0,0,2,0,0,2,t-0.74 Leftk cn,34.80161,135.770976
2,2.45,34801609,135770975,6,337.5,0,0,0,2,0,0,2,t-0.76 Leftk cn,34.801609,135.770975
2,2.46,34801609,135770975,6,337.5,0,0,0,2,0,0,2,t-0.77 Leftk cn,34.801609,135.770975
2,2.47,34801609,135770975,6,337.5,0,0,0,2,0,0,2,t-0.77 Leftk cn,34.801609,135.770975
2,2.48,34801609,135770975,6,315,0,0,0,2,0,0,2,t-0.77 Leftk cn,34.801609,135.770975
2,2.49,34801609,135770975,6,315,0,0,0,2,0,0,2,t-0.77 Leftk cn,34.801609,135.770975
2,2.51,34801609,135770974,6,315,0,0,0,2,0,0,2,t-0.57 Leftk cn,34.801609,135.770974
2,2.52,34801609,135770974,6,315,0,0,0,2,0,0,2,t-0.69 Leftk cn,34.801609,135.770974
2,2.53,34801609,135770974,6,326.25,0,0,0,2,0,0,2,t-0.73 Leftk cn,34.801609,135.770974
2,2.54,34801609,135770974,6,326.25,0,0,0,2,0,0,2,t-0.74 Leftk cn,34.801609,135.770974
2,2.55,34801609,135770974,6,326.25,0,0,0,2,0,0,2,t-0.74 Leftk cn,34.801609,135.770974
2,2.56,34801609,135770974,6,326.25,0,0,0,2,0,0,2,t-0.76 Leftk cn,34.801609,135.770974
2,2.57,34801609,135770973,6,326.25,0,0,0,2,0,0,2,t-0.76 Leftk cn,34.801609,135.770973
2,2.58,34801609,135770973,6,326.25,0,0,0,2,0,0,2,t-0.77 Leftk cn,34.801609,135.770973
2,2.59,34801609,135770974,6,326.25,0,0,0,2,0,0,2,t-0.77 Leftk cn,34.801609,135.770974
2,3,34801609,135770974,6,326.25,0,0,0,2,0,0,2,t-0.76 Leftk cn,34.801609,135.770974
2,3.1,34801609,135770974,6,326.25,0,0,0,2,0,0,2,t-0.76 Leftk cn,34.801609,135.770974
2,3.2,34801609,135770974,6,315,0,0,0,2,0,0,2,t-0.63 Leftk cn,34.801609,135.770974
2,3.3,34801610,135770974,6,337.5,0,0,0,2,0,0,2,t-0.87 Leftk cn,34.80161,135.770974
2,3.4,34801610,135770974,6,337.5,0,0,0,2,0,0,2,t-0.77 Leftk cn,34.80161,135.770974
2,3.5,34801610,135770974,6,337.5,0,0,0,2,0,0,2,t-0.75 Leftk cn,34.80161,135.770974
2,3.6,34801610,135770974,6,337.5,0,0,0,2,0,0,2,t-0.75 Leftk cn,34.80161,135.770974
2,3.7,34801610,135770974,6,337.5,0,0,0,2,0,0,2,t-0.74 Leftk cn,34.80161,135.770974
2,3.8,34801610,135770974,6,337.5,0,0,0,2,0,0,2,t-0.74 Leftk cn,34.80161,135.770974
2,3.9,34801610,135770974,6,337.5,0,0,0,2,0,0,2,t-0.74 Leftk cn,34.80161,135.770974
2,3.1,34801610,135770974,6,337.5,0,0,0,2,0,0,2,t-0.74 Leftk cn,34.80161,135.770974
2,3.11,34801610,135770974,6,337.5,0,0,0,2,0,0,2,t-0.74 Leftk cn,34.80161,135.770974
2,3.12,34801610,135770974,6,337.5,0,0,0,2,0,0,2,t-0.74 Leftk cn,34.80161,135.770974
2,3.13,34801610,135770974,6,315,0,0,0,2,0,0,2,t-0.74 Leftk cn,34.80161,135.770974
2,3.14,34801610,135770974,6,315,0,0,0,2,0,0,2,t-0.74 Leftk cn,34.80161,135.770974
2,3.15,34801610,135770974,6,315,0,0,0,2,0,0,2,t-0.74 Leftk cn,34.80161,135.770974
2,3.17,34801609,135770974,6,315,0,0,0,2,0,0,2,t-0.54 Leftk cn,34.801609,135.770974
2,3.18,34801609,135770974,6,315,0,0,0,2,0,0,2,t-0.68 Leftk cn,34.801609,135.770974
2,3.19,34801609,135770974,6,326.25,0,0,0,2,0,0,2,t-0.72 Leftk cn,34.801609,135.770974
2,3.2,34801609,135770974,6,326.25,0,0,0,2,0,0,2,t-0.75 Leftk cn,34.801609,135.770974
2,3.21,34801609,135770975,6,326.25,0,0,0,2,0,0,2,t-0.75 Leftk cn,34.801609,135.770975
2,3.22,34801609,135770975,6,326.25,0,0,0,2,0,0,2,t-0.74 Leftk cn,34.801609,135.770975
2,3.23,34801609,135770975,6,326.25,0,0,0,2,0,0,2,t-0.73 Leftk cn,34.801609,135.770975
2,3.24,34801609,135770975,6,326.25,0,0,0,2,0,0,2,t-0.73 Leftk cn,34.801609,135.770975
2,3.25,34801609,135770975,6,326.25,0,0,0,2,0,0,2,t-0.74 Leftk cn,34.801609,135.770975
2,3.26,34801609,135770975,6,326.25,0,0,0,2,0,0,2,t-0.72 Leftk cn,34.801609,135.770975
2,3.27,34801609,135770975,6,326.25,0,0,0,2,0,0,2,t-0.73 Leftk cn,34.801609,135.770975
2,3.28,34801609,135770975,6,326.25,0,0,0,2,0,0,2,t-0.74 Leftk cn,34.801609,135.770975
2,3.29,34801609,135770975,6,326.25,0,0,0,2,0,0,2,t-0.72 Leftk cn,34.801609,135.770975
2,3.3,34801609,135770975,6,337.5,0,0,0,2,0,0,2,t-0.93 Leftk cn,34.801609,135.770975
2,3.31,34801609,135770975,6,337.5,0,0,0,2,0,0,2,t-0.79 Leftk cn,34.801609,135.770975
2,3.32,34801609,135770975,6,337.5,0,0,0,2,0,0,2,t-0.77 Leftk cn,34.801609,135.770975
2,3.33,34801609,135770975,6,337.5,0,0,0,2,0,0,2,t-0.76 Leftk cn,34.801609,135.770975
2,3.34,34801609,135770975,6,337.5,0,0,0,2,0,0,2,t-0.75 Leftk cn,34.801609,135.770975
2,3.35,34801609,135770975,6,337.5,0,0,0,2,0,0,2,t-0.74 Leftk cn,34.801609,135.770975
2,3.36,34801609,135770975,6,337.5,0,0,0,2,0,0,2,t-0.74 Leftk cn,34.801609,135.770975
2,3.37,34801609,135770974,6,337.5,0,0,0,2,0,0,2,t-0.76 Leftk cn,34.801609,135.770974
2,3.38,34801609,135770974,6,337.5,0,0,0,2,0,0,2,t-0.75 Leftk cn,34.801609,135.770974
2,3.39,34801609,135770974,6,315,0,0,0,2,0,0,2,t-0.75 Leftk cn,34.801609,135.770974
2,3.4,34801609,135770974,6,315,0,0,0,2,0,0,2,t-0.75 Leftk cn,34.801609,135.770974
2,3.41,34801609,135770974,6,315,0,0,0,2,0,0,2,t-0.75 Leftk cn,34.801609,135.770974
2,3.43,34801609,135770974,6,315,0,0,0,2,0,0,2,t-0.75 Leftk cn,34.801609,135.770974
2,3.44,34801609,135770974,6,315,0,0,0,2,0,0,2,t-0.53 Leftk cn,34.801609,135.770974
2,3.45,34801609,135770974,6,315,0,0,0,2,0,0,2,t-0.67 Leftk cn,34.801609,135.770974
2,3.46,34801609,135770974,6,326.25,0,0,0,2,0,0,2,t-0.72 Leftk cn,34.801609,135.770974
2,3.47,34801609,135770974,6,326.25,0,0,0,2,0,0,2,t-0.74 Leftk cn,34.801609,135.770974
2,3.48,34801609,135770974,6,326.25,0,0,0,2,0,0,2,t-0.75 Leftk cn,34.801609,135.770974
2,3.49,34801609,135770974,6,326.25,0,0,0,2,0,0,2,t-0.76 Leftk cn,34.801609,135.770974
2,3.5,34801609,135770974,6,326.25,0,0,0,2,0,0,2,t-0.76 Leftk cn,34.801609,135.770974
2,3.51,34801609,135770974,6,326.25,0,0,0,2,0,0,2,t-0.76 Leftk cn,34.801609,135.770974
2,3.52,34801608,135770973,6,326.25,0,0,0,2,0,0,2,t-0.76 Leftk cn,34.801608,135.770973
2,3.53,34801608,135770973,6,326.25,0,0,0,2,0,0,2,t-0.75 Leftk cn,34.801608,135.770973
2,3.54,34801608,135770973,6,326.25,0,0,0,2,0,0,2,t-0.77 Leftk cn,34.801608,135.770973
2,3.55,34801608,135770973,6,326.25,0,0,0,2,0,0,2,t-0.77 Leftk cn,34.801608,135.770973
2,3.56,34801608,135770973,6,337.5,0,0,0,2,0,0,2,t-0.96 Leftk cn,34.801608,135.770973
2,3.57,34801608,135770973,6,337.5,0,0,0,2,0,0,2,t-0.81 Leftk cn,34.801608,135.770973
2,3.58,34801608,135770972,6,337.5,0,0,0,2,0,0,2,t-0.79 Leftk cn,34.801608,135.770972
2,3.59,34801608,135770972,6,337.5,0,0,0,2,0,0,2,t-0.78 Leftk cn,34.801608,135.770972
2,4,34801608,135770972,6,337.5,0,0,0,2,0,0,2,t-0.78 Leftk cn,34.801608,135.770972
2,4.1,34801608,135770972,6,337.5,0,0,0,2,0,0,2,t-0.75 Leftk cn,34.801608,135.770972
2,4.2,34801608,135770972,6,337.5,0,0,0,2,0,0,2,t-0.74 Leftk cn,34.801608,135.770972
2,4.3,34801608,135770972,6,337.5,0,0,0,2,0,0,2,t-0.74 Leftk cn,34.801608,135.770972
2,4.4,34801608,135770972,6,315,0,0,0,2,0,0,2,t-0.74 Leftk cn,34.801608,135.770972
2,4.5,34801608,135770972,6,315,0,0,0,2,0,0,2,t-0.74 Leftk cn,34.801608,135.770972
2,4.6,34801608,135770972,6,303.75,0,0,0,2,0,0,2,t-0.74 Leftk cn,34.801608,135.770972
2,4.7,34801608,135770972,6,303.75,0,0,0,2,0,0,2,t-0.74 Leftk cn,34.801608,135.770972
2,4.9,34801608,135770971,7,303.75,0,0,0,2,0,0,2,t-0.50 Leftk cn,34.801608,135.770971
2,4.1,34801608,135770971,7,315,0,0,0,2,0,0,2,t-0.67 Leftk cn,34.801608,135.770971
2,4.11,34801608,135770971,7,315,0,0,0,2,0,0,2,t-0.73 Leftk cn,34.801608,135.770971
2,4.12,34801608,135770970,7,326.25,0,0,0,2,0,0,2,t-0.76 Leftk cn,34.801608,135.77097
2,4.13,34801608,135770970,7,326.25,0,0,0,2,0,0,2,t-0.77 Leftk cn,34.801608,135.77097
2,4.14,34801608,135770970,7,326.25,0,0,0,2,0,0,2,t-0.77 Leftk cn,34.801608,135.77097
2,4.15,34801608,135770970,7,326.25,0,0,0,2,0,0,2,t-0.77 Leftk cn,34.801608,135.77097
2,4.16,34801608,135770970,7,326.25,0,0,0,2,0,0,2,t-0.76 Leftk cn,34.801608,135.77097
2,4.17,34801608,135770970,7,326.25,0,0,0,2,0,0,2,t-0.74 Leftk cn,34.801608,135.77097
2,4.18,34801608,135770970,7,326.25,0,0,0,2,0,0,2,t-0.77 Leftk cn,34.801608,135.77097
2,4.19,34801608,135770970,7,326.25,0,0,0,2,0,0,2,t-0.77 Leftk cn,34.801608,135.77097
2,4.2,34801608,135770970,7,326.25,0,0,0,2,0,0,2,t-0.78 Leftk cn,34.801608,135.77097
2,4.21,34801608,135770970,7,337.5,0,0,0,2,0,0,2,t-0.97 Leftk cn,34.801608,135.77097
2,4.22,34801608,135770970,7,337.5,0,0,0,2,0,0,2,t-0.82 Leftk cn,34.801608,135.77097
2,4.23,34801608,135770970,7,337.5,0,0,0,2,0,0,2,t-0.78 Leftk cn,34.801608,135.77097
2,4.24,34801608,135770969,7,337.5,0,0,0,2,0,0,2,t-0.77 Leftk cn,34.801608,135.770969
2,4.25,34801608,135770969,7,337.5,0,0,0,2,0,0,2,t-0.77 Leftk cn,34.801608,135.770969
2,4.26,34801608,135770969,7,337.5,0,0,0,2,0,0,2,t-0.76 Leftk cn,34.801608,135.770969
2,4.27,34801608,135770969,7,337.5,0,0,0,2,0,0,2,t-0.76 Leftk cn,34.801608,135.770969
2,4.28,34801609,135770969,7,337.5,0,0,0,2,0,0,2,t-0.74 Leftk cn,34.801609,135.770969
2,4.29,34801609,135770969,7,337.5,0,0,0,2,0,0,2,t-0.74 Leftk cn,34.801609,135.770969
2,4.3,34801609,135770969,7,315,0,0,0,2,0,0,2,t-0.74 Leftk cn,34.801609,135.770969
2,4.31,34801609,135770969,7,315,0,0,0,2,0,0,2,t-0.74 Leftk cn,34.801609,135.770969
2,4.32,34801609,135770969,7,315,0,0,0,2,0,0,2,t-0.74 Leftk cn,34.801609,135.770969
2,4.33,34801609,135770969,7,315,0,0,0,2,0,0,2,t-0.54 Leftk cn,34.801609,135.770969
2,4.35,34801609,135770969,7,315,0,0,0,2,0,0,2,t-0.68 Leftk cn,34.801609,135.770969
2,4.36,34801609,135770970,7,326.25,0,0,0,2,0,0,2,t-0.73 Leftk cn,34.801609,135.77097
2,4.37,34801609,135770970,7,326.25,0,0,0,2,0,0,2,t-0.75 Leftk cn,34.801609,135.77097
2,4.38,34801609,135770970,7,326.25,0,0,0,2,0,0,2,t-0.76 Leftk cn,34.801609,135.77097
2,4.39,34801609,135770970,7,326.25,0,0,0,2,0,0,2,t-0.77 Leftk cn,34.801609,135.77097
2,4.4,34801609,135770970,7,326.25,0,0,0,2,0,0,2,t-0.78 Leftk cn,34.801609,135.77097
2,4.41,34801609,135770970,7,326.25,0,0,0,2,0,0,2,t-0.77 Leftk cn,34.801609,135.77097
2,4.42,34801609,135770970,7,326.25,0,0,0,2,0,0,2,t-0.77 Leftk cn,34.801609,135.77097
2,4.43,34801609,135770970,7,326.25,0,0,0,2,0,0,2,t-0.77 Leftk cn,34.801609,135.77097
2,4.44,34801609,135770970,7,326.25,0,0,0,2,0,0,2,t-0.77 Leftk cn,34.801609,135.77097
2,4.45,34801609,135770970,7,326.25,0,0,0,2,0,0,2,t-0.77 Leftk cn,34.801609,135.77097
2,4.46,34801610,135770970,7,326.25,0,0,0,2,0,0,2,t-0.75 Leftk cn,34.80161,135.77097
2,4.47,34801610,135770970,7,337.5,0,0,0,2,0,0,2,t-0.94 Leftk cn,34.80161,135.77097
2,4.48,34801610,135770970,7,337.5,0,0,0,2,0,0,2,t-0.80 Leftk cn,34.80161,135.77097
2,4.49,34801610,135770970,7,337.5,0,0,0,2,0,0,2,t-0.77 Leftk cn,34.80161,135.77097
2,4.5,34801610,135770970,7,337.5,0,0,0,2,0,0,2,t-0.76 Leftk cn,34.80161,135.77097
2,4.51,34801610,135770970,7,337.5,0,0,0,2,0,0,2,t-0.76 Leftk cn,34.80161,135.77097
2,4.52,34801610,135770970,7,337.5,0,0,0,2,0,0,2,t-0.77 Leftk cn,34.80161,135.77097
2,4.53,34801610,135770970,7,337.5,0,0,0,2,0,0,2,t-0.79 Leftk cn,34.80161,135.77097
2,4.54,34801610,135770970,7,337.5,0,0,0,2,0,0,2,t-0.78 Leftk cn,34.80161,135.77097
2,4.55,34801610,135770970,7,337.5,0,0,0,2,0,0,2,t-0.76 Leftk cn,34.80161,135.77097
2,4.56,34801610,135770970,7,337.5,0,0,0,2,0,0,2,t-0.76 Leftk cn,34.80161,135.77097
2,4.57,34801610,135770970,7,315,0,0,0,2,0,0,2,t-0.76 Leftk cn,34.80161,135.77097
2,4.58,34801610,135770970,7,315,0,0,0,2,0,0,2,t-0.76 Leftk cn,34.80161,135.77097
2,4.59,34801610,135770970,6,315,0,0,0,2,0,0,2,t-0.76 Leftk cn,34.80161,135.77097
2,5.1,34801610,135770970,7,315,0,0,0,2,0,0,2,t-0.57 Leftk cn,34.80161,135.77097
2,5.2,34801610,135770970,7,315,0,0,0,2,0,0,2,t-0.71 Leftk cn,34.80161,135.77097
2,5.3,34801610,135770970,7,326.25,0,0,0,2,0,0,2,t-0.76 Leftk cn,34.80161,135.77097
2,5.4,34801610,135770970,7,326.25,0,0,0,2,0,0,2,t-0.77 Leftk cn,34.80161,135.77097
2,5.5,34801610,135770970,7,326.25,0,0,0,2,0,0,2,t-0.76 Leftk cn,34.80161,135.77097
2,5.6,34801610,135770970,7,326.25,0,0,0,2,0,0,2,t-0.75 Leftk cn,34.80161,135.77097
2,5.7,34801610,135770970,7,326.25,0,0,0,2,0,0,2,t-0.75 Leftk cn,34.80161,135.77097
2,5.8,34801610,135770970,7,326.25,0,0,0,2,0,0,2,t-0.75 Leftk cn,34.80161,135.77097
2,5.9,34801610,135770970,7,326.25,0,0,0,2,0,0,2,t-0.74 Leftk cn,34.80161,135.77097
2,5.1,34801610,135770970,7,326.25,0,0,0,2,0,0,2,t-0.74 Leftk cn,34.80161,135.77097
2,5.11,34801610,135770970,7,326.25,0,0,0,2,0,0,2,t-0.74 Leftk cn,34.80161,135.77097
2,5.12,34801611,135770970,7,326.25,0,0,0,2,0,0,2,t-0.74 Leftk cn,34.801611,135.77097
2,5.13,34801611,135770970,7,326.25,0,0,0,2,0,0,2,t-0.73 Leftk cn,34.801611,135.77097
2,5.14,34801611,135770970,7,337.5,0,0,0,2,0,0,2,t-0.92 Leftk cn,34.801611,135.77097
2,5.15,34801611,135770970,7,337.5,0,0,0,2,0,0,2,t-0.77 Leftk cn,34.801611,135.77097
2,5.16,34801611,135770970,7,337.5,0,0,0,2,0,0,2,t-0.75 Leftk cn,34.801611,135.77097
2,5.17,34801611,135770971,7,337.5,0,0,0,2,0,0,2,t-0.74 Leftk cn,34.801611,135.770971
2,5.18,34801611,135770971,7,337.5,0,0,0,2,0,0,2,t-0.74 Leftk cn,34.801611,135.770971
2,5.19,34801611,135770971,7,337.5,0,0,0,2,0,0,2,t-0.73 Leftk cn,34.801611,135.770971
2,5.2,34801611,135770971,7,337.5,0,0,0,2,0,0,2,t-0.73 Leftk cn,34.801611,135.770971
2,5.21,34801611,135770971,7,337.5,0,0,0,2,0,0,2,t-0.73 Leftk cn,34.801611,135.770971
2,5.22,34801611,135770971,7,337.5,0,0,0,2,0,0,2,t-0.72 Leftk cn,34.801611,135.770971
2,5.23,34801611,135770971,7,315,0,0,0,2,0,0,2,t-0.72 Leftk cn,34.801611,135.770971
2,5.24,34801611,135770971,7,326.25,0,0,0,2,0,0,2,t-0.60 Leftk cn,34.801611,135.770971
2,5.25,34801611,135770971,7,315,0,0,0,2,0,0,2,t-0.60 Leftk cn,34.801611,135.770971
2,5.27,34801611,135770971,6,315,0,0,0,2,0,0,2,t-0.60 Leftk cn,34.801611,135.770971
2,5.28,34801611,135770971,6,315,0,0,0,2,0,0,2,t-0.60 Leftk cn,34.801611,135.770971
2,5.29,34801611,135770971,7,315,0,0,0,2,0,0,2,t-0.52 Leftk cn,34.801611,135.770971
2,5.3,34801612,135770971,7,315,0,0,0,2,0,0,2,t-0.65 Leftk cn,34.801612,135.770971
2,5.31,34801612,135770971,7,326.25,0,0,0,2,0,0,2,t-0.70 Leftk cn,34.801612,135.770971
2,5.32,34801612,135770971,7,326.25,0,0,0,2,0,0,2,t-0.71 Leftk cn,34.801612,135.770971
2,5.33,34801612,135770971,7,326.25,0,0,0,2,0,0,2,t-0.72 Leftk cn,34.801612,135.770971
2,5.34,34801612,135770972,7,326.25,0,0,0,2,0,0,2,t-0.71 Leftk cn,34.801612,135.770972
2,5.35,34801612,135770971,7,326.25,0,0,0,2,0,0,2,t-0.70 Leftk cn,34.801612,135.770971
2,5.36,34801612,135770971,7,326.25,0,0,0,2,0,0,2,t-0.70 Leftk cn,34.801612,135.770971
2,5.37,34801612,135770971,7,326.25,0,0,0,2,0,0,2,t-0.69 Leftk cn,34.801612,135.770971
2,5.38,34801612,135770971,7,326.25,0,0,0,2,0,0,2,t-0.69 Leftk cn,34.801612,135.770971
2,5.39,34801612,135770971,7,326.25,0,0,0,2,0,0,2,t-0.70 Leftk cn,34.801612,135.770971
2,5.4,34801612,135770971,7,337.5,0,0,0,2,0,0,2,t-0.90 Leftk cn,34.801612,135.770971
2,5.41,34801612,135770971,7,337.5,0,0,0,2,0,0,2,t-0.74 Leftk cn,34.801612,135.770971
2,5.42,34801612,135770971,7,337.5,0,0,0,2,0,0,2,t-0.71 Leftk cn,34.801612,135.770971
2,5.43,34801612,135770971,7,337.5,0,0,0,2,0,0,2,t-0.70 Leftk cn,34.801612,135.770971
2,5.44,34801612,135770971,7,337.5,0,0,0,2,0,0,2,t-0.71 Leftk cn,34.801612,135.770971
2,5.45,34801613,135770971,7,337.5,0,0,0,2,0,0,2,t-0.71 Leftk cn,34.801613,135.770971
2,5.46,34801613,135770971,7,337.5,0,0,0,2,0,0,2,t-0.70 Leftk cn,34.801613,135.770971
2,5.47,34801613,135770971,7,337.5,0,0,0,2,0,0,2,t-0.69 Leftk cn,34.801613,135.770971
2,5.48,34801613,135770971,7,337.5,0,0,0,2,0,0,2,t-0.69 Leftk cn,34.801613,135.770971
2,5.49,34801613,135770971,7,315,0,0,0,2,0,0,2,t-0.69 Leftk cn,34.801613,135.770971
2,5.5,34801613,135770971,6,315,0,0,0,2,0,0,2,t-0.69 Leftk cn,34.801613,135.770971
2,5.51,34801613,135770971,6,315,0,0,0,2,0,0,2,t-0.69 Leftk cn,34.801613,135.770971
2,5.53,34801613,135770971,6,315,0,0,0,2,0,0,2,t-0.69 Leftk cn,34.801613,135.770971
2,5.54,34801613,135770971,7,315,0,0,0,2,0,0,2,t-0.48 Leftk cn,34.801613,135.770971
2,5.55,34801613,135770971,7,315,0,0,0,2,0,0,2,t-0.63 Leftk cn,34.801613,135.770971
2,5.56,34801613,135770971,7,315,0,0,0,2,0,0,2,t-0.68 Leftk cn,34.801613,135.770971
2,5.57,34801613,135770971,7,326.25,0,0,0,2,0,0,2,t-0.70 Leftk cn,34.801613,135.770971
2,5.58,34801613,135770971,7,326.25,0,0,0,2,0,0,2,t-0.71 Leftk cn,34.801613,135.770971
2,5.59,34801613,135770971,7,326.25,0,0,0,2,0,0,2,t-0.70 Leftk cn,34.801613,135.770971
2,6,34801613,135770971,7,326.25,0,0,0,2,0,0,2,t-0.70 Leftk cn,34.801613,135.770971
2,6.1,34801613,135770971,7,326.25,0,0,0,2,0,0,2,t-0.70 Leftk cn,34.801613,135.770971
2,6.2,34801613,135770971,7,326.25,0,0,0,2,0,0,2,t-0.70 Leftk cn,34.801613,135.770971
2,6.3,34801613,135770971,7,326.25,0,0,0,2,0,0,2,t-0.71 Leftk cn,34.801613,135.770971
2,6.4,34801613,135770971,7,326.25,0,0,0,2,0,0,2,t-0.70 Leftk cn,34.801613,135.770971
2,6.5,34801613,135770971,7,326.25,0,0,0,2,0,0,2,t-0.71 Leftk cn,34.801613,135.770971
2,6.6,34801613,135770971,7,337.5,0,0,0,2,0,0,2,t-0.89 Leftk cn,34.801613,135.770971
2,6.7,34801613,135770970,7,337.5,0,0,0,2,0,0,2,t-0.75 Leftk cn,34.801613,135.77097
2,6.8,34801612,135770970,7,337.5,0,0,0,2,0,0,2,t-0.74 Leftk cn,34.801612,135.77097
2,6.9,34801612,135770970,7,337.5,0,0,0,2,0,0,2,t-0.73 Leftk cn,34.801612,135.77097
2,6.1,34801612,135770970,7,337.5,0,0,0,2,0,0,2,t-0.72 Leftk cn,34.801612,135.77097
2,6.11,34801612,135770970,7,337.5,0,0,0,2,0,0,2,t-0.71 Leftk cn,34.801612,135.77097
2,6.12,34801612,135770970,7,337.5,0,0,0,2,0,0,2,t-0.71 Leftk cn,34.801612,135.77097
2,6.13,34801612,135770970,7,337.5,0,0,0,2,0,0,2,t-0.72 Leftk cn,34.801612,135.77097
2,6.14,34801612,135770970,7,337.5,0,0,0,2,0,0,2,t-0.72 Leftk cn,34.801612,135.77097
2,6.15,34801612,135770970,7,337.5,0,0,0,2,0,0,2,t-0.72 Leftk cn,34.801612,135.77097
2,6.16,34801612,135770970,7,315,0,0,0,2,0,0,2,t-0.72 Leftk cn,34.801612,135.77097
2,6.17,34801612,135770970,7,315,0,0,0,2,0,0,2,t-0.72 Leftk cn,34.801612,135.77097
2,6.19,34801612,135770970,6,315,0,0,0,2,0,0,2,t-0.72 Leftk cn,34.801612,135.77097
2,6.2,34801612,135770970,7,315,0,0,0,2,0,0,2,t-0.52 Leftk cn,34.801612,135.77097
2,6.21,34801612,135770970,7,315,0,0,0,2,0,0,2,t-0.65 Leftk cn,34.801612,135.77097
2,6.22,34801612,135770971,7,326.25,0,0,0,2,0,0,2,t-0.69 Leftk cn,34.801612,135.770971
2,6.23,34801612,135770971,7,326.25,0,0,0,2,0,0,2,t-0.73 Leftk cn,34.801612,135.770971
2,6.24,34801612,135770971,7,326.25,0,0,0,2,0,0,2,t-0.73 Leftk cn,34.801612,135.770971
2,6.25,34801612,135770971,7,326.25,0,0,0,2,0,0,2,t-0.74 Leftk cn,34.801612,135.770971
2,6.26,34801612,135770971,7,326.25,0,0,0,2,0,0,2,t-0.73 Leftk cn,34.801612,135.770971
2,6.27,34801612,135770971,7,326.25,0,0,0,2,0,0,2,t-0.72 Leftk cn,34.801612,135.770971
2,6.28,34801612,135770971,7,326.25,0,0,0,2,0,0,2,t-0.72 Leftk cn,34.801612,135.770971
2,6.29,34801612,135770971,7,326.25,0,0,0,2,0,0,2,t-0.72 Leftk cn,34.801612,135.770971
2,6.3,34801612,135770971,7,326.25,0,0,0,2,0,0,2,t-0.72 Leftk cn,34.801612,135.770971
2,6.31,34801612,135770971,7,315,0,0,0,2,0,0,2,t-0.60 Leftk cn,34.801612,135.770971
2,6.32,34801612,135770971,7,337.5,0,0,0,2,0,0,2,t-0.84 Leftk cn,34.801612,135.770971
2,6.33,34801612,135770971,7,337.5,0,0,0,2,0,0,2,t-0.75 Leftk cn,34.801612,135.770971
2,6.34,34801612,135770971,7,337.5,0,0,0,2,0,0,2,t-0.74 Leftk cn,34.801612,135.770971
2,6.35,34801612,135770971,7,337.5,0,0,0,2,0,0,2,t-0.74 Leftk cn,34.801612,135.770971
2,6.36,34801612,135770970,7,337.5,0,0,0,2,0,0,2,t-0.73 Leftk cn,34.801612,135.77097
2,6.37,34801612,135770971,7,337.5,0,0,0,2,0,0,2,t-0.73 Leftk cn,34.801612,135.770971
2,6.38,34801612,135770970,7,337.5,0,0,0,2,0,0,2,t-0.72 Leftk cn,34.801612,135.77097
2,6.39,34801612,135770970,7,337.5,0,0,0,2,0,0,2,t-0.72 Leftk cn,34.801612,135.77097
2,6.4,34801612,135770971,7,337.5,0,0,0,2,0,0,2,t-0.71 Leftk cn,34.801612,135.770971
2,6.41,34801612,135770971,7,315,0,0,0,2,0,0,2,t-0.71 Leftk cn,34.801612,135.770971
2,6.42,34801612,135770971,6,315,0,0,0,2,0,0,2,t-0.71 Leftk cn,34.801612,135.770971
2,6.43,34801612,135770971,6,315,0,0,0,2,0,0,2,t-0.71 Leftk cn,34.801612,135.770971
2,6.45,34801612,135770971,6,315,0,0,0,2,0,0,2,t-0.71 Leftk cn,34.801612,135.770971
2,6.46,34801612,135770971,7,315,0,0,0,2,0,0,2,t-0.51 Leftk cn,34.801612,135.770971
2,6.47,34801612,135770971,7,315,0,0,0,2,0,0,2,t-0.65 Leftk cn,34.801612,135.770971
2,6.48,34801612,135770971,7,326.25,0,0,0,2,0,0,2,t-0.71 Leftk cn,34.801612,135.770971
2,6.49,34801612,135770971,7,326.25,0,0,0,2,0,0,2,t-0.73 Leftk cn,34.801612,135.770971
2,6.5,34801612,135770971,7,326.25,0,0,0,2,0,0,2,t-0.74 Leftk cn,34.801612,135.770971
2,6.51,34801612,135770971,7,326.25,0,0,0,2,0,0,2,t-0.74 Leftk cn,34.801612,135.770971
2,6.52,34801612,135770971,7,326.25,0,0,0,2,0,0,2,t-0.73 Leftk cn,34.801612,135.770971
2,6.53,34801612,135770972,7,326.25,0,0,0,2,0,0,2,t-0.72 Leftk cn,34.801612,135.770972
2,6.54,34801612,135770972,7,326.25,0,0,0,2,0,0,2,t-0.72 Leftk cn,34.801612,135.770972
2,6.55,34801612,135770972,7,326.25,0,0,0,2,0,0,2,t-0.75 Leftk cn,34.801612,135.770972
2,6.56,34801612,135770972,7,326.25,0,0,0,2,0,0,2,t-0.74 Leftk cn,34.801612,135.770972
2,6.57,34801612,135770972,7,326.25,0,0,0,2,0,0,2,t-0.74 Leftk cn,34.801612,135.770972
2,6.58,34801612,135770972,7,337.5,0,0,0,2,0,0,2,t-0.93 Leftk cn,34.801612,135.770972
2,6.59,34801612,135770972,7,337.5,0,0,0,2,0,0,2,t-0.78 Leftk cn,34.801612,135.770972
2,7,34801612,135770972,7,337.5,0,0,0,2,0,0,2,t-0.75 Leftk cn,34.801612,135.770972
2,7.1,34801612,135770972,7,337.5,0,0,0,2,0,0,2,t-0.74 Leftk cn,34.801612,135.770972
2,7.2,34801616,135770971,7,337.5,0,0,0,2,0,0,2,t-0.68 Leftk cn,34.801616,135.770971
2,7.3,34801616,135770974,7,337.5,0,0,0,2,0,0,2,t-0.68 Leftk cn,34.801616,135.770974
2,7.4,34801617,135770978,6,337.5,0,0,0,2,0,0,2,t-0.66 Leftk cn,34.801617,135.770978
2,7.5,34801614,135770978,6,337.5,0,0,0,2,0,0,2,t-0.70 Leftk cn,34.801614,135.770978
2,7.6,34801613,135770980,6,337.5,0,0,0,2,0,0,2,t-0.71 Leftk cn,34.801613,135.77098
2,7.7,34801613,135770980,6,315,0,0,0,2,0,0,2,t-0.71 Leftk cn,34.801613,135.77098
2,7.8,34801613,135770980,6,315,0,0,0,2,0,0,2,t-0.71 Leftk cn,34.801613,135.77098
2,7.9,34801613,135770980,6,315,0,0,0,2,0,0,2,t-0.71 Leftk cn,34.801613,135.77098
2,7.11,34801613,135770980,6,315,0,0,0,2,0,0,2,t-0.71 Leftk cn,34.801613,135.77098
2,7.12,34801610,135770983,6,315,0,0,0,2,0,0,2,t-0.52 Leftk cn,34.80161,135.770983
2,7.13,34801609,135770983,6,326.25,0,0,0,2,0,0,2,t-0.70 Leftk cn,34.801609,135.770983
2,7.14,34801609,135770983,6,326.25,0,0,0,2,0,0,2,t-0.74 Leftk cn,34.801609,135.770983
2,7.15,34801608,135770983,6,326.25,0,0,0,2,0,0,2,t-0.78 Leftk cn,34.801608,135.770983
2,7.16,34801608,135770983,6,326.25,0,0,0,2,0,0,2,t-0.77 Leftk cn,34.801608,135.770983
2,7.17,34801608,135770982,6,326.25,0,0,0,2,0,0,2,t-0.77 Leftk cn,34.801608,135.770982
2,7.18,34801608,135770982,6,326.25,0,0,0,2,0,0,2,t-0.78 Leftk cn,34.801608,135.770982
2,7.19,34801608,135770981,6,326.25,0,0,0,2,0,0,2,t-0.78 Leftk cn,34.801608,135.770981
2,7.2,34801608,135770981,6,326.25,0,0,0,2,0,0,2,t-0.77 Leftk cn,34.801608,135.770981
2,7.21,34801607,135770980,6,326.25,0,0,0,2,0,0,2,t-0.78 Leftk cn,34.801607,135.77098
2,7.22,34801607,135770980,6,326.25,0,0,0,2,0,0,2,t-0.78 Leftk cn,34.801607,135.77098
2,7.23,34801607,135770980,6,337.5,0,0,0,2,0,0,2,t-0.71 Leftk cn,34.801607,135.77098
2,7.24,34801607,135770980,6,337.5,0,0,0,2,0,0,2,t-0.76 Leftk cn,34.801607,135.77098
2,7.25,34801607,135770979,6,337.5,0,0,0,2,0,0,2,t-0.78 Leftk cn,34.801607,135.770979
2,7.26,34801607,135770979,6,337.5,0,0,0,2,0,0,2,t-0.79 Leftk cn,34.801607,135.770979
2,7.27,34801607,135770979,6,337.5,0,0,0,2,0,0,2,t-0.81 Leftk cn,34.801607,135.770979
2,7.28,34801607,135770979,6,337.5,0,0,0,2,0,0,2,t-0.80 Leftk cn,34.801607,135.770979
2,7.29,34801607,135770978,6,337.5,0,0,0,2,0,0,2,t-0.80 Leftk cn,34.801607,135.770978
2,7.3,34801607,135770978,6,337.5,0,0,0,2,0,0,2,t-0.80 Leftk cn,34.801607,135.770978
2,7.31,34801607,135770978,6,337.5,0,0,0,2,0,0,2,t-0.80 Leftk cn,34.801607,135.770978
2,7.32,34801607,135770978,6,337.5,0,0,0,2,0,0,2,t-0.80 Leftk cn,34.801607,135.770978
2,7.33,34801607,135770978,6,315,0,0,0,2,0,0,2,t-0.80 Leftk cn,34.801607,135.770978
2,7.34,34801607,135770978,6,315,0,0,0,2,0,0,2,t-0.80 Leftk cn,34.801607,135.770978
2,7.35,34801607,135770978,6,315,0,0,0,2,0,0,2,t-0.80 Leftk cn,34.801607,135.770978
2,7.37,34801608,135770978,6,315,0,0,0,2,0,0,2,t-0.61 Leftk cn,34.801608,135.770978
2,7.38,34801608,135770978,6,326.25,0,0,0,2,0,0,2,t-0.75 Leftk cn,34.801608,135.770978
2,7.39,34801608,135770978,6,326.25,0,0,0,2,0,0,2,t-0.78 Leftk cn,34.801608,135.770978
2,7.4,34801608,135770978,6,326.25,0,0,0,2,0,0,2,t-0.79 Leftk cn,34.801608,135.770978
2,7.41,34801608,135770978,6,326.25,0,0,0,2,0,0,2,t-0.79 Leftk cn,34.801608,135.770978
2,7.42,34801608,135770978,6,326.25,0,0,0,2,0,0,2,t-0.79 Leftk cn,34.801608,135.770978
2,7.43,34801608,135770978,6,326.25,0,0,0,2,0,0,2,t-0.79 Leftk cn,34.801608,135.770978
2,7.44,34801608,135770978,6,326.25,0,0,0,2,0,0,2,t-0.80 Leftk cn,34.801608,135.770978
2,7.45,34801608,135770978,6,326.25,0,0,0,2,0,0,2,t-0.80 Leftk cn,34.801608,135.770978
2,7.46,34801608,135770978,6,326.25,0,0,0,2,0,0,2,t-0.79 Leftk cn,34.801608,135.770978
2,7.47,34801608,135770978,6,326.25,0,0,0,2,0,0,2,t-0.78 Leftk cn,34.801608,135.770978
2,7.48,34801608,135770978,6,326.25,0,0,0,2,0,0,2,t-0.77 Leftk cn,34.801608,135.770978
2,7.49,34801608,135770978,6,326.25,0,0,0,2,0,0,2,t-0.77 Leftk cn,34.801608,135.770978
2,7.5,34801608,135770978,6,337.5,0,0,0,2,0,0,2,t-0.95 Leftk cn,34.801608,135.770978
2,7.51,34801608,135770978,6,337.5,0,0,0,2,0,0,2,t-0.82 Leftk cn,34.801608,135.770978
2,7.52,34801608,135770978,6,337.5,0,0,0,2,0,0,2,t-0.79 Leftk cn,34.801608,135.770978
2,7.53,34801608,135770979,6,337.5,0,0,0,2,0,0,2,t-0.78 Leftk cn,34.801608,135.770979
2,7.54,34801608,135770979,6,337.5,0,0,0,2,0,0,2,t-0.77 Leftk cn,34.801608,135.770979
2,7.55,34801608,135770979,6,337.5,0,0,0,2,0,0,2,t-0.78 Leftk cn,34.801608,135.770979
2,7.56,34801608,135770979,6,337.5,0,0,0,2,0,0,2,t-0.78 Leftk cn,34.801608,135.770979
2,7.57,34801608,135770979,6,337.5,0,0,0,2,0,0,2,t-0.78 Leftk cn,34.801608,135.770979
2,7.58,34801608,135770979,6,337.5,0,0,0,2,0,0,2,t-0.77 Leftk cn,34.801608,135.770979
2,7.59,34801608,135770979,6,315,0,0,0,2,0,0,2,t-0.77 Leftk cn,34.801608,135.770979
2,8,34801608,135770979,6,315,0,0,0,2,0,0,2,t-0.77 Leftk cn,34.801608,135.770979
2,8.1,34801608,135770979,6,315,0,0,0,2,0,0,2,t-0.77 Leftk cn,34.801608,135.770979
2,8.3,34801608,135770979,6,315,0,0,0,2,0,0,2,t-0.77 Leftk cn,34.801608,135.770979
2,8.4,34801608,135770979,6,315,0,0,0,2,0,0,2,t-0.54 Leftk cn,34.801608,135.770979
2,8.5,34801609,135770979,6,315,0,0,0,2,0,0,2,t-0.69 Leftk cn,34.801609,135.770979
2,8.6,34801609,135770979,6,326.25,0,0,0,2,0,0,2,t-0.75 Leftk cn,34.801609,135.770979
2,8.7,34801609,135770979,6,326.25,0,0,0,2,0,0,2,t-0.75 Leftk cn,34.801609,135.770979
2,8.8,34801609,135770979,6,326.25,0,0,0,2,0,0,2,t-0.76 Leftk cn,34.801609,135.770979
2,8.9,34801609,135770979,6,326.25,0,0,0,2,0,0,2,t-0.76 Leftk cn,34.801609,135.770979
2,8.1,34801609,135770979,6,326.25,0,0,0,2,0,0,2,t-0.77 Leftk cn,34.801609,135.770979
2,8.11,34801609,135770979,6,326.25,0,0,0,2,0,0,2,t-0.77 Leftk cn,34.801609,135.770979
2,8.12,34801609,135770979,6,326.25,0,0,0,2,0,0,2,t-0.77 Leftk cn,34.801609,135.770979
2,8.13,34801609,135770979,6,326.25,0,0,0,2,0,0,2,t-0.77 Leftk cn,34.801609,135.770979
2,8.14,34801609,135770979,6,326.25,0,0,0,2,0,0,2,t-0.75 Leftk cn,34.801609,135.770979
2,8.15,34801609,135770979,6,326.25,0,0,0,2,0,0,2,t-0.76 Leftk cn,34.801609,135.770979
2,8.16,34801609,135770979,6,337.5,0,0,0,2,0,0,2,t-0.94 Leftk cn,34.801609,135.770979
2,8.17,34801609,135770979,6,337.5,0,0,0,2,0,0,2,t-0.80 Leftk cn,34.801609,135.770979
2,8.18,34801609,135770979,6,337.5,0,0,0,2,0,0,2,t-0.77 Leftk cn,34.801609,135.770979
2,8.19,34801609,135770979,6,337.5,0,0,0,2,0,0,2,t-0.76 Leftk cn,34.801609,135.770979
2,8.2,34801609,135770979,6,337.5,0,0,0,2,0,0,2,t-0.75 Leftk cn,34.801609,135.770979
2,8.21,34801609,135770979,6,337.5,0,0,0,2,0,0,2,t-0.74 Leftk cn,34.801609,135.770979
2,8.22,34801609,135770979,6,337.5,0,0,0,2,0,0,2,t-0.75 Leftk cn,34.801609,135.770979
2,8.23,34801609,135770979,6,337.5,0,0,0,2,0,0,2,t-0.75 Leftk cn,34.801609,135.770979
2,8.24,34801609,135770979,6,337.5,0,0,0,2,0,0,2,t-0.74 Leftk cn,34.801609,135.770979
2,8.25,34801609,135770979,6,315,0,0,0,2,0,0,2,t-0.74 Leftk cn,34.801609,135.770979
2,8.26,34801609,135770979,6,315,0,0,0,2,0,0,2,t-0.74 Leftk cn,34.801609,135.770979
2,8.27,34801609,135770979,6,315,0,0,0,2,0,0,2,t-0.74 Leftk cn,34.801609,135.770979
2,8.29,34801609,135770979,6,315,0,0,0,2,0,0,2,t-0.74 Leftk cn,34.801609,135.770979
2,8.3,34801609,135770979,6,315,0,0,0,2,0,0,2,t-0.53 Leftk cn,34.801609,135.770979
2,8.31,34801609,135770978,6,315,0,0,0,2,0,0,2,t-0.69 Leftk cn,34.801609,135.770978
2,8.32,34801609,135770978,6,326.25,0,0,0,2,0,0,2,t-0.74 Leftk cn,34.801609,135.770978
2,8.33,34801609,135770978,6,326.25,0,0,0,2,0,0,2,t-0.76 Leftk cn,34.801609,135.770978
2,8.34,34801609,135770978,6,326.25,0,0,0,2,0,0,2,t-0.76 Leftk cn,34.801609,135.770978
2,8.35,34801609,135770978,6,326.25,0,0,0,2,0,0,2,t-0.76 Leftk cn,34.801609,135.770978
2,8.36,34801610,135770978,6,326.25,0,0,0,2,0,0,2,t-0.74 Leftk cn,34.80161,135.770978
2,8.37,34801610,135770978,6,326.25,0,0,0,2,0,0,2,t-0.75 Leftk cn,34.80161,135.770978
2,8.38,34801610,135770978,6,326.25,0,0,0,2,0,0,2,t-0.76 Leftk cn,34.80161,135.770978
2,8.39,34801610,135770978,6,326.25,0,0,0,2,0,0,2,t-0.75 Leftk cn,34.80161,135.770978
2,8.4,34801610,135770978,6,326.25,0,0,0,2,0,0,2,t-0.75 Leftk cn,34.80161,135.770978
2,8.41,34801610,135770978,6,326.25,0,0,0,2,0,0,2,t-0.74 Leftk cn,34.80161,135.770978
2,8.42,34801610,135770978,6,337.5,0,0,0,2,0,0,2,t-0.92 Leftk cn,34.80161,135.770978
2,8.43,34801610,135770978,6,337.5,0,0,0,2,0,0,2,t-0.79 Leftk cn,34.80161,135.770978
2,8.44,34801610,135770977,6,337.5,0,0,0,2,0,0,2,t-0.76 Leftk cn,34.80161,135.770977
2,8.45,34801610,135770977,6,337.5,0,0,0,2,0,0,2,t-0.75 Leftk cn,34.80161,135.770977
2,8.46,34801610,135770977,6,337.5,0,0,0,2,0,0,2,t-0.75 Leftk cn,34.80161,135.770977
2,8.47,34801610,135770977,6,337.5,0,0,0,2,0,0,2,t-0.75 Leftk cn,34.80161,135.770977
2,8.48,34801610,135770977,6,337.5,0,0,0,2,0,0,2,t-0.76 Leftk cn,34.80161,135.770977
2,8.49,34801610,135770977,6,337.5,0,0,0,2,0,0,2,t-0.76 Leftk cn,34.80161,135.770977
2,8.5,34801610,135770977,6,337.5,0,0,0,2,0,0,2,t-0.76 Leftk cn,34.80161,135.770977
2,8.51,34801610,135770977,6,315,0,0,0,2,0,0,2,t-0.76 Leftk cn,34.80161,135.770977
2,8.52,34801610,135770977,6,315,0,0,0,2,0,0,2,t-0.76 Leftk cn,34.80161,135.770977
2,8.53,34801610,135770977,6,315,0,0,0,2,0,0,2,t-0.76 Leftk cn,34.80161,135.770977
2,8.55,34801610,135770977,6,315,0,0,0,2,0,0,2,t-0.76 Leftk cn,34.80161,135.770977
2,8.56,34801611,135770977,6,315,0,0,0,2,0,0,2,t-0.54 Leftk cn,34.801611,135.770977
2,8.57,34801611,135770977,6,326.25,0,0,0,2,0,0,2,t-0.69 Leftk cn,34.801611,135.770977
2,8.58,34801611,135770978,6,326.25,0,0,0,2,0,0,2,t-0.73 Leftk cn,34.801611,135.770978
2,8.59,34801611,135770978,6,326.25,0,0,0,2,0,0,2,t-0.74 Leftk cn,34.801611,135.770978
2,9,34801611,135770978,6,326.25,0,0,0,2,0,0,2,t-0.75 Leftk cn,34.801611,135.770978
2,9.1,34801611,135770978,6,326.25,0,0,0,2,0,0,2,t-0.76 Leftk cn,34.801611,135.770978
2,9.2,34801611,135770978,6,326.25,0,0,0,2,0,0,2,t-0.75 Leftk cn,34.801611,135.770978
2,9.3,34801611,135770978,6,326.25,0,0,0,2,0,0,2,t-0.75 Leftk cn,34.801611,135.770978
2,9.4,34801611,135770978,6,326.25,0,0,0,2,0,0,2,t-0.74 Leftk cn,34.801611,135.770978
2,9.5,34801611,135770978,6,326.25,0,0,0,2,0,0,2,t-0.75 Leftk cn,34.801611,135.770978
2,9.6,34801612,135770978,6,326.25,0,0,0,2,0,0,2,t-0.74 Leftk cn,34.801612,135.770978
2,9.7,34801612,135770978,6,326.25,0,0,0,2,0,0,2,t-0.73 Leftk cn,34.801612,135.770978
2,9.8,34801612,135770978,6,337.5,0,0,0,2,0,0,2,t-0.91 Leftk cn,34.801612,135.770978
2,9.9,34801612,135770978,6,337.5,0,0,0,2,0,0,2,t-0.77 Leftk cn,34.801612,135.770978
2,9.1,34801612,135770978,6,337.5,0,0,0,2,0,0,2,t-0.73 Leftk cn,34.801612,135.770978
2,9.11,34801612,135770978,6,337.5,0,0,0,2,0,0,2,t-0.72 Leftk cn,34.801612,135.770978
2,9.12,34801612,135770978,6,337.5,0,0,0,2,0,0,2,t-0.73 Leftk cn,34.801612,135.770978
2,9.13,34801612,135770978,6,337.5,0,0,0,2,0,0,2,t-0.72 Leftk cn,34.801612,135.770978
2,9.14,34801612,135770978,6,337.5,0,0,0,2,0,0,2,t-0.72 Leftk cn,34.801612,135.770978
2,9.15,34801612,135770978,6,337.5,0,0,0,2,0,0,2,t-0.73 Leftk cn,34.801612,135.770978
2,9.16,34801612,135770978,6,315,0,0,0,2,0,0,2,t-0.73 Leftk cn,34.801612,135.770978
2,9.17,34801612,135770978,6,315,0,0,0,2,0,0,2,t-0.73 Leftk cn,34.801612,135.770978
2,9.18,34801612,135770978,6,315,0,0,0,2,0,0,2,t-0.73 Leftk cn,34.801612,135.770978
2,9.19,34801612,135770978,6,315,0,0,0,2,0,0,2,t-0.73 Leftk cn,34.801612,135.770978
2,9.21,34801612,135770978,6,315,0,0,0,2,0,0,2,t-0.73 Leftk cn,34.801612,135.770978
2,9.22,34801612,135770978,6,315,0,0,0,2,0,0,2,t-0.53 Leftk cn,34.801612,135.770978
2,9.23,34801612,135770978,6,326.25,0,0,0,2,0,0,2,t-0.68 Leftk cn,34.801612,135.770978
2,9.24,34801612,135770978,6,326.25,0,0,0,2,0,0,2,t-0.72 Leftk cn,34.801612,135.770978
2,9.25,34801612,135770978,6,326.25,0,0,0,2,0,0,2,t-0.73 Leftk cn,34.801612,135.770978
2,9.26,34801612,135770978,6,326.25,0,0,0,2,0,0,2,t-0.74 Leftk cn,34.801612,135.770978
2,9.27,34801612,135770978,6,326.25,0,0,0,2,0,0,2,t-0.75 Leftk cn,34.801612,135.770978
2,9.28,34801612,135770978,6,326.25,0,0,0,2,0,0,2,t-0.74 Leftk cn,34.801612,135.770978
2,9.29,34801612,135770978,6,326.25,0,0,0,2,0,0,2,t-0.74 Leftk cn,34.801612,135.770978
2,9.3,34801612,135770978,6,326.25,0,0,0,2,0,0,2,t-0.75 Leftk cn,34.801612,135.770978
2,9.31,34801612,135770978,6,326.25,0,0,0,2,0,0,2,t-0.74 Leftk cn,34.801612,135.770978
2,9.32,34801612,135770978,6,326.25,0,0,0,2,0,0,2,t-0.74 Leftk cn,34.801612,135.770978
2,9.33,34801612,135770979,6,315,0,0,0,2,0,0,2,t-0.61 Leftk cn,34.801612,135.770979
2,9.34,34801612,135770979,6,337.5,0,0,0,2,0,0,2,t-0.85 Leftk cn,34.801612,135.770979
2,9.35,34801612,135770979,6,337.5,0,0,0,2,0,0,2,t-0.74 Leftk cn,34.801612,135.770979
2,9.36,34801612,135770979,6,337.5,0,0,0,2,0,0,2,t-0.74 Leftk cn,34.801612,135.770979
2,9.37,34801612,135770979,6,337.5,0,0,0,2,0,0,2,t-0.74 Leftk cn,34.801612,135.770979
2,9.38,34801612,135770979,6,337.5,0,0,0,2,0,0,2,t-0.75 Leftk cn,34.801612,135.770979
2,9.39,34801612,135770979,6,337.5,0,0,0,2,0,0,2,t-0.75 Leftk cn,34.801612,135.770979
2,9.4,34801612,135770979,6,337.5,0,0,0,2,0,0,2,t-0.73 Leftk cn,34.801612,135.770979
2,9.41,34801612,135770979,6,337.5,0,0,0,2,0,0,2,t-0.74 Leftk cn,34.801612,135.770979
2,9.42,34801612,135770979,6,337.5,0,0,0,2,0,0,2,t-0.72 Leftk cn,34.801612,135.770979
2,9.43,34801612,135770979,6,315,0,0,0,2,0,0,2,t-0.72 Leftk cn,34.801612,135.770979
2,9.44,34801612,135770979,6,315,0,0,0,2,0,0,2,t-0.72 Leftk cn,34.801612,135.770979
2,9.45,34801612,135770979,6,315,0,0,0,2,0,0,2,t-0.72 Leftk cn,34.801612,135.770979
2,9.47,34801612,135770979,6,315,0,0,0,2,0,0,2,t-0.72 Leftk cn,34.801612,135.770979
2,9.48,34801612,135770979,6,315,0,0,0,2,0,0,2,t-0.54 Leftk cn,34.801612,135.770979
2,9.49,34801612,135770979,6,326.25,0,0,0,2,0,0,2,t-0.69 Leftk cn,34.801612,135.770979
2,9.5,34801612,135770979,6,326.25,0,0,0,2,0,0,2,t-0.71 Leftk cn,34.801612,135.770979
2,9.51,34801612,135770979,6,326.25,0,0,0,2,0,0,2,t-0.72 Leftk cn,34.801612,135.770979
2,9.52,34801612,135770979,6,326.25,0,0,0,2,0,0,2,t-0.72 Leftk cn,34.801612,135.770979
2,9.53,34801612,135770979,6,326.25,0,0,0,2,0,0,2,t-0.71 Leftk cn,34.801612,135.770979
2,9.54,34801612,135770979,6,326.25,0,0,0,2,0,0,2,t-0.71 Leftk cn,34.801612,135.770979
2,9.55,34801612,135770979,6,326.25,0,0,0,2,0,0,2,t-0.72 Leftk cn,34.801612,135.770979
2,9.56,34801612,135770979,6,326.25,0,0,0,2,0,0,2,t-0.73 Leftk cn,34.801612,135.770979
2,9.57,34801612,135770979,6,326.25,0,0,0,2,0,0,2,t-0.74 Leftk cn,34.801612,135.770979
2,9.58,34801612,135770979,6,326.25,0,0,0,2,0,0,2,t-0.73 Leftk cn,34.801612,135.770979
2,9.59,34801612,135770979,6,326.25,0,0,0,2,0,0,2,t-0.73 Leftk cn,34.801612,135.770979
2,10,34801612,135770979,6,337.5,0,0,0,2,0,0,2,t-0.90 Leftk cn,34.801612,135.770979
2,10.1,34801612,135770979,6,337.5,0,0,0,2,0,0,2,t-0.76 Leftk cn,34.801612,135.770979
2,10.2,34801612,135770979,6,337.5,0,0,0,2,0,0,2,t-0.73 Leftk cn,34.801612,135.770979
2,10.3,34801613,135770979,6,337.5,0,0,0,2,0,0,2,t-0.70 Leftk cn,34.801613,135.770979
2,10.4,34801613,135770979,6,337.5,0,0,0,2,0,0,2,t-0.69 Leftk cn,34.801613,135.770979
2,10.5,34801613,135770979,6,337.5,0,0,0,2,0,0,2,t-0.69 Leftk cn,34.801613,135.770979
2,10.6,34801613,135770979,6,337.5,0,0,0,2,0,0,2,t-0.69 Leftk cn,34.801613,135.770979
2,10.7,34801613,135770979,6,337.5,0,0,0,2,0,0,2,t-0.69 Leftk cn,34.801613,135.770979
2,10.8,34801613,135770979,6,337.5,0,0,0,2,0,0,2,t-0.70 Leftk cn,34.801613,135.770979
2,10.9,34801613,135770979,6,315,0,0,0,2,0,0,2,t-0.70 Leftk cn,34.801613,135.770979
2,10.1,34801613,135770979,6,315,0,0,0,2,0,0,2,t-0.70 Leftk cn,34.801613,135.770979
2,10.11,34801613,135770979,6,315,0,0,0,2,0,0,2,t-0.70 Leftk cn,34.801613,135.770979
2,10.13,34801613,135770979,6,315,0,0,0,2,0,0,2,t-0.70 Leftk cn,34.801613,135.770979
2,10.14,34801613,135770979,6,315,0,0,0,2,0,0,2,t-0.52 Leftk cn,34.801613,135.770979
2,10.15,34801613,135770979,6,326.25,0,0,0,2,0,0,2,t-0.66 Leftk cn,34.801613,135.770979
2,10.16,34801613,135770979,6,326.25,0,0,0,2,0,0,2,t-0.70 Leftk cn,34.801613,135.770979
2,10.17,34801614,135770978,6,326.25,0,0,0,2,0,0,2,t-0.69 Leftk cn,34.801614,135.770978
2,10.18,34801614,135770978,6,326.25,0,0,0,2,0,0,2,t-0.69 Leftk cn,34.801614,135.770978
2,10.19,34801614,135770978,6,326.25,0,0,0,2,0,0,2,t-0.69 Leftk cn,34.801614,135.770978
2,10.2,34801614,135770978,6,326.25,0,0,0,2,0,0,2,t-0.69 Leftk cn,34.801614,135.770978
2,10.21,34801614,135770978,6,326.25,0,0,0,2,0,0,2,t-0.69 Leftk cn,34.801614,135.770978
2,10.22,34801614,135770978,6,326.25,0,0,0,2,0,0,2,t-0.70 Leftk cn,34.801614,135.770978
2,10.23,34801614,135770978,6,326.25,0,0,0,2,0,0,2,t-0.70 Leftk cn,34.801614,135.770978
2,10.24,34801614,135770978,6,326.25,0,0,0,2,0,0,2,t-0.71 Leftk cn,34.801614,135.770978
2,10.25,34801614,135770978,6,326.25,0,0,0,2,0,0,2,t-0.70 Leftk cn,34.801614,135.770978
2,10.26,34801614,135770978,6,337.5,0,0,0,2,0,0,2,t-0.88 Leftk cn,34.801614,135.770978
2,10.27,34801614,135770978,6,337.5,0,0,0,2,0,0,2,t-0.74 Leftk cn,34.801614,135.770978
2,10.28,34801614,135770978,6,337.5,0,0,0,2,0,0,2,t-0.71 Leftk cn,34.801614,135.770978
2,10.29,34801614,135770978,6,337.5,0,0,0,2,0,0,2,t-0.70 Leftk cn,34.801614,135.770978
2,10.3,34801614,135770978,6,337.5,0,0,0,2,0,0,2,t-0.69 Leftk cn,34.801614,135.770978
2,10.31,34801614,135770978,6,337.5,0,0,0,2,0,0,2,t-0.70 Leftk cn,34.801614,135.770978
2,10.32,34801614,135770978,6,337.5,0,0,0,2,0,0,2,t-0.69 Leftk cn,34.801614,135.770978
2,10.33,34801613,135770978,6,337.5,0,0,0,2,0,0,2,t-0.72 Leftk cn,34.801613,135.770978
2,10.34,34801613,135770978,6,337.5,0,0,0,2,0,0,2,t-0.72 Leftk cn,34.801613,135.770978
2,10.35,34801613,135770978,6,315,0,0,0,2,0,0,2,t-0.72 Leftk cn,34.801613,135.770978
2,10.36,34801613,135770978,6,315,0,0,0,2,0,0,2,t-0.72 Leftk cn,34.801613,135.770978
2,10.37,34801613,135770978,6,315,0,0,0,2,0,0,2,t-0.72 Leftk cn,34.801613,135.770978
2,10.39,34801613,135770978,6,315,0,0,0,2,0,0,2,t-0.72 Leftk cn,34.801613,135.770978
2,10.4,34801613,135770978,6,315,0,0,0,2,0,0,2,t-0.52 Leftk cn,34.801613,135.770978
2,10.41,34801613,135770978,6,326.25,0,0,0,2,0,0,2,t-0.66 Leftk cn,34.801613,135.770978
2,10.42,34801613,135770978,6,326.25,0,0,0,2,0,0,2,t-0.69 Leftk cn,34.801613,135.770978
2,10.43,34801613,135770978,6,326.25,0,0,0,2,0,0,2,t-0.70 Leftk cn,34.801613,135.770978
2,10.44,34801613,135770978,6,326.25,0,0,0,2,0,0,2,t-0.70 Leftk cn,34.801613,135.770978
2,10.45,34801613,135770978,6,326.25,0,0,0,2,0,0,2,t-0.70 Leftk cn,34.801613,135.770978
2,10.46,34801612,135770978,6,326.25,0,0,0,2,0,0,2,t-0.71 Leftk cn,34.801612,135.770978
2,10.47,34801612,135770978,6,326.25,0,0,0,2,0,0,2,t-0.70 Leftk cn,34.801612,135.770978
2,10.48,34801612,135770978,6,326.25,0,0,0,2,0,0,2,t-0.70 Leftk cn,34.801612,135.770978
2,10.49,34801612,135770978,6,326.25,0,0,0,2,0,0,2,t-0.71 Leftk cn,34.801612,135.770978
2,10.5,34801612,135770978,6,326.25,0,0,0,2,0,0,2,t-0.71 Leftk cn,34.801612,135.770978
2,10.51,34801612,135770978,6,326.25,0,0,0,2,0,0,2,t-0.71 Leftk cn,34.801612,135.770978
2,10.52,34801612,135770978,6,315,0,0,0,2,0,0,2,t-0.71 Leftk cn,34.801612,135.770978
2,10.53,34801612,135770978,6,326.25,0,0,0,2,0,0,2,t-0.56 Leftk cn,34.801612,135.770978
2,10.54,34801612,135770978,6,337.5,0,0,0,2,0,0,2,t-0.66 Leftk cn,34.801612,135.770978
2,10.55,34801612,135770978,6,337.5,0,0,0,2,0,0,2,t-0.69 Leftk cn,34.801612,135.770978
2,10.56,34801612,135770978,6,337.5,0,0,0,2,0,0,2,t-0.71 Leftk cn,34.801612,135.770978
2,10.57,34801612,135770978,6,337.5,0,0,0,2,0,0,2,t-0.71 Leftk cn,34.801612,135.770978
2,10.58,34801612,135770978,6,337.5,0,0,0,2,0,0,2,t-0.71 Leftk cn,34.801612,135.770978
2,10.59,34801612,135770978,6,337.5,0,0,0,2,0,0,2,t-0.72 Leftk cn,34.801612,135.770978
2,11,34801612,135770978,6,337.5,0,0,0,2,0,0,2,t-0.72 Leftk cn,34.801612,135.770978
2,11.1,34801612,135770978,6,315,0,0,0,2,0,0,2,t-0.72 Leftk cn,34.801612,135.770978
2,11.2,34801612,135770978,6,315,0,0,0,2,0,0,2,t-0.72 Leftk cn,34.801612,135.770978
2,11.3,34801612,135770978,6,315,0,0,0,2,0,0,2,t-0.72 Leftk cn,34.801612,135.770978
2,11.5,34801612,135770978,6,315,0,0,0,2,0,0,2,t-0.72 Leftk cn,34.801612,135.770978
2,11.6,34801612,135770978,6,315,0,0,0,2,0,0,2,t-0.72 Leftk cn,34.801612,135.770978
2,11.7,34801612,135770977,6,315,0,0,0,2,0,0,2,t-0.52 Leftk cn,34.801612,135.770977
2,11.8,34801612,135770977,6,326.25,0,0,0,2,0,0,2,t-0.67 Leftk cn,34.801612,135.770977
2,11.9,34801612,135770977,6,326.25,0,0,0,2,0,0,2,t-0.72 Leftk cn,34.801612,135.770977
2,11.1,34801612,135770977,6,326.25,0,0,0,2,0,0,2,t-0.73 Leftk cn,34.801612,135.770977
2,11.11,34801612,135770977,6,326.25,0,0,0,2,0,0,2,t-0.73 Leftk cn,34.801612,135.770977
2,11.12,34801612,135770977,6,326.25,0,0,0,2,0,0,2,t-0.73 Leftk cn,34.801612,135.770977
2,11.13,34801612,135770977,6,326.25,0,0,0,2,0,0,2,t-0.72 Leftk cn,34.801612,135.770977
2,11.14,34801612,135770977,6,326.25,0,0,0,2,0,0,2,t-0.73 Leftk cn,34.801612,135.770977
2,11.15,34801612,135770977,6,326.25,0,0,0,2,0,0,2,t-0.74 Leftk cn,34.801612,135.770977
2,11.16,34801612,135770977,6,326.25,0,0,0,2,0,0,2,t-0.74 Leftk cn,34.801612,135.770977
2,11.17,34801612,135770977,6,326.25,0,0,0,2,0,0,2,t-0.72 Leftk cn,34.801612,135.770977
2,11.18,34801612,135770977,6,337.5,0,0,0,2,0,0,2,t-0.91 Leftk cn,34.801612,135.770977
2,11.19,34801612,135770976,6,337.5,0,0,0,2,0,0,2,t-0.78 Leftk cn,34.801612,135.770976
2,11.2,34801612,135770976,6,337.5,0,0,0,2,0,0,2,t-0.74 Leftk cn,34.801612,135.770976
2,11.21,34801612,135770976,6,337.5,0,0,0,2,0,0,2,t-0.72 Leftk cn,34.801612,135.770976
2,11.22,34801612,135770976,6,337.5,0,0,0,2,0,0,2,t-0.72 Leftk cn,34.801612,135.770976
2,11.23,34801612,135770976,6,337.5,0,0,0,2,0,0,2,t-0.73 Leftk cn,34.801612,135.770976
2,11.24,34801612,135770976,6,337.5,0,0,0,2,0,0,2,t-0.73 Leftk cn,34.801612,135.770976
2,11.25,34801612,135770976,6,337.5,0,0,0,2,0,0,2,t-0.72 Leftk cn,34.801612,135.770976
2,11.26,34801613,135770976,6,337.5,0,0,0,2,0,0,2,t-0.72 Leftk cn,34.801613,135.770976
2,11.27,34801613,135770976,6,315,0,0,0,2,0,0,2,t-0.72 Leftk cn,34.801613,135.770976
2,11.28,34801613,135770976,6,315,0,0,0,2,0,0,2,t-0.72 Leftk cn,34.801613,135.770976
2,11.29,34801613,135770976,6,315,0,0,0,2,0,0,2,t-0.72 Leftk cn,34.801613,135.770976
2,11.31,34801613,135770976,6,315,0,0,0,2,0,0,2,t-0.72 Leftk cn,34.801613,135.770976
2,11.32,34801613,135770976,6,315,0,0,0,2,0,0,2,t-0.72 Leftk cn,34.801613,135.770976
2,11.33,34801613,135770976,6,315,0,0,0,2,0,0,2,t-0.72 Leftk cn,34.801613,135.770976
2,11.34,34801613,135770976,6,315,0,0,0,2,0,0,2,t-0.49 Leftk cn,34.801613,135.770976
2,11.35,34801613,135770976,6,315,0,0,0,2,0,0,2,t-0.64 Leftk cn,34.801613,135.770976
2,11.36,34801613,135770976,6,326.25,0,0,0,2,0,0,2,t-0.68 Leftk cn,34.801613,135.770976
2,11.37,34801613,135770976,6,326.25,0,0,0,2,0,0,2,t-0.69 Leftk cn,34.801613,135.770976
2,11.38,34801613,135770976,6,326.25,0,0,0,2,0,0,2,t-0.69 Leftk cn,34.801613,135.770976
2,11.39,34801614,135770976,6,326.25,0,0,0,2,0,0,2,t-0.68 Leftk cn,34.801614,135.770976
2,11.4,34801614,135770976,6,326.25,0,0,0,2,0,0,2,t-0.68 Leftk cn,34.801614,135.770976
2,11.41,34801614,135770976,6,326.25,0,0,0,2,0,0,2,t-0.68 Leftk cn,34.801614,135.770976
2,11.42,34801614,135770976,6,326.25,0,0,0,2,0,0,2,t-0.68 Leftk cn,34.801614,135.770976
2,11.43,34801614,135770976,6,315,0,0,0,2,0,0,2,t-0.56 Leftk cn,34.801614,135.770976
2,11.44,34801614,135770976,6,337.5,0,0,0,2,0,0,2,t-0.80 Leftk cn,34.801614,135.770976
2,11.45,34801614,135770976,6,337.5,0,0,0,2,0,0,2,t-0.70 Leftk cn,34.801614,135.770976
2,11.46,34801614,135770976,6,337.5,0,0,0,2,0,0,2,t-0.68 Leftk cn,34.801614,135.770976
2,11.47,34801614,135770976,6,337.5,0,0,0,2,0,0,2,t-0.67 Leftk cn,34.801614,135.770976
2,11.48,34801614,135770976,6,337.5,0,0,0,2,0,0,2,t-0.68 Leftk cn,34.801614,135.770976
2,11.49,34801614,135770976,6,337.5,0,0,0,2,0,0,2,t-0.66 Leftk cn,34.801614,135.770976
2,11.5,34801614,135770976,6,337.5,0,0,0,2,0,0,2,t-0.67 Leftk cn,34.801614,135.770976
2,11.51,34801614,135770976,6,337.5,0,0,0,2,0,0,2,t-0.67 Leftk cn,34.801614,135.770976
2,11.52,34801614,135770976,6,337.5,0,0,0,2,0,0,2,t-0.67 Leftk cn,34.801614,135.770976
2,11.53,34801614,135770976,6,315,0,0,0,2,0,0,2,t-0.67 Leftk cn,34.801614,135.770976
2,11.54,34801614,135770976,6,315,0,0,0,2,0,0,2,t-0.67 Leftk cn,34.801614,135.770976
2,11.55,34801614,135770976,6,315,0,0,0,2,0,0,2,t-0.67 Leftk cn,34.801614,135.770976
2,11.57,34801614,135770975,6,315,0,0,0,2,0,0,2,t-0.47 Leftk cn,34.801614,135.770975
2,11.58,34801614,135770975,6,315,0,0,0,2,0,0,2,t-0.62 Leftk cn,34.801614,135.770975
2,11.59,34801613,135770975,6,326.25,0,0,0,2,0,0,2,t-0.68 Leftk cn,34.801613,135.770975
2,12,34801613,135770975,6,326.25,0,0,0,2,0,0,2,t-0.70 Leftk cn,34.801613,135.770975
2,12.1,34801613,135770975,6,326.25,0,0,0,2,0,0,2,t-0.71 Leftk cn,34.801613,135.770975
2,12.2,34801613,135770975,6,326.25,0,0,0,2,0,0,2,t-0.71 Leftk cn,34.801613,135.770975
2,12.3,34801613,135770975,6,326.25,0,0,0,2,0,0,2,t-0.72 Leftk cn,34.801613,135.770975
2,12.4,34801613,135770975,6,326.25,0,0,0,2,0,0,2,t-0.71 Leftk cn,34.801613,135.770975
2,12.5,34801613,135770975,6,326.25,0,0,0,2,0,0,2,t-0.72 Leftk cn,34.801613,135.770975
2,12.6,34801613,135770975,6,326.25,0,0,0,2,0,0,2,t-0.72 Leftk cn,34.801613,135.770975
2,12.7,34801613,135770975,6,326.25,0,0,0,2,0,0,2,t-0.71 Leftk cn,34.801613,135.770975
2,12.8,34801613,135770975,6,326.25,0,0,0,2,0,0,2,t-0.71 Leftk cn,34.801613,135.770975
2,12.9,34801613,135770975,6,326.25,0,0,0,2,0,0,2,t-0.71 Leftk cn,34.801613,135.770975
2,12.1,34801613,135770975,6,337.5,0,0,0,2,0,0,2,t-0.89 Leftk cn,34.801613,135.770975
2,12.11,34801613,135770975,6,337.5,0,0,0,2,0,0,2,t-0.74 Leftk cn,34.801613,135.770975
2,12.12,34801613,135770974,6,337.5,0,0,0,2,0,0,2,t-0.72 Leftk cn,34.801613,135.770974
2,12.13,34801613,135770974,6,337.5,0,0,0,2,0,0,2,t-0.71 Leftk cn,34.801613,135.770974
2,12.14,34801613,135770974,6,337.5,0,0,0,2,0,0,2,t-0.70 Leftk cn,34.801613,135.770974
2,12.15,34801613,135770974,6,337.5,0,0,0,2,0,0,2,t-0.71 Leftk cn,34.801613,135.770974
2,12.16,34801613,135770974,6,337.5,0,0,0,2,0,0,2,t-0.71 Leftk cn,34.801613,135.770974
2,12.17,34801613,135770974,6,337.5,0,0,0,2,0,0,2,t-0.71 Leftk cn,34.801613,135.770974
