code,min.sec,lat,lon,dist,yaw,roll,pitch,yaw_to_goal,motor_left,motor_right,stack,seq,data,latitude,longitude
3,0.4,0,0,244,236.25,0,0,0,0,0,0,1,173.7 altNRdy,0,0
3,0.4,0,0,244,281.25,0,11.2,0,0,0,0,1,173.2 altNRdy,0,0
3,0.5,0,0,244,292.5,0,11.2,0,0,0,0,1,173.1 altNRdy,0,0
3,0.6,0,0,244,292.5,0,11.2,0,0,0,0,1,173.2 altNRdy,0,0
3,0.7,0,0,85,303.75,11.2,0,0,0,0,0,1,173.3 altNRdy,0,0
3,0.8,0,0,48,281.25,11.2,0,0,0,0,0,1,173.2 altNRdy,0,0
3,0.9,0,0,244,281.25,33.8,0,0,0,0,0,1,173.2 altNRdy,0,0
3,0.1,0,0,244,270,45,0,0,0,0,0,1,173.2 altNRdy,0,0
3,0.11,0,0,244,270,67.5,0,0,0,0,0,1,173.2 altNRdy,0,0
3,0.12,0,0,244,281.25,78.8,0,0,0,0,0,1,173.2 altNRdy,0,0
3,0.13,0,0,85,281.25,78.8,0,0,0,0,0,1,173.2 altNRdy,0,0
3,0.15,0,0,244,281.25,78.8,0,0,0,0,0,1,173.2 altNRdy,0,0
3,0.16,0,0,244,281.25,78.8,0,0,0,0,0,1,173.2 altNRdy,0,0
3,0.17,0,0,244,281.25,67.5,11.2,0,0,0,0,1,173.2 altNRdy,0,0
3,0.18,0,0,244,292.5,78.8,11.2,0,0,0,0,1,173.2 altNRdy,0,0
3,0.19,0,0,244,292.5,78.8,11.2,0,0,0,0,1,173.2 altNRdy,0,0
3,0.2,0,0,244,281.25,78.8,11.2,0,0,0,0,1,173.2 altNRdy,0,0
3,0.21,0,0,244,281.25,78.8,0,0,0,0,0,1,173.2 altNRdy,0,0
3,0.22,0,0,244,270,78.8,0,0,0,0,0,1,173.2 altNRdy,0,0
3,0.23,0,0,244,281.25,78.8,0,0,0,0,0,1,173.2 altNRdy,0,0
3,0.24,0,0,244,270,78.8,0,0,0,0,0,1,173.2 altNRdy,0,0
3,0.25,0,0,85,258.75,90,0,0,0,0,0,1,173.2 altNRdy,0,0
3,0.26,0,0,48,258.75,78.8,0,0,0,0,0,1,173.2 altNRdy,0,0
3,0.27,0,0,164,247.5,90,0,0,0,0,0,1,173.2 altNRdy,0,0
3,0.28,0,0,99,258.75,78.8,0,0,0,0,0,1,173.2 altNRdy,0,0
3,0.29,0,0,3,247.5,90,0,0,0,0,0,1,173.2 altNRdy,0,0
3,0.3,0,0,129,247.5,78.8,0,0,0,0,0,1,173.2 altNRdy,0,0
3,0.31,0,0,67,258.75,78.8,0,0,0,0,0,1,173.2 altNRdy,0,0
3,0.32,0,0,244,247.5,90,11.2,0,0,0,0,1,173.2 altNRdy,0,0
3,0.33,0,0,244,247.5,90,11.2,0,0,0,0,1,173.0 c5 Rise,0,0
3,0.34,0,0,244,247.5,101.2,22.5,0,0,0,0,1,173.0 c5 Rise,0,0
3,0.35,0,0,244,281.25,112.5,56.2,0,0,0,0,1,173.0 c5 Rise,0,0
3,0.36,0,0,85,270,112.5,56.2,0,0,0,0,1,173.0 c5 Rise,0,0
3,0.37,0,0,244,258.75,101.2,67.5,0,0,0,0,1,173.0 c5 Rise,0,0
3,0.38,0,0,85,247.5,90,67.5,0,0,0,0,1,173.0 c5 Rise,0,0
3,0.39,0,0,48,258.75,90,56.2,0,0,0,0,1,173.0 c5 Rise,0,0
3,0.41,0,0,244,236.25,78.8,56.2,0,0,0,0,1,173.0 c5 Rise,0,0
3,0.42,0,0,244,225,56.2,33.8,0,0,0,0,1,173.0 c5 Rise,0,0
3,0.43,0,0,244,315,33.8,22.5,0,0,0,0,1,173.0 c5 Rise,0,0
3,0.44,0,0,244,0,33.8,11.2,0,0,0,0,1,173.0 c5 Rise,0,0
3,0.45,0,0,244,326.25,45,11.2,0,0,0,0,1,173.0 c5 Rise,0,0
3,0.46,0,0,244,292.5,33.8,22.5,0,0,0,0,1,173.0 c5 Rise,0,0
3,0.47,0,0,244,292.5,33.8,33.8,0,0,0,0,1,173.0 c5 Rise,0,0
3,0.48,0,0,244,326.25,67.5,45,0,0,0,0,1,173.0 c5 Rise,0,0
3,0.49,0,0,244,303.75,56.2,33.8,0,0,0,0,1,173.0 c5 Rise,0,0
3,0.5,0,0,244,303.75,33.8,22.5,0,0,0,0,1,173.0 c5 Rise,0,0
3,0.51,0,0,244,326.25,33.8,11.2,0,0,0,0,1,173.0 c5 Rise,0,0
3,0.52,0,0,244,348.75,33.8,33.8,0,0,0,0,1,173.0 c5 Rise,0,0
3,0.53,0,0,85,0,33.8,0,0,0,0,0,1,173.0 c5 Rise,0,0
3,0.54,0,0,48,11.25,33.8,0,0,0,0,0,1,173.0 c5 Rise,0,0
3,0.55,0,0,164,22.5,22.5,0,0,0,0,0,1,173.0 c5 Rise,0,0
3,0.56,0,0,244,0,22.5,33.8,0,0,0,0,1,173.0 c5 Rise,0,0
3,0.57,0,0,85,348.75,33.8,45,0,0,0,0,1,173.0 c5 Rise,0,0
3,0.58,0,0,48,0,45,45,0,0,0,0,1,173.0 c5 Rise,0,0
3,0.59,0,0,244,0,33.8,33.8,0,0,0,0,1,173.0 c5 Rise,0,0
3,1,0,0,244,0,45,45,0,0,0,0,1,173.0 c5 Rise,0,0
3,1.1,0,0,244,11.25,11.2,33.8,0,0,0,0,1,173.0 c5 Rise,0,0
3,1.2,0,0,85,348.75,33.8,56.2,0,0,0,0,1,173.0 c5 Rise,0,0
3,1.3,0,0,244,315,22.5,56.2,0,0,0,0,1,173.0 c5 Rise,0,0
3,1.4,0,0,85,11.25,11.2,22.5,0,0,0,0,1,173.0 c5 Rise,0,0
3,1.5,0,0,48,11.25,11.2,0,0,0,0,0,1,173.0 c5 Rise,0,0
3,1.7,0,0,244,11.25,11.2,0,0,0,0,0,1,173.0 c5 Rise,0,0
3,1.8,0,0,85,11.25,22.5,0,0,0,0,0,1,173.0 c5 Rise,0,0
3,1.9,0,0,244,11.25,22.5,0,0,0,0,0,1,173.0 c5 Rise,0,0
3,1.1,0,0,244,11.25,11.2,0,0,0,0,0,1,173.0 c5 Rise,0,0
3,1.11,0,0,85,11.25,22.5,0,0,0,0,0,1,173.0 c5 Rise,0,0
3,1.12,0,0,48,11.25,11.2,0,0,0,0,0,1,173.0 c5 Rise,0,0
3,1.13,0,0,244,11.25,0,0,0,0,0,0,1,173.0 c5 Rise,0,0
3,1.14,0,0,244,11.25,0,0,0,0,0,0,1,173.0 c5 Rise,0,0
3,1.15,0,0,244,11.25,0,0,0,0,0,0,1,173.0 c5 Rise,0,0
3,1.16,0,0,244,11.25,11.2,0,0,0,0,0,1,173.0 c5 Rise,0,0
3,1.17,0,0,244,22.5,11.2,0,0,0,0,0,1,173.0 c5 Rise,0,0
3,1.18,0,0,85,11.25,11.2,0,0,0,0,0,1,173.0 c5 Rise,0,0
3,1.19,0,0,48,22.5,11.2,0,0,0,0,0,1,173.0 c5 Rise,0,0
3,1.2,0,0,164,22.5,0,0,0,0,0,0,1,173.0 c5 Rise,0,0
3,1.21,0,0,99,33.75,0,0,0,0,0,0,1,173.0 c5 Rise,0,0
3,1.22,0,0,244,22.5,0,0,0,0,0,0,1,173.0 c5 Rise,0,0
3,1.23,0,0,244,0,33.8,0,0,0,0,0,1,173.0 c5 Rise,0,0
3,1.24,0,0,244,11.25,11.2,0,0,0,0,0,1,173.0 c5 Rise,0,0
3,1.25,0,0,244,22.5,11.2,0,0,0,0,0,1,173.0 c5 Rise,0,0
3,1.26,0,0,85,33.75,11.2,0,0,0,0,0,1,173.0 c5 Rise,0,0
3,1.27,34801305,135770931,34,33.75,11.2,0,0,0,0,0,1,173.0 c5 Rise,34.801305,135.770931
3,1.28,34801303,135770929,34,45,11.2,0,0,0,0,0,1,173.0 c5 Rise,34.801303,135.770929
3,1.29,34801307,135770925,34,33.75,11.2,0,0,0,0,0,1,173.0 c5 Rise,34.801307,135.770925
3,1.3,34801312,135770925,33,33.75,22.5,0,0,0,0,0,1,173.0 c5 Rise,34.801312,135.770925
3,1.31,34801312,135770925,32,11.25,22.5,0,0,0,0,0,1,173.0 c5 Rise,34.801312,135.770925
3,1.33,34801312,135770925,31,303.75,78.8,0,0,0,0,0,1,173.0 c5 Rise,34.801312,135.770925
3,1.34,34801312,135770925,30,281.25,123.8,0,0,0,0,0,1,173.0 c5 Rise,34.801312,135.770925
3,1.35,34801293,135770914,35,281.25,123.8,0,0,0,0,0,1,173.0 c5 Rise,34.801293,135.770914
3,1.36,34801281,135770914,37,292.5,123.8,0,0,0,0,0,1,173.0 c5 Rise,34.801281,135.770914
3,1.37,34801271,135770912,38,303.75,123.8,0,0,0,0,0,1,173.0 c5 Rise,34.801271,135.770912
3,1.38,34801268,135770916,38,303.75,123.8,0,0,0,0,0,1,173.0 c5 Rise,34.801268,135.770916
3,1.39,34801267,135770920,38,270,135,0,0,0,0,0,1,173.0 c5 Rise,34.801267,135.77092
3,1.4,34801266,135770921,38,281.25,135,0,0,0,0,0,1,173.0 c5 Rise,34.801266,135.770921
3,1.41,34801266,135770921,38,292.5,135,0,0,0,0,0,1,173.0 c5 Rise,34.801266,135.770921
3,1.42,34801270,135770924,37,292.5,135,0,0,0,0,0,1,173.0 c5 Rise,34.80127,135.770924
3,1.43,34801272,135770923,37,303.75,146.2,0,0,0,0,0,1,173.0 c5 Rise,34.801272,135.770923
3,1.44,34801274,135770923,37,270,135,11.2,0,0,0,0,1,173.0 c5 Rise,34.801274,135.770923
3,1.45,34801275,135770923,37,270,135,22.5,0,0,0,0,1,173.0 c5 Rise,34.801275,135.770923
3,1.46,34801276,135770922,37,281.25,135,33.8,0,0,0,0,1,173.0 c5 Rise,34.801276,135.770922
3,1.47,34801276,135770922,36,281.25,146.2,45,0,0,0,0,1,173.0 c5 Rise,34.801276,135.770922
3,1.48,34801280,135770921,36,270,123.8,56.2,0,0,0,0,1,173.0 c5 Rise,34.80128,135.770921
3,1.49,34801282,135770920,36,258.75,90,56.2,0,0,0,0,1,173.0 c5 Rise,34.801282,135.77092
3,1.5,34801285,135770918,36,258.75,67.5,56.2,0,0,0,0,1,173.0 c5 Rise,34.801285,135.770918
3,1.51,34801285,135770918,35,236.25,67.5,45,0,0,0,0,1,173.0 c5 Rise,34.801285,135.770918
3,1.52,34801285,135770918,34,270,67.5,33.8,0,0,0,0,1,173.0 c5 Rise,34.801285,135.770918
3,1.53,34801294,135770913,35,315,56.2,0,0,0,0,0,1,173.0 c5 Rise,34.801294,135.770913
3,1.54,34801299,135770911,35,303.75,33.8,0,0,0,0,0,1,173.0 c5 Rise,34.801299,135.770911
3,1.55,34801311,135770910,34,303.75,11.2,11.2,0,0,0,0,1,173.0 c5 Rise,34.801311,135.77091
3,1.56,34801316,135770908,33,303.75,11.2,22.5,0,0,0,0,1,173.0 c5 Rise,34.801316,135.770908
3,1.57,34801314,135770903,34,303.75,0,33.8,0,0,0,0,1,173.0 c5 Rise,34.801314,135.770903
3,1.59,34801314,135770903,33,292.5,0,33.8,0,0,0,0,1,173.0 c5 Rise,34.801314,135.770903
3,2,34801314,135770903,31,292.5,0,33.8,0,0,0,0,1,173.0 c5 Rise,34.801314,135.770903
3,2.1,34801328,135770898,32,292.5,0,33.8,0,0,0,0,1,173.0 c5 Rise,34.801328,135.770898
3,0.4,0,0,244,303.75,0,0,0,0,0,0,1,170.6 altNRdy,0,0
3,0.5,0,0,244,337.5,0,0,0,0,0,0,1,170.6 altNRdy,0,0
3,0.6,0,0,244,337.5,0,0,0,0,0,0,1,170.7 altNRdy,0,0
3,0.7,0,0,244,337.5,0,0,0,0,0,0,1,170.7 altNRdy,0,0
3,0.8,0,0,244,337.5,0,0,0,0,0,0,1,170.7 altNRdy,0,0
3,0.9,0,0,244,337.5,0,0,0,0,0,0,1,170.7 altNRdy,0,0
3,0.1,0,0,244,337.5,0,0,0,0,0,0,1,170.7 altNRdy,0,0
3,0.11,0,0,244,337.5,0,0,0,0,0,0,1,170.7 altNRdy,0,0
3,0.12,0,0,244,337.5,0,0,0,0,0,0,1,170.7 altNRdy,0,0
3,0.13,34801521,135770910,15,337.5,0,0,0,0,0,0,1,170.7 altNRdy,34.801521,135.77091
3,0.15,34801521,135770910,14,326.25,0,0,0,0,0,0,1,170.7 altNRdy,34.801521,135.77091
3,0.16,34801521,135770910,14,303.75,0,0,0,0,0,0,1,170.7 altNRdy,34.801521,135.77091
3,0.17,34801521,135770910,14,315,11.2,0,0,0,0,0,1,170.7 altNRdy,34.801521,135.77091
3,0.18,34801516,135770895,16,22.5,0,0,0,0,0,0,1,170.7 altNRdy,34.801516,135.770895
3,0.19,34801516,135770895,16,45,0,0,0,0,0,0,1,170.7 altNRdy,34.801516,135.770895
3,0.2,34801516,135770895,16,67.5,0,22.5,0,0,0,0,1,172.6 c5 Rise,34.801516,135.770895
3,0.21,34801516,135770895,16,78.75,0,22.5,0,0,0,0,1,172.6 c5 Rise,34.801516,135.770895
3,0.22,34801516,135770895,16,67.5,0,22.5,0,0,0,0,1,172.6 c5 Rise,34.801516,135.770895
3,0.23,34801473,135770834,23,45,0,0,0,0,0,0,1,172.6 c5 Rise,34.801473,135.770834
3,0.24,34801471,135770828,24,348.75,0,0,0,0,0,0,1,171.2 c5 Fall,34.801471,135.770828
3,0.25,34801476,135770826,24,303.75,22.5,0,0,0,0,0,1,171.2 c5 Fall,34.801476,135.770826
3,0.26,34801476,135770823,24,326.25,11.2,0,0,0,0,0,1,171.2 c5 Fall,34.801476,135.770823
3,0.27,34801476,135770823,24,326.25,0,0,0,0,0,0,1,171.2 c5 Fall,34.801476,135.770823
3,0.28,34801476,135770823,24,326.25,0,0,0,0,0,0,1,171.2 c5 Fall,34.801476,135.770823
3,0.29,34801476,135770823,23,326.25,0,0,0,0,0,0,6,NC 0 Heata -0 L,34.801476,135.770823
3,0.3,34801490,135770821,23,348.75,0,0,0,0,0,0,6,NC 2 Heata -0 L,34.80149,135.770821
3,0.31,34801490,135770823,23,11.25,0,0,0,0,0,0,6,NC 4 Heata -0 L,34.80149,135.770823
3,0.32,34801490,135770820,24,348.75,0,0,0,0,0,0,6,NC 6 Heata -0 L,34.80149,135.77082
3,0.33,34801490,135770819,23,315,0,0,0,2,0,0,2,t-1.31 Left-0 L,34.80149,135.770819
3,0.34,34801490,135770819,23,315,0,0,0,2,0,0,2,t-1.31 Left-0 L,34.80149,135.770819
3,0.35,34801490,135770819,23,315,0,0,0,2,0,0,2,t-1.31 Left-0 L,34.80149,135.770819
3,0.36,34801485,135770810,24,315,0,0,0,2,0,0,2,t-1.33 Left-0 L,34.801485,135.77081
3,0.37,34801485,135770810,24,315,11.2,0,0,2,0,0,2,t-1.33 Left-0 L,34.801485,135.77081
3,0.38,34801484,135770809,25,315,11.2,0,0,2,0,0,2,t-1.26 Left-0 L,34.801484,135.770809
3,0.39,34801484,135770809,24,315,0,0,0,2,0,0,2,t-1.26 Left-0 L,34.801484,135.770809
3,0.41,34801484,135770810,24,326.25,0,0,0,2,0,0,2,t-1.41 Left-0 L,34.801484,135.77081
3,0.42,34801484,135770810,24,348.75,0,0,0,2,0,0,2,t-1.41 Left-0 L,34.801484,135.77081
3,0.43,34801484,135770810,24,0,0,0,0,2,0,0,2,t-1.41 Left-0 L,34.801484,135.77081
3,0.44,34801485,135770812,24,0,0,0,0,2,0,0,2,t-2.01 Left-0 L,34.801485,135.770812
3,0.45,34801485,135770812,24,0,0,0,0,2,0,0,2,t-2.01 Left-0 L,34.801485,135.770812
3,0.46,34801486,135770813,24,0,11.2,0,0,2,0,0,2,t-2.06 Left-0 L,34.801486,135.770813
3,0.47,34801486,135770813,24,11.25,0,0,0,2,0,0,2,t-2.06 Left-0 L,34.801486,135.770813
3,0.48,34801486,135770814,24,348.75,11.2,0,0,2,0,0,2,t-2.16 Left-0 L,34.801486,135.770814
3,0.49,34801486,135770814,24,326.25,0,0,0,2,0,0,2,t-2.16 Left-0 L,34.801486,135.770814
3,0.5,34801486,135770814,24,326.25,0,0,0,2,0,0,2,t-2.16 Left-0 L,34.801486,135.770814
3,0.51,34801486,135770814,24,326.25,0,0,0,2,0,0,2,t-2.16 Left-0 L,34.801486,135.770814
3,0.52,34801487,135770817,24,315,0,0,0,2,0,0,2,t-1.43 Left-0 L,34.801487,135.770817
3,0.53,34801487,135770817,24,315,0,0,0,2,0,0,2,t-1.43 Left-0 L,34.801487,135.770817
3,0.54,34801487,135770817,23,315,0,0,0,2,0,0,2,t-1.43 Left-0 L,34.801487,135.770817
3,0.55,34801487,135770817,23,315,0,0,0,2,0,0,2,t-1.43 Left-0 L,34.801487,135.770817
3,0.56,34801487,135770817,23,315,0,0,0,2,0,0,2,t-1.43 Left-0 L,34.801487,135.770817
3,0.57,34801504,135770846,21,303.75,0,0,0,2,0,0,2,t-1.34 Left-0 L,34.801504,135.770846
3,0.58,34801504,135770846,20,326.25,0,0,0,2,0,0,2,t-1.34 Left-0 L,34.801504,135.770846
3,0.59,34801504,135770846,20,326.25,0,0,0,2,0,0,2,t-1.34 Left-0 L,34.801504,135.770846
3,1,34801504,135770846,20,326.25,0,0,0,2,0,0,2,t-1.34 Left-0 L,34.801504,135.770846
3,1.1,34801545,135770898,14,326.25,0,0,0,2,0,0,2,t-1.34 Left-0 L,34.801545,135.770898
3,1.2,34801545,135770898,14,326.25,0,0,0,2,0,0,2,t-1.34 Left-0 L,34.801545,135.770898
3,1.3,34801545,135770898,14,326.25,0,0,0,2,0,0,2,t-1.34 Left-0 L,34.801545,135.770898
3,1.4,34801545,135770898,14,326.25,0,0,0,2,0,0,2,t-1.34 Left-0 L,34.801545,135.770898
3,1.5,34801575,135770938,10,326.25,0,0,0,2,0,0,2,t-1.16 Left-0 L,34.801575,135.770938
3,1.7,34801582,135770947,9,326.25,0,0,0,2,0,0,2,t-1.06 Left-0 L,34.801582,135.770947
3,1.8,34801582,135770947,9,315,0,0,0,2,0,0,2,t-1.06 Left-0 L,34.801582,135.770947
3,1.9,34801597,135770965,7,315,0,0,0,2,0,0,2,t-0.78 Left-0 L,34.801597,135.770965
3,1.1,34801597,135770965,7,315,0,0,0,2,0,0,2,t-0.78 Left-0 L,34.801597,135.770965
3,1.11,34801597,135770965,7,303.75,0,11.2,0,2,0,0,2,t-0.78 Left-0 L,34.801597,135.770965
3,1.12,34801597,135770965,7,303.75,0,11.2,0,2,0,0,2,t-0.78 Left-0 L,34.801597,135.770965
3,1.13,34801597,135770965,7,303.75,0,11.2,0,2,0,0,2,t-0.78 Left-0 L,34.801597,135.770965
3,1.14,34801597,135770965,7,303.75,0,11.2,0,2,0,0,2,t-0.78 Left-0 L,34.801597,135.770965
3,1.15,34801597,135770965,7,303.75,0,11.2,0,2,0,0,2,t-0.78 Left-0 L,34.801597,135.770965
3,1.16,34801597,135770965,7,303.75,0,11.2,0,2,0,0,2,t-0.78 Left-0 L,34.801597,135.770965
3,1.17,34801597,135770965,7,303.75,0,11.2,0,2,0,0,2,t-0.78 Left-0 L,34.801597,135.770965
3,1.18,34801617,135770984,6,303.75,0,0,0,0,0,0,2,t-0.34 ForwardL,34.801617,135.770984
3,1.19,34801617,135770984,6,303.75,0,0,0,0,0,0,2,t-0.34 ForwardL,34.801617,135.770984
3,1.2,34801617,135770984,5,303.75,0,0,0,0,0,0,2,t-0.34 ForwardL,34.801617,135.770984
3,1.21,34801618,135770984,6,281.25,11.2,0,0,0,0,0,2,t-0.21 ForwardL,34.801618,135.770984
3,1.22,34801618,135770984,6,292.5,0,0,0,0,0,0,2,t-0.21 ForwardL,34.801618,135.770984
3,1.23,34801618,135770984,6,292.5,0,0,0,0,0,0,2,t-0.21 ForwardL,34.801618,135.770984
3,1.24,34801618,135770985,6,270,0,0,0,0,0,0,2,t0.01 ForwardL,34.801618,135.770985
3,1.25,34801618,135770985,6,281.25,0,0,0,0,0,0,2,t0.01 ForwardL,34.801618,135.770985
3,1.26,34801618,135770985,5,292.5,0,0,0,0,0,0,2,t0.01 ForwardL,34.801618,135.770985
3,1.27,34801617,135770985,6,281.25,0,0,0,0,0,0,2,t0.00 ForwardL,34.801617,135.770985
3,1.28,34801617,135770985,6,281.25,0,0,0,0,0,0,2,t0.00 ForwardL,34.801617,135.770985
3,1.29,34801617,135770986,6,258.75,0,0,0,0,0,0,2,t0.08 ForwardL,34.801617,135.770986
3,1.3,34801617,135770986,5,292.5,0,0,0,0,0,0,2,t0.08 ForwardL,34.801617,135.770986
3,1.31,34801617,135770986,5,292.5,0,0,0,0,0,0,2,t0.08 ForwardL,34.801617,135.770986
3,1.33,34801617,135770986,5,292.5,0,0,0,0,0,0,2,t0.08 ForwardL,34.801617,135.770986
3,1.34,34801617,135770986,5,292.5,0,0,0,0,0,0,2,t0.08 ForwardL,34.801617,135.770986
3,1.35,34801616,135770987,5,281.25,0,0,0,0,0,0,2,t-0.10 ForwardL,34.801616,135.770987
3,1.36,34801616,135770987,5,292.5,0,0,0,0,0,0,2,t-0.10 ForwardL,34.801616,135.770987
3,1.37,34801616,135770987,5,292.5,0,0,0,0,0,0,2,t-0.10 ForwardL,34.801616,135.770987
3,1.38,34801616,135770987,5,292.5,0,0,0,0,0,0,2,t-0.10 ForwardL,34.801616,135.770987
3,1.39,34801616,135770987,5,292.5,0,0,0,0,0,0,2,t-0.10 ForwardL,34.801616,135.770987
3,1.4,34801603,135770984,5,270,0,0,0,0,0,0,2,t-0.37 ForwardL,34.801603,135.770984
3,1.41,34801603,135770984,5,303.75,0,0,0,0,0,0,2,t-0.37 ForwardL,34.801603,135.770984
3,1.42,34801612,135770983,6,303.75,0,0,0,2,0,0,2,t-0.46 LeftrdL,34.801612,135.770983
3,1.43,34801612,135770983,6,315,0,0,0,2,0,0,2,t-0.46 LeftrdL,34.801612,135.770983
3,1.44,34801612,135770983,5,315,0,0,0,2,0,0,2,t-0.46 LeftrdL,34.801612,135.770983
3,1.45,34801618,135770973,7,303.75,0,0,0,2,0,0,2,t-0.47 LeftrdL,34.801618,135.770973
3,1.46,34801618,135770974,7,303.75,0,0,0,2,0,0,2,t-0.43 LeftrdL,34.801618,135.770974
3,1.47,34801618,135770974,6,315,0,0,0,2,0,0,2,t-0.43 LeftrdL,34.801618,135.770974
3,1.48,34801618,135770974,6,315,0,0,0,2,0,0,2,t-0.43 LeftrdL,34.801618,135.770974
3,1.49,34801618,135770974,6,315,0,0,0,2,0,0,2,t-0.43 LeftrdL,34.801618,135.770974
3,1.5,34801620,135770981,6,292.5,0,0,0,2,0,0,2,t-0.41 LeftrdL,34.80162,135.770981
3,1.51,34801620,135770983,6,303.75,0,0,0,0,0,0,2,t-0.29 ForwardL,34.80162,135.770983
3,1.52,34801620,135770983,6,315,0,0,0,0,0,0,2,t-0.29 ForwardL,34.80162,135.770983
3,1.53,34801620,135770983,6,315,0,0,0,0,0,0,2,t-0.29 ForwardL,34.80162,135.770983
3,1.54,34801620,135770983,6,315,0,0,0,0,0,0,2,t-0.29 ForwardL,34.80162,135.770983
3,1.55,34801621,135770987,6,303.75,0,0,0,0,0,0,2,t-0.35 ForwardL,34.801621,135.770987
3,1.56,34801621,135770988,6,292.5,0,0,0,0,0,0,2,t-0.30 ForwardL,34.801621,135.770988
3,1.57,34801621,135770988,5,315,0,0,0,0,0,0,2,t-0.30 ForwardL,34.801621,135.770988
3,1.59,34801621,135770988,5,315,0,0,0,0,0,0,2,t-0.30 ForwardL,34.801621,135.770988
3,2,34801621,135770988,5,315,0,0,0,0,0,0,2,t-0.30 ForwardL,34.801621,135.770988
3,2.1,34801621,135770988,5,315,0,0,0,0,0,0,2,t-0.30 ForwardL,34.801621,135.770988
3,2.2,34801622,135770988,6,303.75,0,0,0,0,0,0,2,t-0.34 ForwardL,34.801622,135.770988
3,2.3,34801622,135770988,5,303.75,0,0,0,0,0,0,2,t-0.34 ForwardL,34.801622,135.770988
3,2.4,34801622,135770988,5,303.75,0,0,0,0,0,0,2,t-0.34 ForwardL,34.801622,135.770988
3,2.5,34801622,135770988,5,303.75,0,0,0,0,0,0,2,t-0.34 ForwardL,34.801622,135.770988
3,2.6,34801622,135770988,5,303.75,0,0,0,0,0,0,2,t-0.34 ForwardL,34.801622,135.770988
3,2.7,34801622,135770988,5,315,0,0,0,0,0,0,2,t-0.34 ForwardL,34.801622,135.770988
3,2.8,34801622,135770988,5,303.75,0,0,0,0,0,0,2,t-0.34 ForwardL,34.801622,135.770988
3,2.9,34801623,135770988,6,292.5,0,0,0,0,0,0,2,t-0.28 ForwardL,34.801623,135.770988
3,2.1,34801623,135770988,5,303.75,0,0,0,0,0,0,2,t-0.28 ForwardL,34.801623,135.770988
3,2.11,34801623,135770988,5,303.75,0,0,0,0,0,0,2,t-0.28 ForwardL,34.801623,135.770988
3,2.12,34801623,135770988,5,315,0,0,0,0,0,0,2,t-0.28 ForwardL,34.801623,135.770988
3,2.13,34801624,135770988,6,303.75,0,0,0,0,0,0,2,t-0.27 ForwardL,34.801624,135.770988
3,2.14,34801624,135770988,5,303.75,0,0,0,0,0,0,2,t-0.27 ForwardL,34.801624,135.770988
3,2.15,34801624,135770988,5,315,0,0,0,0,0,0,2,t-0.27 ForwardL,34.801624,135.770988
3,2.16,34801625,135770988,6,292.5,0,0,0,0,0,0,2,t-0.26 ForwardL,34.801625,135.770988
3,2.17,34801625,135770988,5,315,0,0,0,0,0,0,2,t-0.26 ForwardL,34.801625,135.770988
3,2.18,34801625,135770989,6,292.5,0,0,0,0,0,0,2,t-0.27 ForwardL,34.801625,135.770989
3,2.19,34801625,135770989,5,303.75,0,0,0,0,0,0,2,t-0.27 ForwardL,34.801625,135.770989
3,2.2,34801625,135770989,5,303.75,0,0,0,0,0,0,2,t-0.27 ForwardL,34.801625,135.770989
3,2.21,34801625,135770989,5,303.75,0,0,0,0,0,0,2,t-0.27 ForwardL,34.801625,135.770989
3,2.22,34801625,135770989,5,303.75,0,0,0,0,0,0,2,t-0.27 ForwardL,34.801625,135.770989
3,2.23,34801631,135770997,5,292.5,0,0,0,0,0,0,2,t-0.09 ForwardL,34.801631,135.770997
3,2.25,34801631,135770997,5,303.75,0,0,0,0,0,0,2,t-0.09 ForwardL,34.801631,135.770997
3,2.26,34801632,135770997,5,292.5,0,0,0,0,0,0,2,t-0.07 ForwardL,34.801632,135.770997
3,2.27,34801632,135770997,5,303.75,0,0,0,0,0,0,2,t-0.07 ForwardL,34.801632,135.770997
3,2.28,34801632,135770997,5,303.75,0,0,0,0,0,0,2,t-0.07 ForwardL,34.801632,135.770997
3,2.29,34801632,135770996,5,292.5,0,0,0,0,0,0,2,t-0.10 ForwardL,34.801632,135.770996
3,2.3,34801632,135770996,5,303.75,0,0,0,0,0,0,2,t-0.10 ForwardL,34.801632,135.770996
3,2.31,34801632,135770996,5,303.75,0,0,0,0,0,0,2,t-0.10 ForwardL,34.801632,135.770996
3,2.32,34801632,135770996,5,303.75,0,0,0,0,0,0,2,t-0.10 ForwardL,34.801632,135.770996
3,2.33,34801632,135770995,5,292.5,0,0,0,0,0,0,2,t-0.10 ForwardL,34.801632,135.770995
3,2.34,34801632,135770995,5,303.75,0,0,0,0,0,0,2,t-0.10 ForwardL,34.801632,135.770995
3,2.35,34801631,135770994,5,292.5,0,0,0,0,0,0,2,t-0.09 ForwardL,34.801631,135.770994
3,2.36,34801631,135770994,5,303.75,0,0,0,0,0,0,2,t-0.09 ForwardL,34.801631,135.770994
3,2.37,34801631,135770993,5,292.5,0,0,0,0,0,0,2,t-0.08 ForwardL,34.801631,135.770993
3,2.38,34801631,135770993,5,303.75,11.2,0,0,0,0,0,2,t-0.08 ForwardL,34.801631,135.770993
3,2.39,34801631,135770993,5,303.75,11.2,0,0,0,0,0,2,t-0.08 ForwardL,34.801631,135.770993
3,2.4,34801631,135770993,5,303.75,11.2,0,0,0,0,0,2,t-0.08 ForwardL,34.801631,135.770993
3,2.41,34801631,135770993,5,303.75,11.2,0,0,0,0,0,2,t-0.08 ForwardL,34.801631,135.770993
3,2.42,34801631,135770993,5,303.75,11.2,0,0,0,0,0,2,t-0.08 ForwardL,34.801631,135.770993
3,2.43,34801631,135770993,5,303.75,11.2,0,0,0,0,0,2,t-0.08 ForwardL,34.801631,135.770993
3,2.44,34801631,135770993,5,303.75,11.2,0,0,0,0,0,2,t-0.08 ForwardL,34.801631,135.770993
3,2.45,34801631,135770993,4,303.75,11.2,0,0,0,0,0,2,t-0.08 ForwardL,34.801631,135.770993
3,2.46,34801631,135770993,4,303.75,11.2,0,0,0,0,0,2,t-0.08 ForwardL,34.801631,135.770993
3,2.47,34801631,135770993,4,303.75,11.2,0,0,0,0,0,2,t-0.08 ForwardL,34.801631,135.770993
3,2.48,34801631,135770993,5,303.75,11.2,0,0,0,0,0,2,t-0.08 ForwardL,34.801631,135.770993
3,2.49,34801627,135770990,6,303.75,11.2,0,0,0,0,0,2,t-0.18 ForwardL,34.801627,135.77099
3,2.51,34801627,135770990,6,292.5,11.2,0,0,0,0,0,2,t0.05 ForwardL,34.801627,135.77099
3,2.52,34801627,135770990,5,292.5,0,0,0,0,0,0,2,t0.05 ForwardL,34.801627,135.77099
3,2.53,34801627,135770990,6,292.5,0,0,0,0,0,0,2,t0.02 ForwardL,34.801627,135.77099
3,2.54,34801627,135770990,5,292.5,0,0,0,0,0,0,2,t0.02 ForwardL,34.801627,135.77099
3,2.55,34801627,135770990,5,292.5,0,0,0,0,0,0,2,t0.02 ForwardL,34.801627,135.77099
3,2.56,34801627,135770990,6,292.5,0,0,0,0,0,0,2,t0.08 ForwardL,34.801627,135.77099
3,2.57,34801627,135770990,5,292.5,0,0,0,0,0,0,2,t0.08 ForwardL,34.801627,135.77099
3,2.58,34801627,135770990,5,303.75,0,0,0,0,0,0,2,t0.08 ForwardL,34.801627,135.77099
3,2.59,34801627,135770990,5,303.75,0,0,0,0,0,0,2,t0.08 ForwardL,34.801627,135.77099
3,3,34801627,135770990,5,303.75,0,0,0,0,0,0,2,t0.08 ForwardL,34.801627,135.77099
3,3.1,34801626,135770990,6,281.25,0,0,0,0,0,0,2,t-0.08 ForwardL,34.801626,135.77099
3,3.2,34801626,135770990,5,303.75,0,0,0,0,0,0,2,t-0.08 ForwardL,34.801626,135.77099
3,3.3,34801625,135770990,6,292.5,0,0,0,0,0,0,2,t-0.16 ForwardL,34.801625,135.77099
3,3.4,34801625,135770990,5,303.75,0,0,0,0,0,0,2,t-0.16 ForwardL,34.801625,135.77099
3,3.5,34801625,135770990,5,303.75,0,0,0,0,0,0,2,t-0.16 ForwardL,34.801625,135.77099
3,3.6,34801625,135770990,5,303.75,0,0,0,0,0,0,2,t-0.16 ForwardL,34.801625,135.77099
3,3.7,34801625,135770991,5,281.25,0,0,0,0,0,0,2,t-0.04 ForwardL,34.801625,135.770991
3,3.8,34801625,135770991,5,292.5,0,0,0,0,0,0,2,t-0.04 ForwardL,34.801625,135.770991
3,3.9,34801625,135770991,5,292.5,0,0,0,0,0,0,2,t-0.04 ForwardL,34.801625,135.770991
3,3.1,34801625,135770991,5,292.5,0,0,0,0,0,0,2,t-0.04 ForwardL,34.801625,135.770991
3,3.11,34801625,135770991,5,292.5,0,0,0,0,0,0,2,t-0.04 ForwardL,34.801625,135.770991
3,3.12,34801625,135770991,5,292.5,0,0,0,0,0,0,2,t-0.04 ForwardL,34.801625,135.770991
3,3.13,34801625,135770991,5,292.5,0,0,0,0,0,0,2,t-0.04 ForwardL,34.801625,135.770991
3,3.14,34801625,135770991,5,292.5,0,0,0,0,0,0,2,t-0.04 ForwardL,34.801625,135.770991
3,3.15,34801625,135770991,5,292.5,0,0,0,0,0,0,2,t-0.04 ForwardL,34.801625,135.770991
3,3.17,34801624,135770990,6,292.5,0,0,0,0,0,1,2,stack leftardL,34.801624,135.77099
3,3.18,34801624,135770990,6,292.5,0,0,0,0,0,1,2,stack rightrdL,34.801624,135.77099
3,3.19,34801624,135770990,5,315,0,0,0,0,0,1,2,stack rightrdL,34.801624,135.77099
3,3.2,34801624,135770990,6,315,0,0,0,0,0,1,2,stack leftrdL,34.801624,135.77099
3,3.21,34801624,135770990,5,303.75,0,11.2,0,0,0,1,2,stack leftrdL,34.801624,135.77099
3,3.22,34801624,135770990,6,303.75,0,11.2,0,0,0,1,2,stack rightrdL,34.801624,135.77099
3,3.23,34801624,135770990,6,281.25,0,56.2,0,0,0,1,2,stack leftrdL,34.801624,135.77099
3,3.24,34801624,135770990,6,270,0,56.2,0,0,0,1,2,stack rightrdL,34.801624,135.77099
3,3.25,34801624,135770990,5,101.25,0,90,0,0,0,1,2,stack rightrdL,34.801624,135.77099
3,3.26,34801624,135770990,5,67.5,0,78.8,0,0,0,1,2,stack rightrdL,34.801624,135.77099
3,3.27,34801624,135770990,5,67.5,0,78.8,0,0,0,1,2,stack rightrdL,34.801624,135.77099
3,3.28,34801624,135770990,5,67.5,0,78.8,0,0,0,1,2,stack rightrdL,34.801624,135.77099
3,3.29,34801623,135770990,6,67.5,0,78.8,0,0,0,1,2,stack rightrdL,34.801623,135.77099
3,3.3,34801623,135770990,5,67.5,0,78.8,0,0,0,1,2,stack rightrdL,34.801623,135.77099
3,3.31,34801623,135770990,6,67.5,0,78.8,0,0,0,1,2,stack rightrdL,34.801623,135.77099
3,3.32,34801623,135770990,6,45,168.8,90,0,0,0,1,2,stack leftrdL,34.801623,135.77099
3,3.33,34801623,135770990,5,45,157.5,78.8,0,0,0,1,2,stack leftrdL,34.801623,135.77099
3,3.34,34801623,135770990,6,337.5,135,78.8,0,0,0,1,2,stack rightrdL,34.801623,135.77099
3,3.35,34801623,135770990,6,33.75,168.8,56.2,0,0,0,1,2,stack leftrdL,34.801623,135.77099
3,3.36,34801623,135770990,5,45,168.8,56.2,0,0,0,1,2,stack leftrdL,34.801623,135.77099
3,3.37,34801623,135770990,5,56.25,168.8,56.2,0,0,0,1,2,stack leftrdL,34.801623,135.77099
3,3.38,34801623,135770990,5,56.25,168.8,56.2,0,0,0,1,2,stack leftrdL,34.801623,135.77099
3,3.39,34801623,135770990,5,56.25,168.8,56.2,0,0,0,1,2,stack leftrdL,34.801623,135.77099
3,3.4,34801623,135770990,5,56.25,168.8,56.2,0,0,0,1,2,stack leftrdL,34.801623,135.77099
3,3.41,34801623,135770990,5,56.25,168.8,56.2,0,0,0,1,2,stack leftrdL,34.801623,135.77099
3,3.43,34801623,135770990,5,56.25,168.8,56.2,0,0,0,1,2,stack leftrdL,34.801623,135.77099
3,3.44,34801622,135770991,5,56.25,168.8,56.2,0,2,0,0,2,t-2.13 Leftk cn,34.801622,135.770991
3,3.45,34801622,135770991,5,22.5,123.8,90,0,2,0,0,2,t-1.54 Leftk cn,34.801622,135.770991
3,3.46,34801622,135770991,5,303.75,0,56.2,0,2,0,0,2,t-1.54 Leftk cn,34.801622,135.770991
3,3.47,34801622,135770991,5,303.75,0,56.2,0,2,0,0,2,t-1.54 Leftk cn,34.801622,135.770991
3,3.48,34801622,135770991,5,303.75,0,56.2,0,2,0,0,2,t-1.54 Leftk cn,34.801622,135.770991
3,3.49,34801622,135770991,5,303.75,0,56.2,0,0,0,0,2,t-0.22 Forwardn,34.801622,135.770991
3,3.5,34801622,135770991,5,315,0,11.2,0,0,0,0,2,t-0.22 Forwardn,34.801622,135.770991
3,3.51,34801622,135770991,5,315,0,11.2,0,2,0,0,2,t-0.43 Leftk cn,34.801622,135.770991
3,3.52,34801622,135770991,5,315,0,0,0,2,0,0,2,t-0.43 Leftk cn,34.801622,135.770991
3,3.53,34801622,135770991,5,315,0,0,0,2,0,0,2,t-0.40 Leftk cn,34.801622,135.770991
3,3.54,34801622,135770991,5,315,11.2,0,0,2,0,0,2,t-0.40 Leftk cn,34.801622,135.770991
3,3.55,34801622,135770991,5,303.75,11.2,0,0,2,0,0,2,t-0.40 Leftk cn,34.801622,135.770991
3,3.56,34801622,135770991,5,292.5,0,0,0,0,0,0,2,t-0.24 Forwardn,34.801622,135.770991
3,3.57,34801622,135770991,5,303.75,0,0,0,0,0,0,2,t-0.24 Forwardn,34.801622,135.770991
3,3.58,34801622,135770991,5,303.75,0,0,0,0,0,0,2,t-0.24 Forwardn,34.801622,135.770991
3,3.59,34801622,135770991,5,303.75,0,0,0,0,0,0,2,t-0.24 Forwardn,34.801622,135.770991
3,4,34801622,135770991,5,303.75,0,0,0,0,0,0,2,t-0.24 Forwardn,34.801622,135.770991
3,4.1,34801623,135770991,5,292.5,0,0,0,0,0,0,2,t-0.24 Forwardn,34.801623,135.770991
3,4.2,34801623,135770991,5,303.75,0,0,0,0,0,0,2,t-0.24 Forwardn,34.801623,135.770991
3,4.3,34801623,135770991,5,303.75,0,0,0,0,0,0,2,t-0.24 Forwardn,34.801623,135.770991
3,4.4,34801622,135770992,5,281.25,0,0,0,0,0,0,2,t-0.13 Forwardn,34.801622,135.770992
3,4.5,34801622,135770992,5,303.75,0,0,0,0,0,0,2,t-0.13 Forwardn,34.801622,135.770992
3,4.6,34801622,135770992,5,303.75,0,0,0,0,0,0,2,t-0.13 Forwardn,34.801622,135.770992
3,4.7,34801622,135770992,5,303.75,0,0,0,0,0,0,2,t-0.13 Forwardn,34.801622,135.770992
3,4.9,34801622,135770992,5,303.75,0,0,0,0,0,0,2,t-0.13 Forwardn,34.801622,135.770992
3,4.1,34801622,135770992,5,303.75,0,0,0,0,0,0,2,t-0.13 Forwardn,34.801622,135.770992
3,4.11,34801623,135770992,5,303.75,0,0,0,0,0,0,2,t-0.22 Forwardn,34.801623,135.770992
3,4.12,34801623,135770993,5,303.75,0,0,0,0,0,0,2,t-0.15 Forwardn,34.801623,135.770993
3,4.13,34801623,135770993,5,303.75,0,0,0,0,0,0,2,t-0.21 Forwardn,34.801623,135.770993
3,4.14,34801623,135770993,5,315,0,0,0,0,0,0,2,t-0.21 Forwardn,34.801623,135.770993
3,4.15,34801623,135770993,5,315,0,0,0,0,0,0,2,t-0.21 Forwardn,34.801623,135.770993
3,4.16,34801623,135770993,5,315,0,0,0,0,0,0,2,t-0.21 Forwardn,34.801623,135.770993
3,4.17,34801623,135770993,5,315,0,0,0,0,0,0,2,t-0.21 Forwardn,34.801623,135.770993
3,4.18,34801623,135770994,5,315,0,0,0,0,0,0,2,t-0.39 Forwardn,34.801623,135.770994
3,4.19,34801623,135770994,5,315,0,0,0,0,0,0,2,t-0.39 Forwardn,34.801623,135.770994
3,4.2,34801623,135770994,5,326.25,0,0,0,0,0,0,2,t-0.39 Forwardn,34.801623,135.770994
3,4.21,34801623,135770994,5,326.25,0,0,0,0,0,0,2,t-0.39 Forwardn,34.801623,135.770994
3,4.22,34801623,135770994,5,326.25,0,0,0,0,0,0,2,t-0.39 Forwardn,34.801623,135.770994
3,4.23,34801623,135770994,5,315,0,0,0,2,0,0,2,t-0.53 Leftrdn,34.801623,135.770994
3,4.24,34801623,135770994,5,315,0,0,0,2,0,0,2,t-0.45 Leftrdn,34.801623,135.770994
3,4.25,34801623,135770994,5,315,0,0,0,2,0,0,2,t-0.45 Leftrdn,34.801623,135.770994
3,4.26,34801622,135770994,5,292.5,11.2,0,0,0,0,0,2,t-0.33 Forwardn,34.801622,135.770994
3,4.27,34801622,135770994,5,303.75,0,0,0,0,0,0,2,t-0.33 Forwardn,34.801622,135.770994
3,4.28,34801622,135770994,5,303.75,0,0,0,0,0,0,2,t-0.33 Forwardn,34.801622,135.770994
3,4.29,34801622,135770994,5,270,0,0,0,0,0,0,2,t-0.20 Forwardn,34.801622,135.770994
3,4.3,34801622,135770994,5,315,0,0,0,0,0,0,2,t-0.20 Forwardn,34.801622,135.770994
3,4.31,34801622,135770994,5,315,0,0,0,0,0,0,2,t-0.20 Forwardn,34.801622,135.770994
3,4.32,34801622,135770994,5,315,0,0,0,0,0,0,2,t-0.20 Forwardn,34.801622,135.770994
3,4.33,34801622,135770994,5,315,0,0,0,2,0,0,2,t-0.43 Leftrdn,34.801622,135.770994
3,4.35,34801622,135770995,5,315,0,0,0,0,0,0,2,t-0.36 Forwardn,34.801622,135.770995
3,4.36,34801622,135770995,5,315,0,0,0,0,0,0,2,t-0.36 Forwardn,34.801622,135.770995
3,4.37,34801622,135770995,5,315,0,0,0,0,0,0,2,t-0.36 Forwardn,34.801622,135.770995
3,4.38,34801622,135770995,5,292.5,0,0,0,0,0,0,2,t-0.34 Forwardn,34.801622,135.770995
3,4.39,34801622,135770995,5,315,0,0,0,0,0,0,2,t-0.34 Forwardn,34.801622,135.770995
3,4.4,34801622,135770995,5,315,0,0,0,0,0,0,2,t-0.38 Forwardn,34.801622,135.770995
3,4.41,34801622,135770995,5,315,0,0,0,0,0,0,2,t-0.38 Forwardn,34.801622,135.770995
3,4.42,34801622,135770995,5,315,0,0,0,0,0,0,2,t-0.38 Forwardn,34.801622,135.770995
3,4.43,34801622,135770995,5,315,0,0,0,0,0,0,2,t-0.34 Forwardn,34.801622,135.770995
3,4.44,34801622,135770995,5,315,0,0,0,0,0,0,2,t-0.34 Forwardn,34.801622,135.770995
3,4.45,34801622,135770995,5,303.75,0,0,0,0,0,0,2,t-0.24 Forwardn,34.801622,135.770995
3,4.46,34801622,135770995,5,292.5,0,0,0,0,0,0,2,t-0.24 Forwardn,34.801622,135.770995
3,4.47,34801622,135770995,5,315,0,0,0,0,0,0,2,t-0.24 Forwardn,34.801622,135.770995
3,4.48,34801622,135770995,5,315,0,0,0,0,0,0,2,t-0.24 Forwardn,34.801622,135.770995
3,4.49,34801622,135770995,4,315,0,0,0,0,0,0,2,t-0.24 Forwardn,34.801622,135.770995
3,4.5,34801622,135770995,4,315,0,0,0,0,0,0,2,t-0.24 Forwardn,34.801622,135.770995
3,4.51,34801621,135770995,5,315,11.2,0,0,0,0,0,2,t-0.37 Forwardn,34.801621,135.770995
3,4.52,34801621,135770995,5,315,11.2,0,0,0,0,0,2,t-0.37 Forwardn,34.801621,135.770995
3,4.53,34801621,135770995,5,303.75,11.2,0,0,0,0,0,2,t-0.37 Forwardn,34.801621,135.770995
3,4.54,34801621,135770995,5,303.75,11.2,0,0,0,0,0,2,t-0.37 Forwardn,34.801621,135.770995
3,4.55,34801621,135770995,4,303.75,11.2,0,0,0,0,0,2,t-0.37 Forwardn,34.801621,135.770995
3,4.56,34801621,135770996,5,292.5,11.2,0,0,0,0,0,2,t-0.24 Forwardn,34.801621,135.770996
3,4.57,34801621,135770996,5,303.75,0,0,0,0,0,0,2,t-0.24 Forwardn,34.801621,135.770996
3,4.58,34801621,135770996,5,303.75,0,0,0,0,0,0,2,t-0.24 Forwardn,34.801621,135.770996
3,4.59,34801621,135770996,4,303.75,0,0,0,0,0,0,2,t-0.24 Forwardn,34.801621,135.770996
3,5.1,0,0,15,281.25,0,0,0,0,2,0,2,t1.82 Rightrdn,0,0
3,5.2,34801621,135770996,5,315,0,0,0,2,0,0,2,t-0.39 Leftrdn,34.801621,135.770996
3,5.3,34801621,135770996,5,315,0,0,0,2,0,0,2,t-0.39 Leftrdn,34.801621,135.770996
3,5.4,34801621,135770996,5,315,0,0,0,0,0,0,2,t-0.33 Forwardn,34.801621,135.770996
3,5.5,34801621,135770996,5,315,0,0,0,0,0,0,2,t-0.33 Forwardn,34.801621,135.770996
3,5.6,34801621,135770996,5,303.75,0,0,0,0,0,0,2,t-0.33 Forwardn,34.801621,135.770996
3,5.7,34801621,135770996,5,303.75,0,0,0,0,0,0,2,t-0.20 Forwardn,34.801621,135.770996
3,5.8,34801621,135770996,5,303.75,0,0,0,0,0,0,2,t-0.20 Forwardn,34.801621,135.770996
3,5.9,34801621,135770996,5,315,0,0,0,0,0,0,2,t-0.20 Forwardn,34.801621,135.770996
3,5.1,34801621,135770997,5,315,0,0,0,0,0,0,2,t-0.34 Forwardn,34.801621,135.770997
3,5.11,34801621,135770997,5,303.75,0,0,0,0,0,0,2,t-0.34 Forwardn,34.801621,135.770997
3,5.12,34801621,135770997,4,315,0,0,0,0,0,0,2,t-0.34 Forwardn,34.801621,135.770997
3,5.13,34801620,135770997,5,315,0,0,0,0,0,0,2,t-0.30 Forwardn,34.80162,135.770997
3,5.14,34801620,135770997,5,303.75,0,0,0,0,0,0,2,t-0.30 Forwardn,34.80162,135.770997
3,5.15,34801620,135770997,4,303.75,0,0,0,0,0,0,2,t-0.30 Forwardn,34.80162,135.770997
3,5.16,34801620,135770997,4,303.75,0,0,0,0,0,0,2,t-0.30 Forwardn,34.80162,135.770997
3,5.17,34801620,135770997,4,303.75,0,0,0,0,0,0,2,t-0.30 Forwardn,34.80162,135.770997
3,5.18,34801620,135770997,5,292.5,0,0,0,0,0,0,2,t-0.11 Forwardn,34.80162,135.770997
3,5.19,34801620,135770998,5,303.75,11.2,0,0,0,0,0,2,t-0.03 Forwardn,34.80162,135.770998
3,5.2,34801620,135770998,4,303.75,11.2,0,0,0,0,0,2,t-0.03 Forwardn,34.80162,135.770998
3,5.21,34801620,135770998,5,292.5,11.2,0,0,0,0,0,2,t-0.20 Forwardn,34.80162,135.770998
3,5.22,34801620,135770998,4,292.5,11.2,0,0,0,0,0,2,t-0.20 Forwardn,34.80162,135.770998
3,5.23,34801620,135770998,5,281.25,0,0,0,0,0,0,2,t-0.05 Forwardn,34.80162,135.770998
3,5.24,34801620,135770998,4,315,0,0,0,0,0,0,2,t-0.05 Forwardn,34.80162,135.770998
3,5.25,34801620,135770998,4,315,0,0,0,0,0,0,2,t-0.05 Forwardn,34.80162,135.770998
3,5.27,34801620,135770998,4,315,0,0,0,0,0,0,2,t-0.05 Forwardn,34.80162,135.770998
3,5.28,34801620,135770998,4,315,0,0,0,0,0,0,2,t-0.05 Forwardn,34.80162,135.770998
3,5.29,34801619,135770999,5,315,0,0,0,0,0,0,2,t-0.31 Forwardn,34.801619,135.770999
3,5.3,34801619,135770999,4,303.75,0,0,0,0,0,0,2,t-0.31 Forwardn,34.801619,135.770999
3,5.31,34801619,135770999,4,303.75,0,0,0,0,0,0,2,t-0.31 Forwardn,34.801619,135.770999
3,5.32,34801619,135770999,4,315,0,0,0,0,0,0,2,t-0.31 Forwardn,34.801619,135.770999
3,5.33,34801619,135770999,4,303.75,0,0,0,0,0,0,2,t-0.31 Forwardn,34.801619,135.770999
3,5.34,34801619,135770999,4,315,0,0,0,0,0,0,2,t-0.31 Forwardn,34.801619,135.770999
3,5.35,34801619,135770999,5,303.75,0,0,0,0,0,0,2,t-0.27 Forwardn,34.801619,135.770999
3,5.36,34801619,135770999,4,303.75,0,0,0,0,0,0,2,t-0.27 Forwardn,34.801619,135.770999
3,5.37,34801619,135770999,4,315,0,0,0,0,0,0,2,t-0.27 Forwardn,34.801619,135.770999
3,5.38,34801619,135770999,5,315,0,0,0,0,0,0,2,t-0.32 Forwardn,34.801619,135.770999
3,5.39,34801619,135770999,4,303.75,0,0,0,0,0,0,2,t-0.32 Forwardn,34.801619,135.770999
3,5.4,34801619,135770999,5,315,0,0,0,0,0,0,2,t-0.31 Forwardn,34.801619,135.770999
3,5.41,34801619,135770999,4,303.75,0,0,0,0,0,0,2,t-0.31 Forwardn,34.801619,135.770999
3,5.42,34801619,135770999,4,315,0,0,0,0,0,0,2,t-0.31 Forwardn,34.801619,135.770999
3,5.43,34801619,135770999,5,303.75,0,0,0,0,0,0,2,t-0.31 Forwardn,34.801619,135.770999
3,5.44,34801619,135770999,4,303.75,0,0,0,0,0,0,2,t-0.31 Forwardn,34.801619,135.770999
3,5.45,34801618,135770999,5,281.25,0,0,0,0,0,0,2,t-0.29 Forwardn,34.801618,135.770999
3,5.46,34801618,135770999,5,303.75,11.2,0,0,0,0,0,2,t-0.03 Forwardn,34.801618,135.770999
3,5.47,34801618,135770999,4,315,0,0,0,0,0,0,2,t-0.03 Forwardn,34.801618,135.770999
3,5.48,34801618,135770999,4,315,11.2,0,0,0,0,0,2,t-0.03 Forwardn,34.801618,135.770999
3,5.49,34801618,135770999,4,315,0,0,0,0,0,0,2,t-0.03 Forwardn,34.801618,135.770999
3,5.5,34801618,135770999,4,315,11.2,0,0,0,0,0,2,t-0.03 Forwardn,34.801618,135.770999
3,5.51,34801618,135770999,4,315,11.2,0,0,0,0,0,2,t-0.03 Forwardn,34.801618,135.770999
3,5.53,34801618,135771000,4,315,0,0,0,0,0,0,2,t-0.35 Forwardn,34.801618,135.771
3,5.54,34801618,135771000,4,303.75,11.2,0,0,0,0,0,2,t-0.35 Forwardn,34.801618,135.771
3,5.55,34801618,135771000,4,303.75,11.2,0,0,0,0,0,2,t-0.35 Forwardn,34.801618,135.771
3,5.56,34801618,135771000,4,303.75,11.2,0,0,0,0,0,2,t-0.35 Forwardn,34.801618,135.771
3,5.57,34801617,135771000,4,303.75,11.2,0,0,0,0,0,2,t-0.27 Forwardn,34.801617,135.771
3,5.58,34801617,135771000,4,303.75,0,0,0,0,0,0,2,t-0.27 Forwardn,34.801617,135.771
3,5.59,34801617,135771000,4,303.75,0,0,0,0,0,0,2,t-0.14 Forwardn,34.801617,135.771
3,6,34801617,135771000,4,292.5,0,0,0,0,0,0,2,t-0.14 Forwardn,34.801617,135.771
3,6.1,34801617,135771000,4,303.75,0,0,0,0,0,0,2,t-0.14 Forwardn,34.801617,135.771
3,6.2,34801617,135771000,4,303.75,0,0,0,0,0,0,2,t-0.25 Forwardn,34.801617,135.771
3,6.3,34801617,135771000,4,303.75,0,0,0,0,0,0,2,t-0.17 Forwardn,34.801617,135.771
3,6.4,34801617,135771000,4,303.75,0,0,0,0,0,0,2,t-0.17 Forwardn,34.801617,135.771
3,6.5,34801617,135771000,4,303.75,0,0,0,0,0,0,2,t-0.17 Forwardn,34.801617,135.771
3,6.6,34801617,135771000,4,303.75,0,0,0,0,0,0,2,t-0.17 Forwardn,34.801617,135.771
3,6.7,34801617,135771000,4,303.75,0,0,0,0,0,0,2,t-0.17 Forwardn,34.801617,135.771
3,6.8,34801617,135771000,4,303.75,0,0,0,0,0,0,2,t-0.17 Forwardn,34.801617,135.771
3,6.9,34801616,135771000,4,303.75,0,0,0,0,0,0,2,t-0.22 Forwardn,34.801616,135.771
3,6.1,34801616,135771000,4,292.5,0,0,0,0,0,0,2,t0.12 Forwardn,34.801616,135.771
3,6.11,34801616,135771000,4,315,0,0,0,0,0,0,2,t0.12 Forwardn,34.801616,135.771
3,6.12,34801616,135771000,4,315,0,0,0,0,0,0,2,t0.12 Forwardn,34.801616,135.771
3,6.13,34801616,135771000,4,303.75,0,0,0,2,0,0,2,t-0.39 Leftdn,34.801616,135.771
3,6.14,34801616,135771000,4,315,0,0,0,2,0,0,2,t-0.39 Leftdn,34.801616,135.771
3,6.15,34801616,135771000,4,315,0,0,0,2,0,0,2,t-0.39 Leftdn,34.801616,135.771
3,6.16,34801615,135771001,4,303.75,0,0,0,2,0,0,2,t-0.42 Leftdn,34.801615,135.771001
3,6.17,34801615,135771001,4,315,0,0,0,2,0,0,2,t-0.42 Leftdn,34.801615,135.771001
3,6.19,34801615,135771001,4,281.25,0,0,0,0,0,0,2,t-0.35 Forwardn,34.801615,135.771001
3,6.2,34801615,135771001,4,315,0,0,0,0,0,0,2,t-0.35 Forwardn,34.801615,135.771001
3,6.21,34801615,135771001,4,326.25,11.2,0,0,0,0,0,2,t-0.35 Forwardn,34.801615,135.771001
3,6.22,34801615,135771001,4,326.25,11.2,0,0,0,0,0,2,t-0.35 Forwardn,34.801615,135.771001
3,6.23,34801615,135771001,4,326.25,11.2,0,0,0,0,0,2,t-0.35 Forwardn,34.801615,135.771001
3,6.24,34801615,135771001,4,326.25,11.2,0,0,2,0,0,2,t-0.58 Leftrdn,34.801615,135.771001
3,6.25,34801615,135771001,4,315,11.2,0,0,2,0,0,2,t-0.58 Leftrdn,34.801615,135.771001
3,6.26,34801615,135771001,4,315,11.2,0,0,2,0,0,2,t-0.58 Leftrdn,34.801615,135.771001
3,6.27,34801615,135771001,4,315,11.2,0,0,2,0,0,2,t-0.58 Leftrdn,34.801615,135.771001
3,6.28,34801615,135771001,4,315,11.2,0,0,2,0,0,2,t-0.58 Leftrdn,34.801615,135.771001
3,6.29,34801614,135771002,4,315,11.2,0,0,2,0,0,2,t-0.45 Leftrdn,34.801614,135.771002
3,6.3,34801614,135771002,4,315,11.2,0,0,2,0,0,2,t-0.42 Leftrdn,34.801614,135.771002
3,6.31,34801614,135771002,4,315,0,0,0,2,0,0,2,t-0.42 Leftrdn,34.801614,135.771002
3,6.32,34801614,135771002,4,315,0,0,0,2,0,0,2,t-0.42 Leftrdn,34.801614,135.771002
3,6.33,34801615,135771002,4,303.75,11.2,0,0,2,0,0,2,t-0.42 Leftrdn,34.801615,135.771002
3,6.34,34801615,135771002,4,326.25,0,0,0,2,0,0,2,t-0.42 Leftrdn,34.801615,135.771002
3,6.35,34801615,135771002,4,315,0,0,0,2,0,0,2,t-0.59 Leftrdn,34.801615,135.771002
3,6.36,34801615,135771002,4,326.25,0,0,0,2,0,0,2,t-0.59 Leftrdn,34.801615,135.771002
3,6.37,34801615,135771002,4,326.25,0,0,0,2,0,0,2,t-0.59 Leftrdn,34.801615,135.771002
3,6.38,34801615,135771003,4,326.25,0,0,0,2,0,0,2,t-0.66 Leftrdn,34.801615,135.771003
3,6.39,34801615,135771003,4,326.25,0,0,0,2,0,0,2,t-0.66 Leftrdn,34.801615,135.771003
3,6.4,34801615,135771003,4,315,0,0,0,2,0,0,2,t-0.66 Leftrdn,34.801615,135.771003
3,6.41,34801615,135771003,4,337.5,0,0,0,2,0,0,2,t-0.66 Leftrdn,34.801615,135.771003
3,6.42,34801615,135771003,4,337.5,0,0,0,2,0,0,2,t-0.66 Leftrdn,34.801615,135.771003
3,6.43,34801615,135771003,4,337.5,0,0,0,2,0,0,2,t-0.66 Leftrdn,34.801615,135.771003
3,6.45,34801615,135771003,4,337.5,0,0,0,2,0,0,2,t-0.66 Leftrdn,34.801615,135.771003
3,6.46,34801614,135771003,4,337.5,0,0,0,2,0,0,2,t-0.84 Leftrdn,34.801614,135.771003
3,6.47,34801614,135771003,4,337.5,0,0,0,2,0,0,2,t-0.84 Leftrdn,34.801614,135.771003
3,6.48,34801614,135771003,4,348.75,0,0,0,2,0,0,2,t-0.84 Leftrdn,34.801614,135.771003
3,6.49,34801614,135771003,4,348.75,0,0,0,2,0,0,2,t-0.95 Leftrdn,34.801614,135.771003
3,6.5,34801614,135771003,4,337.5,0,0,0,2,0,0,2,t-0.95 Leftrdn,34.801614,135.771003
3,6.51,34801614,135771004,4,337.5,0,0,0,2,0,0,2,t-0.78 Leftrdn,34.801614,135.771004
3,6.52,34801614,135771004,4,337.5,0,0,0,2,0,0,2,t-0.84 Leftrdn,34.801614,135.771004
3,6.53,34801614,135771004,4,337.5,0,0,0,2,0,0,2,t-0.84 Leftrdn,34.801614,135.771004
3,6.54,34801614,135771004,4,337.5,0,0,0,2,0,0,2,t-0.76 Leftrdn,34.801614,135.771004
3,6.55,34801614,135771004,4,326.25,0,0,0,2,0,0,2,t-0.76 Leftrdn,34.801614,135.771004
3,6.56,34801614,135771004,4,326.25,0,0,0,2,0,0,2,t-0.76 Leftrdn,34.801614,135.771004
3,6.57,34801614,135771004,4,326.25,0,0,0,2,0,0,2,t-0.76 Leftrdn,34.801614,135.771004
3,6.58,34801614,135771004,4,326.25,0,0,0,2,0,0,2,t-0.76 Leftrdn,34.801614,135.771004
3,6.59,34801614,135771004,4,326.25,0,0,0,2,0,0,2,t-0.76 Leftrdn,34.801614,135.771004
3,7,34801613,135771004,4,315,0,0,0,2,0,0,2,t-0.63 Leftrdn,34.801613,135.771004
3,7.1,34801613,135771004,4,326.25,0,0,0,2,0,0,2,t-0.63 Leftrdn,34.801613,135.771004
3,7.2,34801613,135771004,4,315,0,0,0,2,0,0,2,t-0.57 Leftrdn,34.801613,135.771004
3,7.3,34801613,135771004,4,326.25,0,0,0,2,0,0,2,t-0.57 Leftrdn,34.801613,135.771004
3,7.4,34801613,135771004,4,337.5,0,0,0,2,0,0,2,t-0.57 Leftrdn,34.801613,135.771004
3,7.5,34801613,135771005,4,315,0,0,0,2,0,0,2,t-0.77 Leftrdn,34.801613,135.771005
3,7.6,34801613,135771005,4,337.5,0,0,0,2,0,0,2,t-0.77 Leftrdn,34.801613,135.771005
3,7.7,34801613,135771005,4,337.5,11.2,0,0,2,0,0,2,t-0.77 Leftrdn,34.801613,135.771005
3,7.8,34801613,135771005,4,337.5,11.2,0,0,2,0,0,2,t-0.77 Leftrdn,34.801613,135.771005
3,7.9,34801613,135771005,3,337.5,11.2,0,0,2,0,0,2,t-0.77 Leftrdn,34.801613,135.771005
3,7.11,34801613,135771005,3,337.5,11.2,0,0,2,0,0,2,t-0.77 Leftrdn,34.801613,135.771005
3,7.12,34801613,135771005,3,337.5,11.2,0,0,2,0,0,2,t-0.77 Leftrdn,34.801613,135.771005
3,7.13,34801613,135771005,3,337.5,11.2,0,0,2,0,0,2,t-0.77 Leftrdn,34.801613,135.771005
3,7.14,34801612,135771006,4,337.5,11.2,0,0,2,0,0,2,t-0.79 Leftrdn,34.801612,135.771006
3,7.15,34801612,135771006,4,326.25,11.2,0,0,2,0,0,2,t-0.79 Leftrdn,34.801612,135.771006
3,7.16,34801612,135771006,4,326.25,11.2,0,0,2,0,0,2,t-0.79 Leftrdn,34.801612,135.771006
3,7.17,34801612,135771006,4,326.25,11.2,0,0,2,0,0,2,t-0.61 Leftrdn,34.801612,135.771006
3,7.18,34801612,135771006,4,315,11.2,0,0,2,0,0,2,t-0.61 Leftrdn,34.801612,135.771006
3,7.19,34801612,135771006,4,326.25,11.2,0,0,2,0,0,2,t-0.55 Leftrdn,34.801612,135.771006
3,7.2,34801612,135771006,4,326.25,11.2,0,0,2,0,0,2,t-0.55 Leftrdn,34.801612,135.771006
3,7.21,34801612,135771006,4,315,0,0,0,2,0,0,2,t-0.55 Leftrdn,34.801612,135.771006
3,7.22,34801612,135771006,3,315,0,0,0,2,0,0,2,t-0.55 Leftrdn,34.801612,135.771006
3,7.23,34801612,135771006,3,315,0,0,0,2,0,0,2,t-0.55 Leftrdn,34.801612,135.771006
3,7.24,34801615,135771009,4,315,0,0,0,0,0,0,2,t-0.35 Forwardn,34.801615,135.771009
3,7.25,34801615,135771009,3,315,0,0,0,0,0,0,2,t-0.35 Forwardn,34.801615,135.771009
3,7.26,34801615,135771009,3,337.5,0,0,0,0,0,0,2,t-0.35 Forwardn,34.801615,135.771009
3,7.27,34801615,135771009,3,337.5,0,0,0,0,0,0,2,t-0.35 Forwardn,34.801615,135.771009
3,7.28,34801615,135771009,3,337.5,0,0,0,0,0,0,2,t-0.35 Forwardn,34.801615,135.771009
3,7.29,34801615,135771009,3,337.5,0,0,0,0,0,0,2,t-0.35 Forwardn,34.801615,135.771009
3,7.3,34801615,135771009,4,337.5,0,0,0,2,0,0,2,t-0.81 Leftrdn,34.801615,135.771009
3,7.31,34801615,135771009,3,337.5,0,0,0,2,0,0,2,t-0.81 Leftrdn,34.801615,135.771009
3,7.32,34801615,135771009,3,337.5,0,0,0,2,0,0,2,t-0.81 Leftrdn,34.801615,135.771009
3,7.33,34801615,135771009,4,326.25,0,0,0,2,0,0,2,t-0.65 Leftrdn,34.801615,135.771009
3,7.34,34801615,135771009,3,337.5,0,0,0,2,0,0,2,t-0.65 Leftrdn,34.801615,135.771009
3,7.35,34801615,135771009,3,337.5,0,0,0,2,0,0,2,t-0.65 Leftrdn,34.801615,135.771009
3,7.37,34801615,135771009,3,337.5,0,0,0,2,0,0,2,t-0.65 Leftrdn,34.801615,135.771009
3,7.38,34801615,135771009,3,337.5,0,0,0,2,0,0,2,t-0.65 Leftrdn,34.801615,135.771009
3,7.39,34801615,135771009,3,337.5,0,0,0,2,0,0,2,t-0.65 Leftrdn,34.801615,135.771009
3,7.4,34801615,135771009,3,337.5,0,0,0,2,0,0,2,t-0.65 Leftrdn,34.801615,135.771009
3,7.41,34801614,135771008,4,337.5,0,0,0,2,0,0,2,t-0.74 Leftrdn,34.801614,135.771008
3,7.42,34801614,135771008,3,337.5,0,0,0,2,0,0,2,t-0.74 Leftrdn,34.801614,135.771008
3,7.43,34801614,135771008,3,348.75,0,0,0,2,0,0,2,t-0.74 Leftrdn,34.801614,135.771008
3,7.44,34801614,135771007,4,348.75,0,0,0,2,0,0,2,t-0.92 Leftrdn,34.801614,135.771007
3,7.45,34801614,135771007,4,337.5,0,0,0,2,0,0,2,t-0.92 Leftrdn,34.801614,135.771007
3,7.46,34801614,135771007,4,337.5,0,0,0,2,0,0,2,t-0.84 Leftrdn,34.801614,135.771007
3,7.47,34801613,135771007,4,337.5,0,0,0,2,0,0,2,t-0.85 Leftrdn,34.801613,135.771007
3,7.48,34801613,135771007,4,348.75,0,0,0,2,0,0,2,t-0.85 Leftrdn,34.801613,135.771007
3,7.49,34801613,135771007,3,337.5,0,0,0,2,0,0,2,t-0.85 Leftrdn,34.801613,135.771007
3,7.5,34801613,135771007,3,337.5,0,0,0,2,0,0,2,t-0.85 Leftrdn,34.801613,135.771007
3,7.51,34801613,135771007,3,337.5,0,0,0,2,0,0,2,t-0.85 Leftrdn,34.801613,135.771007
3,7.52,34801612,135771008,4,326.25,0,0,0,2,0,0,2,t-0.89 Leftrdn,34.801612,135.771008
3,7.53,34801612,135771008,4,337.5,0,0,0,2,0,0,2,t-0.84 Leftrdn,34.801612,135.771008
3,7.54,34801612,135771008,3,337.5,0,0,0,2,0,0,2,t-0.84 Leftrdn,34.801612,135.771008
3,7.55,34801612,135771008,3,337.5,0,0,0,2,0,0,2,t-0.84 Leftrdn,34.801612,135.771008
3,7.56,34801612,135771008,3,337.5,0,0,0,2,0,0,2,t-0.84 Leftrdn,34.801612,135.771008
3,7.57,34801612,135771012,3,337.5,0,0,0,2,0,0,3,t-0.84 Leftrdn,34.801612,135.771012
3,7.58,34801612,135771012,3,315,0,0,0,0,1,0,3,00 00 00 00 00NO,34.801612,135.771012
3,7.59,34801612,135771012,3,326.25,0,0,0,0,1,0,3,00 00 00 00 00NO,34.801612,135.771012
3,8,34801612,135771012,3,326.25,11.2,0,0,0,1,0,3,00 00 06 00 00NO,34.801612,135.771012
3,8.1,34801612,135771012,3,315,0,0,0,0,1,0,3,00 00 00 00 00NO,34.801612,135.771012
3,8.3,34801609,135771013,3,326.25,0,0,0,0,1,0,3,00 00 02 00 00NO,34.801609,135.771013
3,8.4,34801609,135771013,3,315,0,0,0,0,1,0,3,00 00 00 00 00NO,34.801609,135.771013
3,8.5,34801609,135771013,3,326.25,0,0,0,0,1,0,3,00 00 00 00 00NO,34.801609,135.771013
3,8.6,34801609,135771013,3,326.25,0,0,0,0,1,0,3,00 00 00 00 00NO,34.801609,135.771013
3,8.7,34801609,135771013,3,326.25,0,0,0,0,1,0,3,00 00 00 00 00NO,34.801609,135.771013
3,8.8,34801607,135771012,3,326.25,11.2,0,0,0,1,0,3,00 00 04 00 00NO,34.801607,135.771012
3,8.9,34801608,135771011,3,337.5,0,0,0,0,1,0,3,00 00 00 00 00NO,34.801608,135.771011
3,8.1,34801608,135771011,3,348.75,11.2,11.2,0,0,1,0,3,00 00 00 00 00NO,34.801608,135.771011
3,8.11,34801608,135771011,3,337.5,11.2,0,0,0,1,0,3,00 00 00 00 00NO,34.801608,135.771011
3,8.12,34801608,135771011,3,337.5,0,0,0,0,1,0,3,00 00 00 00 00NO,34.801608,135.771011
3,8.13,34801608,135771011,3,348.75,0,0,0,0,1,0,3,00 00 00 00 00NO,34.801608,135.771011
3,8.14,34801602,135771009,3,348.75,0,0,0,0,1,0,3,00 00 00 00 00NO,34.801602,135.771009
3,8.15,34801602,135771009,3,0,0,0,0,0,1,0,3,00 00 00 00 00NO,34.801602,135.771009
3,8.16,34801602,135771009,3,0,0,0,0,0,1,0,3,00 00 00 00 00NO,34.801602,135.771009
3,8.17,34801602,135771009,3,11.25,0,0,0,0,1,0,3,00 00 00 00 00NO,34.801602,135.771009
3,8.18,34801602,135771009,3,22.5,0,0,0,0,1,0,3,00 00 00 00 00NO,34.801602,135.771009
3,8.19,34801596,135771007,3,45,0,0,0,0,1,0,3,00 00 00 00 00NO,34.801596,135.771007
3,8.2,34801595,135771007,3,67.5,0,0,0,0,1,0,3,00 00 00 00 00NO,34.801595,135.771007
3,8.21,34801595,135771007,3,101.25,11.2,0,0,0,1,0,3,00 00 00 00 00NO,34.801595,135.771007
3,8.22,34801595,135771007,3,157.5,11.2,0,0,0,1,0,3,00 00 00 00 00NO,34.801595,135.771007
3,8.23,34801595,135771007,3,191.25,0,0,0,0,1,0,3,00 00 00 00 00NO,34.801595,135.771007
3,8.24,34801595,135771007,3,191.25,0,0,0,0,1,0,3,00 00 00 00 00NO,34.801595,135.771007
3,8.25,34801598,135771005,3,191.25,0,0,0,0,1,0,3,00 00 00 00 00NO,34.801598,135.771005
3,8.26,34801598,135771005,3,191.25,0,0,0,0,1,0,3,00 00 00 00 00NO,34.801598,135.771005
3,8.27,34801598,135771005,3,191.25,0,0,0,0,1,0,3,00 00 00 00 00NO,34.801598,135.771005
3,8.29,34801598,135771005,3,191.25,0,0,0,0,1,0,3,00 00 00 00 00NO,34.801598,135.771005
3,8.3,34801598,135771005,3,202.5,0,0,0,0,1,0,3,00 00 00 00 00NO,34.801598,135.771005
3,8.31,34801600,135771002,4,202.5,0,0,0,0,1,0,3,00 00 00 00 00NO,34.8016,135.771002
3,8.32,34801600,135771002,4,202.5,11.2,0,0,0,1,0,3,00 00 00 00 00NO,34.8016,135.771002
3,8.33,34801598,135771003,4,191.25,11.2,0,0,0,1,0,3,00 00 00 00 00NO,34.801598,135.771003
3,8.34,34801598,135771003,4,202.5,11.2,0,0,0,1,0,3,00 00 00 00 00NO,34.801598,135.771003
3,8.35,34801598,135771002,4,202.5,0,0,0,0,1,0,3,00 00 00 00 00NO,34.801598,135.771002
3,8.36,34801598,135771002,4,202.5,0,0,0,0,1,0,3,00 00 00 00 00NO,34.801598,135.771002
3,8.37,34801598,135771002,4,213.75,0,0,0,0,1,0,3,00 00 00 00 00NO,34.801598,135.771002
3,8.38,34801598,135771002,4,202.5,0,0,0,0,1,0,3,00 00 00 00 00NO,34.801598,135.771002
3,8.39,34801598,135771002,4,213.75,0,0,0,0,1,0,3,00 00 00 00 00NO,34.801598,135.771002
3,8.4,34801598,135771002,4,213.75,0,0,0,0,1,0,3,00 00 00 00 00NO,34.801598,135.771002
3,8.41,34801598,135771002,4,213.75,0,0,0,0,1,0,3,00 00 00 00 00NO,34.801598,135.771002
3,8.42,34801593,135771002,4,225,0,0,0,0,1,0,3,00 00 00 00 00NO,34.801593,135.771002
3,8.43,34801593,135771002,4,213.75,0,0,0,0,1,0,3,00 00 00 00 00NO,34.801593,135.771002
3,8.44,34801593,135771002,4,225,0,0,0,0,1,0,3,00 00 01 00 00NO,34.801593,135.771002
3,8.45,34801591,135771002,4,225,0,0,0,0,1,0,3,00 00 00 00 00NO,34.801591,135.771002
3,8.46,34801591,135771002,4,225,0,0,0,0,1,0,3,00 00 02 00 00NO,34.801591,135.771002
3,8.47,34801592,135771003,4,225,0,0,0,0,1,0,3,00 00 00 00 00NO,34.801592,135.771003
3,8.48,34801592,135771003,4,225,0,0,0,0,1,0,3,00 00 00 00 00NO,34.801592,135.771003
3,8.49,34801589,135771003,4,236.25,0,0,0,0,1,0,3,00 00 00 00 00NO,34.801589,135.771003
3,8.5,34801589,135771003,4,236.25,0,0,0,0,1,0,3,00 00 00 00 00NO,34.801589,135.771003
3,8.51,34801589,135771003,4,236.25,0,0,0,0,1,0,3,00 00 00 00 00NO,34.801589,135.771003
3,8.52,34801589,135771003,4,236.25,0,0,0,0,1,0,3,00 00 00 00 00NO,34.801589,135.771003
3,8.53,34801589,135771003,4,236.25,0,0,0,0,1,0,3,00 00 00 00 00NO,34.801589,135.771003
3,8.55,34801589,135771003,4,236.25,11.2,0,0,0,1,0,3,00 00 00 00 00NO,34.801589,135.771003
3,8.56,34801589,135771003,4,225,11.2,0,0,0,1,0,3,00 00 00 00 00NO,34.801589,135.771003
3,8.57,34801591,135771004,4,236.25,11.2,0,0,0,1,0,3,00 00 00 00 00NO,34.801591,135.771004
3,8.58,34801591,135771004,3,236.25,0,0,0,0,1,0,3,00 00 00 00 00NO,34.801591,135.771004
3,8.59,34801591,135771004,3,247.5,0,0,0,0,1,0,3,00 00 00 00 00NO,34.801591,135.771004
3,9,34801591,135771004,3,258.75,0,0,0,0,1,0,3,00 00 00 00 00NO,34.801591,135.771004
3,9.1,34801591,135771004,4,258.75,0,0,0,0,1,0,3,00 00 00 00 00NO,34.801591,135.771004
3,9.2,34801591,135771004,4,258.75,0,0,0,0,1,0,3,00 00 00 00 00NO,34.801591,135.771004
3,9.3,34801591,135771003,4,258.75,0,0,0,0,1,0,3,00 00 00 00 00NO,34.801591,135.771003
3,9.4,34801591,135771003,4,258.75,0,0,0,0,1,0,3,00 00 00 00 00NO,34.801591,135.771003
3,9.5,34801591,135771003,4,247.5,0,0,0,0,1,0,3,00 00 00 00 00NO,34.801591,135.771003
3,9.6,34801591,135771003,4,270,11.2,0,0,0,1,0,3,00 00 00 02 02NO,34.801591,135.771003
3,9.7,34801591,135771003,4,258.75,11.2,0,0,0,1,0,3,00 00 00 06 06NO,34.801591,135.771003
3,9.8,34801591,135771003,4,258.75,0,0,0,0,1,0,3,00 00 00 00 00NO,34.801591,135.771003
3,9.9,34801591,135771003,4,270,0,0,0,0,1,0,3,00 00 04 00 00NO,34.801591,135.771003
3,9.1,34801591,135771003,4,281.25,0,0,0,0,1,0,3,00 00 02 00 00NO,34.801591,135.771003
3,9.11,34801590,135771003,4,270,0,0,0,0,1,0,3,00 00 02 00 00NO,34.80159,135.771003
3,9.12,34801590,135771003,4,281.25,0,0,0,0,1,0,3,00 06 00 00 00NO,34.80159,135.771003
3,9.13,34801590,135771003,4,281.25,0,0,0,0,1,0,3,00 00 00 00 00NO,34.80159,135.771003
3,9.14,34801590,135771002,4,281.25,0,0,0,0,1,0,3,02 00 00 00 00NO,34.80159,135.771002
3,9.15,34801590,135771002,4,292.5,0,0,0,0,1,0,3,00 00 00 00 00NO,34.80159,135.771002
3,9.16,34801590,135771002,4,281.25,11.2,0,0,0,1,0,3,00 00 00 00 00NO,34.80159,135.771002
3,9.17,34801590,135771002,4,270,11.2,0,0,0,1,0,3,00 00 00 00 00NO,34.80159,135.771002
3,9.18,34801590,135771002,4,258.75,11.2,0,0,0,1,0,3,00 00 00 00 00NO,34.80159,135.771002
3,9.19,34801590,135771002,4,247.5,11.2,0,0,0,1,0,3,04 00 00 00 00NO,34.80159,135.771002
3,9.21,34801590,135771002,4,247.5,11.2,0,0,0,1,0,3,00 02 00 00 00NO,34.80159,135.771002
3,9.22,34801590,135771002,4,247.5,11.2,0,0,0,1,0,3,00 02 00 00 00NO,34.80159,135.771002
3,9.23,34801590,135771002,4,247.5,11.2,0,0,0,1,0,3,00 00 00 00 00NO,34.80159,135.771002
3,9.24,34801590,135771003,4,247.5,11.2,0,0,0,1,0,3,00 00 00 00 00NO,34.80159,135.771003
3,9.25,34801590,135771003,4,247.5,11.2,0,0,0,1,0,3,00 02 00 00 00NO,34.80159,135.771003
3,9.26,34801590,135771003,4,247.5,11.2,0,0,0,1,0,3,00 00 00 00 00NO,34.80159,135.771003
3,9.27,34801590,135771003,4,247.5,11.2,0,0,0,1,0,3,00 02 00 00 00NO,34.80159,135.771003
3,9.28,34801590,135771003,4,247.5,11.2,0,0,0,1,0,3,00 04 00 00 00NO,34.80159,135.771003
3,9.29,34801590,135771003,4,247.5,11.2,0,0,0,1,0,3,00 02 00 00 00NO,34.80159,135.771003
3,9.3,34801590,135771003,4,247.5,11.2,0,0,0,1,0,3,00 02 00 00 00NO,34.80159,135.771003
3,9.31,34801590,135771003,4,247.5,11.2,0,0,0,1,0,3,00 02 00 00 00NO,34.80159,135.771003
3,9.32,34801591,135771003,4,247.5,11.2,0,0,0,1,0,3,00 02 00 00 00NO,34.801591,135.771003
3,9.33,34801591,135771003,4,247.5,11.2,0,0,0,1,0,3,00 02 00 00 00NO,34.801591,135.771003
3,9.34,34801591,135771003,4,247.5,11.2,0,0,0,1,0,3,00 02 00 00 00NO,34.801591,135.771003
3,9.35,34801591,135771003,4,247.5,11.2,0,0,0,1,0,3,00 02 00 00 00NO,34.801591,135.771003
3,9.36,34801591,135771003,4,247.5,11.2,0,0,0,1,0,3,00 04 00 00 00NO,34.801591,135.771003
3,9.37,34801591,135771003,4,247.5,11.2,0,0,0,1,0,3,00 02 00 00 00NO,34.801591,135.771003
3,9.38,34801591,135771003,4,247.5,11.2,0,0,0,1,0,3,00 02 00 00 00NO,34.801591,135.771003
3,9.39,34801591,135771003,4,247.5,11.2,0,0,0,1,0,3,00 04 00 00 00NO,34.801591,135.771003
3,9.4,34801591,135771003,4,247.5,11.2,0,0,0,1,0,3,00 02 00 00 00NO,34.801591,135.771003
3,9.41,34801591,135771003,4,247.5,11.2,0,0,0,1,0,3,00 02 00 00 00NO,34.801591,135.771003
3,9.42,34801591,135771003,4,247.5,11.2,0,0,0,1,0,3,00 02 00 00 00NO,34.801591,135.771003
3,9.43,34801591,135771003,4,247.5,11.2,0,0,0,1,0,3,00 04 00 00 00NO,34.801591,135.771003
3,9.44,34801591,135771003,4,247.5,11.2,0,0,0,1,0,3,00 02 00 00 00NO,34.801591,135.771003
3,9.45,34801591,135771003,4,247.5,11.2,0,0,0,1,0,3,00 02 00 00 00NO,34.801591,135.771003
3,9.47,34801591,135771003,4,247.5,11.2,0,0,0,1,0,3,00 04 00 00 00NO,34.801591,135.771003
3,9.48,34801591,135771003,4,247.5,11.2,0,0,0,1,0,3,00 02 00 00 00NO,34.801591,135.771003
3,9.49,34801591,135771003,4,247.5,11.2,0,0,0,1,0,3,00 02 00 00 00NO,34.801591,135.771003
3,9.5,34801591,135771003,4,247.5,11.2,0,0,0,1,0,3,00 02 00 00 00NO,34.801591,135.771003
3,9.51,34801591,135771003,4,247.5,11.2,0,0,0,1,0,3,00 02 00 00 00NO,34.801591,135.771003
3,9.52,34801592,135771002,4,247.5,11.2,0,0,0,1,0,3,00 02 00 00 00NO,34.801592,135.771002
3,9.53,34801592,135771002,4,247.5,11.2,0,0,0,1,0,3,00 02 00 00 00NO,34.801592,135.771002
3,9.54,34801592,135771002,4,247.5,11.2,0,0,0,1,0,3,00 04 00 00 00NO,34.801592,135.771002
3,9.55,34801592,135771002,4,247.5,11.2,0,0,0,1,0,3,00 02 00 00 00NO,34.801592,135.771002
3,9.56,34801592,135771002,4,247.5,11.2,0,0,0,1,0,3,00 02 00 00 00NO,34.801592,135.771002
3,9.57,34801592,135771003,4,247.5,11.2,0,0,0,1,0,3,00 02 00 00 00NO,34.801592,135.771003
3,9.58,34801592,135771003,4,247.5,11.2,0,0,0,1,0,3,00 02 00 00 00NO,34.801592,135.771003
3,9.59,34801592,135771003,4,247.5,11.2,0,0,0,1,0,3,00 02 00 00 00NO,34.801592,135.771003
3,10,34801592,135771003,4,247.5,11.2,0,0,0,1,0,3,00 04 00 00 00NO,34.801592,135.771003
3,10.1,34801592,135771003,4,247.5,11.2,0,0,0,1,0,3,02 04 00 00 00NO,34.801592,135.771003
3,10.2,34801592,135771003,4,247.5,11.2,0,0,0,1,0,3,00 02 00 00 00NO,34.801592,135.771003
3,10.3,34801593,135771003,4,247.5,11.2,0,0,0,1,0,3,00 04 00 00 00NO,34.801593,135.771003
3,10.4,34801593,135771003,4,247.5,11.2,0,0,0,1,0,3,00 02 00 00 00NO,34.801593,135.771003
3,10.5,34801593,135771002,4,247.5,11.2,0,0,0,1,0,3,00 02 00 00 00NO,34.801593,135.771002
3,10.6,34801593,135771002,4,247.5,11.2,0,0,0,1,0,3,00 02 00 00 00NO,34.801593,135.771002
3,10.7,34801593,135771002,4,247.5,11.2,0,0,0,1,0,3,00 02 00 00 00NO,34.801593,135.771002
3,10.8,34801593,135771002,4,247.5,11.2,0,0,0,1,0,3,02 04 00 00 00NO,34.801593,135.771002
3,10.9,34801593,135771002,4,247.5,11.2,0,0,0,1,0,3,00 04 00 00 00NO,34.801593,135.771002
3,10.1,34801593,135771002,4,247.5,11.2,0,0,0,1,0,3,00 02 00 00 00NO,34.801593,135.771002
3,10.11,34801593,135771002,4,247.5,11.2,0,0,0,1,0,3,00 02 00 00 00NO,34.801593,135.771002
3,10.13,34801593,135771002,4,247.5,11.2,0,0,0,1,0,3,00 02 00 00 00NO,34.801593,135.771002
3,10.14,34801593,135771002,4,247.5,11.2,0,0,0,1,0,3,00 02 00 00 00NO,34.801593,135.771002
3,10.15,34801593,135771002,4,247.5,11.2,0,0,0,1,0,3,00 04 00 00 00NO,34.801593,135.771002
3,10.16,34801593,135771002,4,247.5,11.2,0,0,0,1,0,3,00 04 00 00 00NO,34.801593,135.771002
3,10.17,34801593,135771002,4,247.5,11.2,0,0,0,1,0,3,00 04 00 00 00NO,34.801593,135.771002
3,10.18,34801593,135771002,4,247.5,11.2,0,0,0,1,0,3,00 02 00 00 00NO,34.801593,135.771002
3,10.19,34801593,135771002,4,247.5,11.2,0,0,0,1,0,3,00 02 00 00 00NO,34.801593,135.771002
3,10.2,34801593,135771002,4,247.5,11.2,0,0,0,1,0,3,00 00 00 00 00NO,34.801593,135.771002
3,10.21,34801593,135771002,4,247.5,11.2,0,0,0,1,0,3,00 00 00 00 00NO,34.801593,135.771002
3,10.22,34801593,135771002,4,247.5,11.2,0,0,0,1,0,3,00 00 00 00 00NO,34.801593,135.771002
3,10.23,34801593,135771003,4,247.5,11.2,0,0,0,1,0,3,00 00 00 00 00NO,34.801593,135.771003
3,10.24,34801593,135771003,4,247.5,11.2,0,0,0,1,0,3,00 00 00 00 00NO,34.801593,135.771003
3,10.25,34801593,135771003,4,247.5,11.2,0,0,0,1,0,3,00 00 00 00 00NO,34.801593,135.771003
3,10.26,34801593,135771003,4,247.5,11.2,0,0,0,1,0,3,00 00 00 00 00NO,34.801593,135.771003
3,10.27,34801593,135771003,4,247.5,11.2,0,0,0,1,0,3,00 00 00 00 00NO,34.801593,135.771003
3,10.28,34801593,135771003,4,247.5,11.2,0,0,0,1,0,3,00 00 00 00 00NO,34.801593,135.771003
3,10.29,34801593,135771003,4,247.5,11.2,0,0,0,1,0,3,00 00 00 00 00NO,34.801593,135.771003
3,10.3,34801593,135771003,4,247.5,11.2,0,0,0,1,0,3,00 00 00 00 00NO,34.801593,135.771003
3,10.31,34801593,135771003,4,247.5,11.2,0,0,0,1,0,3,00 00 00 00 00NO,34.801593,135.771003
3,10.32,34801593,135771003,4,247.5,11.2,0,0,0,1,0,3,00 00 00 00 00NO,34.801593,135.771003
3,10.33,34801593,135771003,4,247.5,11.2,0,0,0,1,0,3,00 00 00 00 00NO,34.801593,135.771003
3,10.34,34801593,135771003,4,247.5,11.2,0,0,0,1,0,3,00 00 00 00 00NO,34.801593,135.771003
3,10.35,34801593,135771003,4,247.5,11.2,0,0,0,1,0,3,00 00 00 00 00NO,34.801593,135.771003
3,10.36,34801593,135771003,4,247.5,11.2,0,0,0,1,0,3,00 00 00 00 00NO,34.801593,135.771003
3,10.37,34801593,135771003,4,247.5,11.2,0,0,0,1,0,3,00 00 00 00 00NO,34.801593,135.771003
3,10.39,34801593,135771003,4,247.5,11.2,0,0,0,1,0,3,00 00 00 00 00NO,34.801593,135.771003
3,10.4,34801593,135771003,4,247.5,11.2,0,0,0,1,0,3,00 00 00 00 00NO,34.801593,135.771003
3,10.41,34801593,135771004,3,247.5,11.2,0,0,0,1,0,3,00 00 00 00 00NO,34.801593,135.771004
3,10.42,34801593,135771004,3,247.5,11.2,0,0,0,1,0,3,00 00 00 00 00NO,34.801593,135.771004
3,10.43,34801593,135771004,3,247.5,11.2,0,0,0,1,0,3,00 00 00 00 00NO,34.801593,135.771004
3,10.44,34801593,135771004,4,247.5,11.2,0,0,0,1,0,3,00 00 00 00 00NO,34.801593,135.771004
3,10.45,34801594,135771004,4,247.5,11.2,0,0,0,1,0,3,00 00 00 00 00NO,34.801594,135.771004
