code,min.sec,lat,lon,dist,yaw,roll,pitch,yaw_to_goal,motor_left,motor_right,stack,seq,data,latitude,longitude
4,0.4,0,0,244,281.25,0,0,0,0,0,0,1,174.1 altNRdy,0,0
4,0.5,0,0,244,315,0,0,0,0,0,0,1,174.1 altNRdy,0,0
4,0.4,0,0,244,270,0,0,0,0,0,0,1,170.9 altNRdy,0,0
4,0.5,0,0,244,292.5,0,0,0,0,0,0,1,170.9 altNRdy,0,0
4,0.6,0,0,244,303.75,0,0,0,0,0,0,1,170.9 altNRdy,0,0
4,0.7,0,0,244,303.75,0,0,0,0,0,0,1,170.9 altNRdy,0,0
4,0.8,0,0,244,303.75,0,0,0,0,0,0,1,170.9 altNRdy,0,0
4,0.9,0,0,244,303.75,0,0,0,0,0,0,1,170.9 altNRdy,0,0
4,0.1,0,0,244,303.75,0,0,0,0,0,0,1,170.9 altNRdy,0,0
4,0.11,0,0,244,303.75,0,0,0,0,0,0,1,170.9 altNRdy,0,0
4,0.12,0,0,244,303.75,0,0,0,0,0,0,1,170.9 altNRdy,0,0
4,0.13,0,0,244,292.5,0,0,0,0,0,0,1,170.9 altNRdy,0,0
4,0.15,0,0,233,281.25,0,0,0,0,0,0,1,170.9 altNRdy,0,0
4,0.16,0,0,244,292.5,0,0,0,0,0,0,1,170.9 altNRdy,0,0
4,0.17,0,0,233,348.75,0,0,0,0,0,0,1,171.9 c5 Rise,0,0
4,0.18,0,0,242,315,0,0,0,0,0,0,1,171.9 c5 Rise,0,0
4,0.19,0,0,244,315,0,0,0,0,0,0,1,171.9 c5 Rise,0,0
4,0.2,0,0,244,326.25,0,11.2,0,0,0,0,1,171.9 c5 Rise,0,0
4,0.21,0,0,244,326.25,0,0,0,0,0,0,1,171.9 c5 Rise,0,0
4,0.22,0,0,244,337.5,0,0,0,0,0,0,1,171.9 c5 Rise,0,0
4,0.23,0,0,244,22.5,180,0,0,0,0,0,1,171.5 c5 Fall,0,0
4,0.24,0,0,244,90,112.5,0,0,0,0,0,1,171.5 c5 Fall,0,0
4,0.25,0,0,244,112.5,123.8,0,0,0,0,0,1,171.5 c5 Fall,0,0
4,0.26,0,0,244,270,0,0,0,0,0,0,1,171.5 c5 Fall,0,0
4,0.27,0,0,244,281.25,0,0,0,0,0,0,6,0.1 s0.04 a -0 L,0,0
4,0.28,0,0,244,22.5,0,0,0,0,0,0,6,NC 1 Heata -0 L,0,0
4,0.29,0,0,233,11.25,0,0,0,0,0,0,6,NC 3 Heata -0 L,0,0
4,0.3,0,0,242,0,0,0,0,0,0,0,6,NC 5 Heata -0 L,0,0
4,0.31,0,0,244,146.25,168.8,0,0,0,0,0,2,NC 0 Donea -0 L,0,0
4,0.32,0,0,233,135,101.2,0,0,2,0,0,2,t-1.08 Left-0 L,0,0
4,0.33,0,0,242,112.5,101.2,0,0,2,0,0,2,t-1.08 Left-0 L,0,0
4,0.34,0,0,229,101.25,22.5,22.5,0,2,0,0,2,t-1.08 Left-0 L,0,0
4,0.35,0,0,233,337.5,0,33.8,0,0,2,0,2,t0.56 Right-0 L,0,0
4,0.36,0,0,242,247.5,0,67.5,0,0,2,0,2,t0.56 Right-0 L,0,0
4,0.37,0,0,233,236.25,0,56.2,0,0,2,0,2,t2.76 Right-0 L,0,0
4,0.38,0,0,233,56.25,180,45,0,2,0,0,2,t-0.39 Left-0 L,0,0
4,0.39,0,0,233,33.75,180,11.2,0,0,0,0,2,t0.10 Forward L,0,0
4,0.41,0,0,233,56.25,180,22.5,0,0,0,0,2,t-0.04 ForwardL,0,0
4,0.42,0,0,233,56.25,180,0,0,0,0,0,2,t-0.33 ForwardL,0,0
4,0.43,0,0,242,45,0,0,0,0,0,0,2,t-0.33 ForwardL,0,0
4,0.44,0,0,229,33.75,0,0,0,0,0,0,2,t-0.33 ForwardL,0,0
4,0.45,0,0,233,33.75,0,0,0,0,0,0,2,t0.25 ForwardL,0,0
4,0.46,0,0,244,22.5,0,0,0,0,0,1,2,stack leftrdL,0,0
4,0.47,0,0,233,22.5,0,0,0,0,0,1,2,stack leftrdL,0,0
4,0.48,0,0,242,11.25,0,0,0,0,0,1,2,stack leftrdL,0,0
4,0.49,0,0,229,0,0,0,0,0,0,1,2,stack leftrdL,0,0
4,0.5,0,0,87,0,0,0,0,0,0,1,2,stack leftrdL,0,0
4,0.51,0,0,244,0,0,0,0,0,0,1,2,stack leftrdL,0,0
4,0.52,0,0,244,0,0,0,0,0,0,1,2,stack leftrdL,0,0
4,0.53,0,0,244,0,0,0,0,0,0,1,2,stack leftrdL,0,0
4,0.54,34801604,135770979,6,0,0,0,0,0,0,1,2,stack leftrdL,34.801604,135.770979
4,0.55,34801604,135770979,6,0,0,0,0,0,0,1,2,stack leftrdL,34.801604,135.770979
4,0.56,34801603,135770979,6,0,0,0,0,0,0,1,2,stack leftrdL,34.801603,135.770979
4,0.57,34801602,135770978,6,0,0,0,0,0,0,1,2,stack leftrdL,34.801602,135.770978
4,0.58,34801602,135770978,6,0,0,0,0,0,0,1,2,stack leftrdL,34.801602,135.770978
4,0.59,34801594,135770981,6,0,0,0,0,0,0,1,2,stack leftrdL,34.801594,135.770981
4,1,34801594,135770981,6,0,0,0,0,0,0,1,2,stack leftrdL,34.801594,135.770981
4,1.1,34801592,135770981,5,0,0,0,0,0,0,1,2,stack leftrdL,34.801592,135.770981
4,1.2,34801589,135770979,6,0,0,0,0,0,0,1,2,stack leftrdL,34.801589,135.770979
4,1.3,34801586,135770976,6,0,180,0,0,2,0,0,2,t-1.70 Leftk cn,34.801586,135.770976
4,1.4,34801586,135770976,6,0,0,0,0,2,0,0,2,t-1.70 Leftk cn,34.801586,135.770976
4,1.5,34801585,135770975,6,11.25,0,0,0,2,0,0,2,t-1.64 Leftk cn,34.801585,135.770975
4,1.7,34801585,135770975,6,348.75,0,0,0,2,0,0,2,t-1.64 Leftk cn,34.801585,135.770975
4,1.8,34801585,135770975,6,348.75,0,0,0,2,0,0,2,t-1.64 Leftk cn,34.801585,135.770975
4,1.9,34801585,135770975,6,348.75,0,0,0,2,0,0,2,t-1.64 Leftk cn,34.801585,135.770975
4,1.1,34801585,135770975,6,348.75,0,0,0,2,0,0,2,t-1.64 Leftk cn,34.801585,135.770975
4,1.11,34801585,135770975,6,337.5,0,0,0,2,0,0,2,t-1.64 Leftk cn,34.801585,135.770975
4,1.12,34801585,135770975,6,337.5,0,0,0,2,0,0,2,t-1.64 Leftk cn,34.801585,135.770975
4,1.13,34801585,135770975,6,337.5,0,0,0,2,0,0,2,t-1.64 Leftk cn,34.801585,135.770975
4,1.14,34801587,135770973,6,337.5,0,0,0,2,0,0,2,t-1.38 Leftk cn,34.801587,135.770973
4,1.15,34801588,135770972,6,337.5,0,0,0,2,0,0,2,t-1.34 Leftk cn,34.801588,135.770972
4,1.16,34801588,135770972,6,337.5,0,0,0,2,0,0,2,t-1.34 Leftk cn,34.801588,135.770972
4,1.17,34801588,135770972,6,326.25,0,0,0,2,0,0,2,t-1.34 Leftk cn,34.801588,135.770972
4,1.18,34801592,135770971,7,326.25,0,0,0,2,0,0,2,t-0.97 Leftk cn,34.801592,135.770971
4,1.19,34801592,135770971,7,326.25,0,0,0,2,0,0,2,t-0.97 Leftk cn,34.801592,135.770971
4,1.2,34801592,135770971,6,315,0,0,0,2,0,0,2,t-0.97 Leftk cn,34.801592,135.770971
4,1.21,34801592,135770971,6,315,0,0,0,2,0,0,2,t-0.97 Leftk cn,34.801592,135.770971
4,1.22,34801592,135770971,6,315,0,0,0,2,0,0,2,t-0.97 Leftk cn,34.801592,135.770971
4,1.23,34801595,135770971,6,315,0,0,0,2,0,0,2,t-0.84 Leftk cn,34.801595,135.770971
4,1.24,34801595,135770971,6,326.25,0,0,0,2,0,0,2,t-0.84 Leftk cn,34.801595,135.770971
4,1.25,34801596,135770971,6,315,0,0,0,2,0,0,2,t-0.71 Leftk cn,34.801596,135.770971
4,1.26,34801596,135770971,6,315,0,0,0,2,0,0,2,t-0.71 Leftk cn,34.801596,135.770971
4,1.27,34801596,135770971,6,303.75,0,0,0,2,0,0,2,t-0.71 Leftk cn,34.801596,135.770971
4,1.28,34801598,135770970,7,326.25,0,0,0,2,0,0,2,t-0.55 Leftk cn,34.801598,135.77097
4,1.29,34801598,135770970,7,303.75,0,0,0,2,0,0,2,t-0.55 Leftk cn,34.801598,135.77097
4,1.3,34801598,135770970,7,281.25,0,0,0,2,0,0,2,t-0.55 Leftk cn,34.801598,135.77097
4,1.31,34801598,135770970,7,270,0,0,0,2,0,0,2,t-0.55 Leftk cn,34.801598,135.77097
4,1.33,34801599,135770970,7,292.5,180,0,0,0,0,0,2,t0.02 Forwardcn,34.801599,135.77097
4,1.34,34801599,135770969,7,303.75,0,0,0,0,0,0,2,t-0.08 Forwardn,34.801599,135.770969
4,1.35,34801599,135770969,7,258.75,0,0,0,0,0,0,2,t-0.08 Forwardn,34.801599,135.770969
4,1.36,34801599,135770969,7,247.5,0,0,0,0,0,0,2,t-0.08 Forwardn,34.801599,135.770969
4,1.37,34801599,135770969,7,247.5,0,0,0,0,0,0,2,t-0.08 Forwardn,34.801599,135.770969
4,1.38,34801599,135770969,7,247.5,0,0,0,0,0,0,2,t-0.08 Forwardn,34.801599,135.770969
4,1.39,34801599,135770969,7,236.25,0,0,0,0,0,0,2,t-0.08 Forwardn,34.801599,135.770969
4,1.4,34801599,135770969,7,236.25,0,0,0,0,0,0,2,t-0.08 Forwardn,34.801599,135.770969
4,1.41,34801603,135770970,6,236.25,0,0,0,0,2,0,2,t0.58 Rightrdn,34.801603,135.77097
4,1.42,34801603,135770970,6,247.5,0,0,0,0,2,0,2,t0.58 Rightrdn,34.801603,135.77097
4,1.43,34801603,135770970,7,236.25,0,0,0,0,2,0,2,t0.58 Rightrdn,34.801603,135.77097
4,1.44,34801604,135770972,6,225,0,0,0,0,2,0,2,t0.80 Rightrdn,34.801604,135.770972
4,1.45,34801604,135770972,6,236.25,0,0,0,0,2,0,2,t0.80 Rightrdn,34.801604,135.770972
4,1.46,34801604,135770974,6,236.25,0,0,0,0,2,0,2,t0.75 Rightrdn,34.801604,135.770974
4,1.47,34801604,135770974,6,236.25,0,0,0,0,2,0,2,t0.75 Rightrdn,34.801604,135.770974
4,1.48,34801604,135770975,6,225,0,0,0,0,2,0,2,t0.83 Rightrdn,34.801604,135.770975
4,1.49,34801604,135770975,6,236.25,0,0,0,0,2,0,2,t0.76 Rightrdn,34.801604,135.770975
4,1.5,34801604,135770976,6,236.25,0,0,0,0,2,0,2,t0.72 Rightrdn,34.801604,135.770976
4,1.51,34801604,135770976,6,236.25,0,0,0,0,2,0,2,t0.72 Rightrdn,34.801604,135.770976
4,1.52,34801603,135770976,6,225,0,0,0,0,2,0,2,t0.84 Rightrdn,34.801603,135.770976
4,1.53,34801603,135770976,6,236.25,0,0,0,0,2,0,2,t0.84 Rightrdn,34.801603,135.770976
4,1.54,34801603,135770976,6,225,0,0,0,0,2,0,2,t0.84 Rightrdn,34.801603,135.770976
4,1.55,34801603,135770976,6,225,0,0,0,0,2,0,2,t0.84 Rightrdn,34.801603,135.770976
4,1.56,34801603,135770976,6,225,0,0,0,0,2,0,2,t0.84 Rightrdn,34.801603,135.770976
4,1.57,34801603,135770976,6,225,0,0,0,0,2,0,2,t0.88 Rightrdn,34.801603,135.770976
4,1.59,34801603,135770976,6,236.25,0,0,0,0,2,0,2,t0.88 Rightrdn,34.801603,135.770976
4,2,34801603,135770976,6,225,0,0,0,0,2,0,2,t0.88 Rightrdn,34.801603,135.770976
4,2.1,34801603,135770976,6,225,0,0,0,0,2,0,2,t0.88 Rightrdn,34.801603,135.770976
4,2.2,34801603,135770976,6,225,0,0,0,0,2,0,2,t0.88 Rightrdn,34.801603,135.770976
4,2.3,34801603,135770976,6,225,0,0,0,0,2,0,2,t0.88 Rightrdn,34.801603,135.770976
4,2.4,34801604,135770977,6,236.25,0,0,0,0,2,0,2,t0.91 Rightrdn,34.801604,135.770977
4,2.5,34801604,135770978,6,236.25,0,0,0,0,2,0,2,t0.89 Rightrdn,34.801604,135.770978
4,2.6,34801604,135770978,6,225,0,0,0,0,2,0,2,t0.89 Rightrdn,34.801604,135.770978
4,2.7,34801604,135770978,6,225,0,0,0,0,2,0,2,t0.89 Rightrdn,34.801604,135.770978
4,2.8,34801604,135770978,6,225,0,0,0,0,2,0,2,t0.89 Rightrdn,34.801604,135.770978
4,2.9,34801604,135770978,6,225,0,0,0,0,2,0,2,t0.89 Rightrdn,34.801604,135.770978
4,2.1,34801605,135770979,6,225,0,0,0,0,2,0,2,t0.82 Rightrdn,34.801605,135.770979
4,2.11,34801605,135770979,6,225,0,0,0,0,2,0,2,t0.85 Rightrdn,34.801605,135.770979
4,2.12,34801605,135770979,6,225,0,0,0,0,2,0,2,t0.85 Rightrdn,34.801605,135.770979
4,2.13,34801605,135770979,6,225,0,0,0,0,2,0,2,t0.85 Rightrdn,34.801605,135.770979
4,2.14,34801605,135770978,6,225,0,0,0,0,2,0,2,t0.85 Rightrdn,34.801605,135.770978
4,2.15,34801604,135770978,6,225,0,0,0,0,2,0,2,t0.84 Rightrdn,34.801604,135.770978
4,2.16,34801604,135770978,6,225,0,0,0,0,2,0,2,t0.84 Rightrdn,34.801604,135.770978
4,2.17,34801605,135770978,6,225,0,0,0,0,2,0,2,t0.90 Rightrdn,34.801605,135.770978
4,2.18,34801605,135770978,6,236.25,0,0,0,0,2,0,2,t0.90 Rightrdn,34.801605,135.770978
4,2.19,34801605,135770978,6,225,0,0,0,0,2,0,2,t0.87 Rightrdn,34.801605,135.770978
4,2.2,34801605,135770978,6,236.25,0,0,0,0,2,0,2,t0.73 Rightrdn,34.801605,135.770978
4,2.21,34801605,135770978,6,236.25,0,0,0,0,2,0,2,t0.73 Rightrdn,34.801605,135.770978
4,2.22,34801605,135770978,6,236.25,0,0,0,0,2,0,2,t0.73 Rightrdn,34.801605,135.770978
4,2.23,34801605,135770979,6,236.25,0,0,0,0,2,0,2,t0.68 Rightrdn,34.801605,135.770979
4,2.25,34801605,135770979,6,236.25,0,0,0,0,2,0,2,t0.64 Rightrdn,34.801605,135.770979
4,2.26,34801605,135770979,6,236.25,0,0,0,0,2,0,2,t0.63 Rightrdn,34.801605,135.770979
4,2.27,34801605,135770979,6,236.25,0,0,0,0,2,0,2,t0.63 Rightrdn,34.801605,135.770979
4,2.28,34801605,135770980,6,236.25,0,0,0,0,2,0,2,t0.63 Rightk cn,34.801605,135.77098
4,2.29,34801605,135770980,6,236.25,0,0,0,0,2,0,2,t0.63 Rightk cn,34.801605,135.77098
4,2.3,34801605,135770980,6,236.25,0,0,0,0,2,0,2,t0.64 Rightk cn,34.801605,135.77098
4,2.31,34801605,135770980,6,236.25,0,0,0,0,2,0,2,t0.64 Rightk cn,34.801605,135.77098
4,2.32,34801605,135770980,6,236.25,0,0,0,0,2,0,2,t0.64 Rightk cn,34.801605,135.77098
4,2.33,34801605,135770980,6,236.25,0,0,0,0,2,0,2,t0.63 Rightk cn,34.801605,135.77098
4,2.34,34801605,135770980,6,236.25,0,0,0,0,2,0,2,t0.64 Rightk cn,34.801605,135.77098
4,2.35,34801605,135770980,6,236.25,0,0,0,0,2,0,2,t0.65 Rightk cn,34.801605,135.77098
4,2.36,34801605,135770981,6,236.25,0,0,0,0,2,0,2,t0.66 Rightk cn,34.801605,135.770981
4,2.37,34801605,135770981,6,236.25,0,0,0,0,2,0,2,t0.65 Rightk cn,34.801605,135.770981
4,2.38,34801605,135770981,6,236.25,0,0,0,0,2,0,2,t0.66 Rightk cn,34.801605,135.770981
4,2.39,34801605,135770981,6,236.25,0,0,0,0,2,0,2,t0.65 Rightk cn,34.801605,135.770981
4,2.4,34801605,135770981,6,236.25,0,0,0,0,2,0,2,t0.66 Rightk cn,34.801605,135.770981
4,2.41,34801605,135770982,5,236.25,0,0,0,0,2,0,2,t0.66 Rightk cn,34.801605,135.770982
4,2.42,34801605,135770982,5,236.25,0,0,0,0,2,0,2,t0.66 Rightk cn,34.801605,135.770982
4,2.43,34801604,135770982,5,236.25,0,0,0,0,2,0,2,t0.65 Rightk cn,34.801604,135.770982
4,2.44,34801604,135770982,5,236.25,0,0,0,0,2,0,2,t0.65 Rightk cn,34.801604,135.770982
4,2.45,34801604,135770983,5,236.25,0,0,0,0,2,0,2,t0.65 Rightk cn,34.801604,135.770983
4,2.46,34801604,135770983,5,236.25,0,0,0,0,2,0,2,t0.65 Rightk cn,34.801604,135.770983
4,2.47,34801604,135770983,5,236.25,0,0,0,0,2,0,2,t0.65 Rightk cn,34.801604,135.770983
4,2.48,34801604,135770983,5,236.25,0,0,0,0,2,0,2,t0.65 Rightk cn,34.801604,135.770983
4,2.49,34801604,135770983,5,236.25,0,0,0,0,2,0,2,t0.64 Rightk cn,34.801604,135.770983
4,2.51,34801604,135770983,5,236.25,0,0,0,0,2,0,2,t0.64 Rightk cn,34.801604,135.770983
4,2.52,34801604,135770983,5,236.25,0,0,0,0,2,0,2,t0.63 Rightk cn,34.801604,135.770983
4,2.53,34801604,135770983,5,236.25,0,0,0,0,2,0,2,t0.63 Rightk cn,34.801604,135.770983
4,2.54,34801604,135770983,5,236.25,0,0,0,0,2,0,2,t0.62 Rightk cn,34.801604,135.770983
4,2.55,34801604,135770983,5,236.25,0,0,0,0,2,0,2,t0.62 Rightk cn,34.801604,135.770983
4,2.56,34801604,135770983,5,236.25,0,0,0,0,2,0,2,t0.62 Rightk cn,34.801604,135.770983
4,2.57,34801604,135770983,5,236.25,0,0,0,0,2,0,2,t0.62 Rightk cn,34.801604,135.770983
4,2.58,34801604,135770982,5,236.25,0,0,0,0,2,0,2,t0.76 Rightk cn,34.801604,135.770982
4,2.59,34801604,135770982,5,236.25,0,0,0,0,2,0,2,t0.76 Rightk cn,34.801604,135.770982
4,3,34801604,135770982,5,236.25,0,0,0,0,2,0,2,t0.75 Rightk cn,34.801604,135.770982
4,3.1,34801604,135770982,5,236.25,0,0,0,0,2,0,2,t0.70 Rightk cn,34.801604,135.770982
4,3.2,34801604,135770982,5,236.25,0,0,0,0,2,0,2,t0.67 Rightk cn,34.801604,135.770982
4,3.3,34801604,135770982,5,236.25,0,0,0,0,2,0,2,t0.65 Rightk cn,34.801604,135.770982
4,3.4,34801604,135770982,5,236.25,0,0,0,0,2,0,2,t0.63 Rightk cn,34.801604,135.770982
4,3.5,34801604,135770982,5,236.25,0,0,0,0,2,0,2,t0.61 Rightk cn,34.801604,135.770982
4,3.6,34801603,135770982,5,247.5,0,0,0,0,2,0,2,t0.59 Rightk cn,34.801603,135.770982
4,3.7,34801603,135770982,5,236.25,0,0,0,0,2,0,2,t0.59 Rightk cn,34.801603,135.770982
4,3.8,34801603,135770981,6,236.25,0,0,0,0,2,0,2,t0.59 Rightk cn,34.801603,135.770981
4,3.9,34801604,135770981,6,236.25,0,0,0,0,2,0,2,t0.62 Rightk cn,34.801604,135.770981
4,3.1,34801604,135770981,6,236.25,0,0,0,0,2,0,2,t0.61 Rightk cn,34.801604,135.770981
4,3.11,34801604,135770981,6,236.25,0,0,0,0,2,0,2,t0.62 Rightk cn,34.801604,135.770981
4,3.12,34801604,135770981,6,236.25,0,0,0,0,2,0,2,t0.61 Rightk cn,34.801604,135.770981
4,3.13,34801604,135770981,6,236.25,0,0,0,0,2,0,2,t0.62 Rightk cn,34.801604,135.770981
4,3.14,34801604,135770981,6,236.25,0,0,0,0,2,0,2,t0.61 Rightk cn,34.801604,135.770981
4,3.15,34801604,135770981,6,236.25,0,0,0,0,2,0,2,t0.62 Rightk cn,34.801604,135.770981
4,3.17,34801604,135770981,6,236.25,0,0,0,0,2,0,2,t0.61 Rightk cn,34.801604,135.770981
4,3.18,34801604,135770981,6,247.5,0,0,0,0,2,0,2,t0.60 Rightk cn,34.801604,135.770981
4,3.19,34801604,135770981,5,247.5,0,0,0,0,2,0,2,t0.60 Rightk cn,34.801604,135.770981
4,3.2,34801604,135770981,5,236.25,0,0,0,0,2,0,2,t0.60 Rightk cn,34.801604,135.770981
4,3.21,34801604,135770981,6,236.25,0,0,0,0,2,0,2,t0.60 Rightk cn,34.801604,135.770981
4,3.22,34801604,135770981,6,236.25,0,0,0,0,2,0,2,t0.60 Rightk cn,34.801604,135.770981
4,3.23,34801604,135770981,6,236.25,0,0,0,0,2,0,2,t0.75 Rightk cn,34.801604,135.770981
4,3.24,34801604,135770981,6,236.25,0,0,0,0,2,0,2,t0.70 Rightk cn,34.801604,135.770981
4,3.25,34801604,135770980,6,236.25,0,0,0,0,2,0,2,t0.68 Rightk cn,34.801604,135.77098
4,3.26,34801604,135770980,6,236.25,0,0,0,0,2,0,2,t0.66 Rightk cn,34.801604,135.77098
4,3.27,34801604,135770980,6,236.25,0,0,0,0,2,0,2,t0.65 Rightk cn,34.801604,135.77098
4,3.28,34801605,135770980,6,236.25,0,0,0,0,2,0,2,t0.67 Rightk cn,34.801605,135.77098
4,3.29,34801605,135770980,6,236.25,0,0,0,0,2,0,2,t0.66 Rightk cn,34.801605,135.77098
4,3.3,34801605,135770979,6,236.25,0,0,0,0,2,0,2,t0.66 Rightk cn,34.801605,135.770979
4,3.31,34801605,135770979,6,236.25,0,0,0,0,2,0,2,t0.65 Rightk cn,34.801605,135.770979
4,3.32,34801605,135770979,6,236.25,0,0,0,0,2,0,2,t0.64 Rightk cn,34.801605,135.770979
4,3.33,34801605,135770979,6,236.25,0,0,0,0,2,0,2,t0.64 Rightk cn,34.801605,135.770979
4,3.34,34801605,135770978,6,236.25,0,0,0,0,2,0,2,t0.74 Rightk cn,34.801605,135.770978
4,3.35,34801605,135770978,6,236.25,0,0,0,0,2,0,2,t0.74 Rightk cn,34.801605,135.770978
4,3.36,34801605,135770978,6,236.25,0,0,0,0,2,0,2,t0.74 Rightk cn,34.801605,135.770978
4,3.37,34801605,135770978,6,236.25,0,0,0,0,2,0,2,t0.74 Rightk cn,34.801605,135.770978
4,3.38,34801605,135770978,6,236.25,0,0,0,0,2,0,2,t0.78 Rightk cn,34.801605,135.770978
4,3.39,34801606,135770978,6,236.25,0,0,0,0,2,0,2,t0.72 Rightk cn,34.801606,135.770978
4,3.4,34801606,135770978,6,236.25,0,0,0,0,2,0,2,t0.69 Rightk cn,34.801606,135.770978
4,3.41,34801606,135770977,6,236.25,0,0,0,0,2,0,2,t0.67 Rightk cn,34.801606,135.770977
4,3.43,34801606,135770977,6,236.25,0,0,0,0,2,0,2,t0.65 Rightk cn,34.801606,135.770977
4,3.44,34801606,135770977,6,258.75,0,0,0,0,2,0,2,t0.51 Rightk cn,34.801606,135.770977
4,3.45,34801606,135770977,6,236.25,0,0,0,0,2,0,2,t0.66 Rightk cn,34.801606,135.770977
4,3.46,34801606,135770977,6,236.25,0,0,0,0,2,0,2,t0.65 Rightk cn,34.801606,135.770977
4,3.47,34801606,135770977,6,236.25,0,0,0,0,2,0,2,t0.64 Rightk cn,34.801606,135.770977
4,3.48,34801606,135770977,6,236.25,0,0,0,0,2,0,2,t0.64 Rightk cn,34.801606,135.770977
4,3.49,34801606,135770977,6,236.25,0,0,0,0,2,0,2,t0.73 Rightk cn,34.801606,135.770977
4,3.5,34801606,135770977,6,247.5,0,0,0,0,2,0,2,t0.60 Rightk cn,34.801606,135.770977
4,3.51,34801606,135770977,6,247.5,0,0,0,0,2,0,2,t0.63 Rightk cn,34.801606,135.770977
4,3.52,34801606,135770977,6,247.5,0,0,0,0,2,0,2,t0.64 Rightk cn,34.801606,135.770977
4,3.53,34801606,135770977,6,247.5,0,0,0,0,2,0,2,t0.63 Rightk cn,34.801606,135.770977
4,3.54,34801606,135770977,6,247.5,0,0,0,0,2,0,2,t0.61 Rightk cn,34.801606,135.770977
4,3.55,34801606,135770977,6,247.5,0,0,0,0,2,0,2,t0.60 Rightk cn,34.801606,135.770977
4,3.56,34801606,135770977,6,247.5,0,0,0,0,2,0,2,t0.59 Rightk cn,34.801606,135.770977
4,3.57,34801606,135770977,6,247.5,0,0,0,0,2,0,2,t0.59 Rightk cn,34.801606,135.770977
4,3.58,34801606,135770977,6,247.5,0,0,0,0,2,0,2,t0.59 Rightk cn,34.801606,135.770977
4,3.59,34801606,135770977,6,236.25,0,0,0,0,2,0,2,t0.59 Rightk cn,34.801606,135.770977
4,4,34801606,135770977,6,236.25,0,0,0,0,2,0,2,t0.73 Rightk cn,34.801606,135.770977
4,4.1,34801606,135770977,6,236.25,0,0,0,0,2,0,2,t0.67 Rightk cn,34.801606,135.770977
4,4.2,34801606,135770977,6,236.25,0,0,0,0,2,0,2,t0.64 Rightk cn,34.801606,135.770977
4,4.3,34801606,135770977,6,247.5,0,0,0,0,2,0,2,t0.62 Rightk cn,34.801606,135.770977
4,4.4,34801606,135770976,6,247.5,0,0,0,0,2,0,2,t0.60 Rightk cn,34.801606,135.770976
4,4.5,34801606,135770976,6,247.5,0,0,0,0,2,0,2,t0.61 Rightk cn,34.801606,135.770976
4,4.6,34801606,135770976,6,247.5,0,0,0,0,2,0,2,t0.59 Rightk cn,34.801606,135.770976
4,4.7,34801605,135770976,6,247.5,0,0,0,0,2,0,2,t0.57 Rightk cn,34.801605,135.770976
4,4.9,34801605,135770976,6,247.5,0,0,0,0,2,0,2,t0.57 Rightk cn,34.801605,135.770976
4,4.1,34801605,135770976,6,247.5,0,0,0,0,2,0,2,t0.58 Rightk cn,34.801605,135.770976
4,4.11,34801605,135770976,6,247.5,0,0,0,0,2,0,2,t0.58 Rightk cn,34.801605,135.770976
4,4.12,34801605,135770976,6,258.75,0,0,0,0,2,0,2,t0.44 Rightk cn,34.801605,135.770976
4,4.13,34801605,135770976,6,258.75,0,0,0,0,2,0,2,t0.53 Rightk cn,34.801605,135.770976
4,4.14,34801605,135770975,6,247.5,0,0,0,0,2,0,2,t0.57 Rightk cn,34.801605,135.770975
4,4.15,34801605,135770975,6,247.5,0,0,0,0,2,0,2,t0.60 Rightk cn,34.801605,135.770975
4,4.16,34801605,135770975,6,247.5,0,0,0,0,2,0,2,t0.61 Rightk cn,34.801605,135.770975
4,4.17,34801605,135770975,6,247.5,0,0,0,0,2,0,2,t0.61 Rightk cn,34.801605,135.770975
4,4.18,34801605,135770975,6,247.5,0,0,0,0,2,0,2,t0.63 Rightk cn,34.801605,135.770975
4,4.19,34801605,135770975,6,247.5,0,0,0,0,2,0,2,t0.62 Rightk cn,34.801605,135.770975
4,4.2,34801605,135770975,6,247.5,0,0,0,0,2,0,2,t0.61 Rightk cn,34.801605,135.770975
4,4.21,34801605,135770975,6,236.25,0,0,0,0,2,0,2,t0.61 Rightk cn,34.801605,135.770975
4,4.22,34801605,135770975,6,236.25,0,0,0,0,2,0,2,t0.61 Rightk cn,34.801605,135.770975
4,4.23,34801605,135770975,6,236.25,0,0,0,0,2,0,2,t0.61 Rightk cn,34.801605,135.770975
4,4.24,34801605,135770975,6,236.25,0,0,0,0,2,0,2,t0.61 Rightk cn,34.801605,135.770975
4,4.25,34801606,135770976,6,247.5,0,0,0,0,2,0,2,t0.76 Rightk cn,34.801606,135.770976
4,4.26,34801606,135770976,6,236.25,0,0,0,0,2,0,2,t0.76 Rightk cn,34.801606,135.770976
4,4.27,34801606,135770976,6,236.25,0,0,0,0,2,0,2,t0.74 Rightk cn,34.801606,135.770976
4,4.28,34801606,135770976,6,236.25,0,0,0,0,2,0,2,t0.67 Rightk cn,34.801606,135.770976
4,4.29,34801606,135770976,6,236.25,0,0,0,0,2,0,2,t0.63 Rightk cn,34.801606,135.770976
4,4.3,34801606,135770976,6,247.5,0,0,0,0,2,0,2,t0.61 Rightk cn,34.801606,135.770976
4,4.31,34801606,135770976,6,247.5,0,0,0,0,2,0,2,t0.59 Rightk cn,34.801606,135.770976
4,4.32,34801606,135770976,6,247.5,0,0,0,0,2,0,2,t0.59 Rightk cn,34.801606,135.770976
4,4.33,34801606,135770976,6,247.5,0,0,0,0,2,0,2,t0.58 Rightk cn,34.801606,135.770976
4,4.35,34801606,135770976,6,247.5,0,0,0,0,2,0,2,t0.60 Rightk cn,34.801606,135.770976
4,4.36,34801607,135770976,6,247.5,0,0,0,0,2,0,2,t0.61 Rightk cn,34.801607,135.770976
4,4.37,34801607,135770976,6,247.5,0,0,0,0,2,0,2,t0.60 Rightk cn,34.801607,135.770976
4,4.38,34801607,135770976,6,258.75,0,0,0,0,2,0,2,t0.45 Rightk cn,34.801607,135.770976
4,4.39,34801607,135770976,6,258.75,0,0,0,0,2,0,2,t0.53 Rightk cn,34.801607,135.770976
4,4.4,34801607,135770976,6,258.75,0,0,0,0,2,0,2,t0.57 Rightk cn,34.801607,135.770976
4,4.41,34801607,135770976,6,247.5,0,0,0,0,2,0,2,t0.60 Rightk cn,34.801607,135.770976
4,4.42,34801607,135770976,6,247.5,0,0,0,0,2,0,2,t0.60 Rightk cn,34.801607,135.770976
4,4.43,34801607,135770976,6,247.5,0,0,0,0,2,0,2,t0.60 Rightk cn,34.801607,135.770976
4,4.44,34801607,135770976,6,247.5,0,0,0,0,2,0,2,t0.61 Rightk cn,34.801607,135.770976
4,4.45,34801607,135770976,6,258.75,0,0,0,0,2,0,2,t0.59 Rightk cn,34.801607,135.770976
4,4.46,34801607,135770976,6,247.5,0,0,0,0,2,0,2,t0.59 Rightk cn,34.801607,135.770976
4,4.47,34801607,135770976,6,236.25,0,0,0,0,2,0,2,t0.59 Rightk cn,34.801607,135.770976
4,4.48,34801607,135770976,6,236.25,0,0,0,0,2,0,2,t0.59 Rightk cn,34.801607,135.770976
4,4.49,34801607,135770976,6,236.25,0,0,0,0,2,0,2,t0.59 Rightk cn,34.801607,135.770976
4,4.5,34801607,135770976,6,236.25,0,0,0,0,2,0,2,t0.59 Rightk cn,34.801607,135.770976
4,4.51,34801607,135770976,6,236.25,0,0,0,0,2,0,2,t0.59 Rightk cn,34.801607,135.770976
4,4.52,34801607,135770976,6,236.25,0,0,0,0,2,0,2,t0.59 Rightk cn,34.801607,135.770976
4,4.53,34801607,135770976,6,236.25,0,0,0,0,2,0,2,t0.59 Rightk cn,34.801607,135.770976
4,4.54,34801607,135770977,6,247.5,0,0,0,0,2,0,2,t0.61 Rightk cn,34.801607,135.770977
4,4.55,34801607,135770977,6,247.5,0,0,0,0,2,0,2,t0.61 Rightk cn,34.801607,135.770977
4,4.56,34801607,135770977,6,247.5,0,0,0,0,2,0,2,t0.61 Rightk cn,34.801607,135.770977
4,4.57,34801607,135770977,6,247.5,0,0,0,0,2,0,2,t0.60 Rightk cn,34.801607,135.770977
4,4.58,34801607,135770977,6,247.5,0,0,0,0,2,0,2,t0.59 Rightk cn,34.801607,135.770977
4,4.59,34801607,135770977,6,247.5,0,0,0,0,2,0,2,t0.59 Rightk cn,34.801607,135.770977
4,5.1,34801607,135770977,6,247.5,0,0,0,0,2,0,2,t0.59 Rightk cn,34.801607,135.770977
4,5.2,34801607,135770976,6,247.5,0,0,0,0,2,0,2,t0.58 Rightk cn,34.801607,135.770976
4,5.3,34801607,135770976,6,247.5,0,0,0,0,2,0,2,t0.58 Rightk cn,34.801607,135.770976
4,5.4,34801607,135770976,6,236.25,0,0,0,0,2,0,2,t0.58 Rightk cn,34.801607,135.770976
4,5.5,34801607,135770976,6,236.25,0,0,0,0,2,0,2,t0.58 Rightk cn,34.801607,135.770976
4,5.6,34801608,135770976,6,247.5,0,0,0,0,2,0,2,t0.77 Rightk cn,34.801608,135.770976
4,5.7,34801608,135770976,6,236.25,0,0,0,0,2,0,2,t0.77 Rightk cn,34.801608,135.770976
4,5.8,34801608,135770976,6,247.5,0,0,0,0,2,0,2,t0.76 Rightk cn,34.801608,135.770976
4,5.9,34801608,135770976,6,247.5,0,0,0,0,2,0,2,t0.72 Rightk cn,34.801608,135.770976
4,5.1,34801608,135770976,6,247.5,0,0,0,0,2,0,2,t0.68 Rightk cn,34.801608,135.770976
4,5.11,34801608,135770976,6,247.5,0,0,0,0,2,0,2,t0.67 Rightk cn,34.801608,135.770976
4,5.12,34801608,135770976,6,247.5,0,0,0,0,2,0,2,t0.66 Rightk cn,34.801608,135.770976
4,5.13,34801608,135770976,6,247.5,0,0,0,0,2,0,2,t0.64 Rightk cn,34.801608,135.770976
4,5.14,34801608,135770976,6,247.5,0,0,0,0,2,0,2,t0.62 Rightk cn,34.801608,135.770976
4,5.15,34801608,135770976,6,236.25,0,0,0,0,2,0,2,t0.62 Rightk cn,34.801608,135.770976
4,5.16,34801608,135770976,6,236.25,0,0,0,0,2,0,2,t0.62 Rightk cn,34.801608,135.770976
4,5.17,34801608,135770976,6,236.25,0,0,0,0,2,0,2,t0.62 Rightk cn,34.801608,135.770976
4,5.18,34801608,135770976,6,236.25,0,0,0,0,2,0,2,t0.62 Rightk cn,34.801608,135.770976
4,5.19,34801608,135770976,6,236.25,0,0,0,0,2,0,2,t0.62 Rightk cn,34.801608,135.770976
4,5.2,34801608,135770976,6,236.25,0,0,0,0,2,0,2,t0.77 Rightk cn,34.801608,135.770976
4,5.21,34801608,135770976,6,236.25,0,0,0,0,2,0,2,t0.71 Rightk cn,34.801608,135.770976
4,5.22,34801608,135770976,6,236.25,0,0,0,0,2,0,2,t0.68 Rightk cn,34.801608,135.770976
4,5.23,34801608,135770976,6,236.25,0,0,0,0,2,0,2,t0.66 Rightk cn,34.801608,135.770976
4,5.24,34801608,135770976,6,236.25,0,0,0,0,2,0,2,t0.66 Rightk cn,34.801608,135.770976
4,5.25,34801608,135770976,6,236.25,0,0,0,0,2,0,2,t0.66 Rightk cn,34.801608,135.770976
4,5.27,34801608,135770976,6,236.25,0,0,0,0,2,0,2,t0.66 Rightk cn,34.801608,135.770976
4,5.28,34801608,135770976,6,236.25,0,0,0,0,2,0,2,t0.66 Rightk cn,34.801608,135.770976
4,5.29,34801608,135770976,6,236.25,0,0,0,0,2,0,2,t0.79 Rightk cn,34.801608,135.770976
4,5.3,34801608,135770976,6,236.25,0,0,0,0,2,0,2,t0.71 Rightk cn,34.801608,135.770976
4,5.31,34801608,135770976,6,236.25,0,0,0,0,2,0,2,t0.71 Rightk cn,34.801608,135.770976
4,5.32,34801608,135770976,6,247.5,0,0,0,0,2,0,2,t0.72 Rightk cn,34.801608,135.770976
4,5.33,34801608,135770976,6,247.5,0,0,0,0,2,0,2,t0.68 Rightk cn,34.801608,135.770976
4,5.34,34801608,135770976,6,236.25,0,0,0,0,2,0,2,t0.68 Rightk cn,34.801608,135.770976
4,5.35,34801608,135770976,6,247.5,0,0,0,0,2,0,2,t0.74 Rightk cn,34.801608,135.770976
4,5.36,34801608,135770976,6,236.25,0,0,0,0,2,0,2,t0.74 Rightk cn,34.801608,135.770976
4,5.37,34801608,135770976,6,236.25,0,0,0,0,2,0,2,t0.74 Rightk cn,34.801608,135.770976
4,5.38,34801608,135770976,6,236.25,0,0,0,0,2,0,2,t0.74 Rightk cn,34.801608,135.770976
4,5.39,34801608,135770976,6,247.5,0,0,0,0,2,0,2,t0.78 Rightk cn,34.801608,135.770976
4,5.4,34801608,135770976,6,247.5,0,0,0,0,2,0,2,t0.72 Rightk cn,34.801608,135.770976
4,5.41,34801608,135770976,6,247.5,0,0,0,0,2,0,2,t0.69 Rightk cn,34.801608,135.770976
4,5.42,34801608,135770976,6,236.25,0,0,0,0,2,0,2,t0.69 Rightk cn,34.801608,135.770976
4,5.43,34801608,135770976,6,236.25,0,0,0,0,2,0,2,t0.69 Rightk cn,34.801608,135.770976
4,5.44,34801608,135770976,6,236.25,0,0,0,0,2,0,2,t0.69 Rightk cn,34.801608,135.770976
4,5.45,34801608,135770976,6,236.25,0,0,0,0,2,0,2,t0.69 Rightk cn,34.801608,135.770976
4,5.46,34801608,135770976,6,236.25,0,0,0,0,2,0,2,t0.69 Rightk cn,34.801608,135.770976
4,5.47,34801608,135770976,6,236.25,0,0,0,0,2,0,2,t0.69 Rightk cn,34.801608,135.770976
4,5.48,34801608,135770976,6,236.25,0,0,0,0,2,0,2,t0.78 Rightk cn,34.801608,135.770976
4,5.49,34801608,135770976,6,236.25,0,0,0,0,2,0,2,t0.71 Rightk cn,34.801608,135.770976
4,5.5,34801608,135770975,6,236.25,0,0,0,0,2,0,2,t0.68 Rightk cn,34.801608,135.770975
4,5.51,34801608,135770975,6,236.25,0,0,0,0,2,0,2,t0.67 Rightk cn,34.801608,135.770975
4,5.53,34801608,135770975,6,247.5,0,0,0,0,2,0,2,t0.67 Rightk cn,34.801608,135.770975
4,5.54,34801608,135770975,6,236.25,0,0,0,0,2,0,2,t0.73 Rightk cn,34.801608,135.770975
4,5.55,34801608,135770975,6,236.25,0,0,0,0,2,0,2,t0.73 Rightk cn,34.801608,135.770975
4,5.56,34801608,135770975,6,236.25,0,0,0,0,2,0,2,t0.73 Rightk cn,34.801608,135.770975
4,5.57,34801608,135770975,6,236.25,0,0,0,0,2,0,2,t0.73 Rightk cn,34.801608,135.770975
4,5.58,34801608,135770975,6,247.5,0,0,0,0,2,0,2,t0.77 Rightk cn,34.801608,135.770975
4,5.59,34801608,135770975,6,247.5,0,0,0,0,2,0,2,t0.71 Rightk cn,34.801608,135.770975
4,6,34801608,135770975,6,236.25,0,0,0,0,2,0,2,t0.71 Rightk cn,34.801608,135.770975
4,6.1,34801608,135770975,6,236.25,0,0,0,0,2,0,2,t0.71 Rightk cn,34.801608,135.770975
4,6.2,34801608,135770975,6,236.25,0,0,0,0,2,0,2,t0.71 Rightk cn,34.801608,135.770975
4,6.3,34801608,135770975,6,236.25,0,0,0,0,2,0,2,t0.71 Rightk cn,34.801608,135.770975
4,6.4,34801608,135770975,6,247.5,0,0,0,0,2,0,2,t0.78 Rightk cn,34.801608,135.770975
4,6.5,34801608,135770975,6,247.5,0,0,0,0,2,0,2,t0.73 Rightk cn,34.801608,135.770975
4,6.6,34801608,135770975,6,247.5,0,0,0,0,2,0,2,t0.70 Rightk cn,34.801608,135.770975
4,6.7,34801608,135770975,6,236.25,0,0,0,0,2,0,2,t0.70 Rightk cn,34.801608,135.770975
4,6.8,34801608,135770975,6,236.25,0,0,0,0,2,0,2,t0.70 Rightk cn,34.801608,135.770975
4,6.9,34801607,135770975,6,247.5,0,0,0,0,2,0,2,t0.62 Rightk cn,34.801607,135.770975
4,6.1,34801607,135770975,6,247.5,0,0,0,0,2,0,2,t0.62 Rightk cn,34.801607,135.770975
4,6.11,34801607,135770975,6,236.25,0,0,0,0,2,0,2,t0.73 Rightk cn,34.801607,135.770975
4,6.12,34801608,135770975,6,236.25,0,0,0,0,2,0,2,t0.71 Rightk cn,34.801608,135.770975
4,6.13,34801608,135770975,6,236.25,0,0,0,0,2,0,2,t0.71 Rightk cn,34.801608,135.770975
4,6.14,34801608,135770975,6,236.25,0,0,0,0,2,0,2,t0.76 Rightk cn,34.801608,135.770975
4,6.15,34801608,135770975,6,236.25,0,0,0,0,2,0,2,t0.76 Rightk cn,34.801608,135.770975
4,6.16,34801608,135770975,6,236.25,0,0,0,0,2,0,2,t0.76 Rightk cn,34.801608,135.770975
4,6.17,34801608,135770975,6,236.25,0,0,0,0,2,0,2,t0.76 Rightk cn,34.801608,135.770975
4,6.19,34801608,135770975,6,236.25,0,0,0,0,2,0,2,t0.80 Rightk cn,34.801608,135.770975
4,6.2,34801608,135770975,6,236.25,0,0,0,0,2,0,2,t0.73 Rightk cn,34.801608,135.770975
4,6.21,34801608,135770975,6,236.25,0,0,0,0,2,0,2,t0.73 Rightk cn,34.801608,135.770975
4,6.22,34801608,135770975,6,236.25,0,0,0,0,2,0,2,t0.73 Rightk cn,34.801608,135.770975
4,6.23,34801608,135770975,6,236.25,0,0,0,0,2,0,2,t0.73 Rightk cn,34.801608,135.770975
4,6.24,34801608,135770975,6,236.25,0,0,0,0,2,0,2,t0.73 Rightk cn,34.801608,135.770975
4,6.25,34801608,135770975,6,236.25,0,0,0,0,2,0,2,t0.73 Rightk cn,34.801608,135.770975
4,6.26,34801608,135770974,6,236.25,0,0,0,0,2,0,2,t0.80 Rightk cn,34.801608,135.770974
4,6.27,34801608,135770974,6,247.5,0,0,0,0,2,0,2,t0.75 Rightk cn,34.801608,135.770974
4,6.28,34801608,135770974,6,247.5,0,0,0,0,2,0,2,t0.71 Rightk cn,34.801608,135.770974
4,6.29,34801608,135770974,6,247.5,0,0,0,0,2,0,2,t0.69 Rightk cn,34.801608,135.770974
4,6.3,34801608,135770974,6,247.5,0,0,0,0,2,0,2,t0.67 Rightk cn,34.801608,135.770974
4,6.31,34801608,135770973,6,247.5,0,0,0,0,2,0,2,t0.66 Rightk cn,34.801608,135.770973
4,6.32,34801608,135770973,6,247.5,0,0,0,0,2,0,2,t0.66 Rightk cn,34.801608,135.770973
4,6.33,34801609,135770973,6,247.5,0,0,0,0,2,0,2,t0.67 Rightk cn,34.801609,135.770973
4,6.34,34801609,135770973,6,236.25,0,0,0,0,2,0,2,t0.67 Rightk cn,34.801609,135.770973
4,6.35,34801609,135770973,6,236.25,0,0,0,0,2,0,2,t0.67 Rightk cn,34.801609,135.770973
4,6.36,34801609,135770973,6,236.25,0,0,0,0,2,0,2,t0.79 Rightk cn,34.801609,135.770973
4,6.37,34801609,135770973,6,236.25,0,0,0,0,2,0,2,t0.74 Rightk cn,34.801609,135.770973
4,6.38,34801609,135770973,6,236.25,0,0,0,0,2,0,2,t0.74 Rightk cn,34.801609,135.770973
4,6.39,34801609,135770973,6,236.25,0,0,0,0,2,0,2,t0.74 Rightk cn,34.801609,135.770973
4,6.4,34801609,135770973,6,236.25,0,0,0,0,2,0,2,t0.74 Rightk cn,34.801609,135.770973
4,6.41,34801609,135770973,6,236.25,0,0,0,0,2,0,2,t0.74 Rightk cn,34.801609,135.770973
4,6.42,34801609,135770972,6,236.25,0,0,0,0,2,0,2,t0.83 Rightk cn,34.801609,135.770972
4,6.43,34801609,135770972,6,236.25,0,0,0,0,2,0,2,t0.75 Rightk cn,34.801609,135.770972
4,6.45,34801609,135770972,6,236.25,0,0,0,0,2,0,2,t0.72 Rightk cn,34.801609,135.770972
4,6.46,34801609,135770972,6,236.25,0,0,0,0,2,0,2,t0.71 Rightk cn,34.801609,135.770972
4,6.47,34801609,135770972,6,236.25,0,0,0,0,2,0,2,t0.71 Rightk cn,34.801609,135.770972
4,6.48,34801609,135770972,6,236.25,0,0,0,0,2,0,2,t0.77 Rightk cn,34.801609,135.770972
4,6.49,34801609,135770972,6,236.25,0,0,0,0,2,0,2,t0.73 Rightk cn,34.801609,135.770972
4,6.5,34801609,135770973,6,236.25,0,0,0,0,2,0,2,t0.72 Rightk cn,34.801609,135.770973
4,6.51,34801609,135770973,6,236.25,0,0,0,0,2,0,2,t0.71 Rightk cn,34.801609,135.770973
4,6.52,34801609,135770973,6,236.25,0,0,0,0,2,0,2,t0.71 Rightk cn,34.801609,135.770973
4,6.53,34801609,135770973,6,236.25,0,0,0,0,2,0,2,t0.71 Rightk cn,34.801609,135.770973
4,6.54,34801609,135770973,6,236.25,0,0,0,0,2,0,2,t0.71 Rightk cn,34.801609,135.770973
4,6.55,34801609,135770973,6,236.25,0,0,0,0,2,0,2,t0.71 Rightk cn,34.801609,135.770973
4,6.56,34801609,135770973,6,236.25,0,0,0,0,2,0,2,t0.81 Rightk cn,34.801609,135.770973
4,6.57,34801609,135770973,6,247.5,0,0,0,0,2,0,2,t0.75 Rightk cn,34.801609,135.770973
4,6.58,34801609,135770973,6,247.5,0,0,0,0,2,0,2,t0.72 Rightk cn,34.801609,135.770973
4,6.59,34801609,135770973,6,236.25,0,0,0,0,2,0,2,t0.72 Rightk cn,34.801609,135.770973
4,7,34801609,135770973,6,236.25,0,0,0,0,2,0,2,t0.72 Rightk cn,34.801609,135.770973
4,7.1,34801609,135770973,6,236.25,0,0,0,0,2,0,2,t0.72 Rightk cn,34.801609,135.770973
4,7.2,34801609,135770973,6,236.25,0,0,0,0,2,0,2,t0.72 Rightk cn,34.801609,135.770973
4,7.3,34801609,135770973,6,236.25,0,0,0,0,2,0,2,t0.83 Rightk cn,34.801609,135.770973
4,7.4,34801609,135770973,6,236.25,0,0,0,0,2,0,2,t0.77 Rightk cn,34.801609,135.770973
4,7.5,34801609,135770973,6,236.25,0,0,0,0,2,0,2,t0.77 Rightk cn,34.801609,135.770973
4,7.6,34801609,135770973,6,236.25,0,0,0,0,2,0,2,t0.80 Rightk cn,34.801609,135.770973
4,7.7,34801609,135770973,6,236.25,0,0,0,0,2,0,2,t0.80 Rightk cn,34.801609,135.770973
4,7.8,34801609,135770973,6,236.25,0,0,0,0,2,0,2,t0.81 Rightk cn,34.801609,135.770973
4,7.9,34801609,135770973,6,236.25,0,0,0,0,2,0,2,t0.81 Rightk cn,34.801609,135.770973
4,7.11,34801609,135770973,6,236.25,0,0,0,0,2,0,2,t0.79 Rightk cn,34.801609,135.770973
4,7.12,34801609,135770973,6,236.25,0,0,0,0,2,0,2,t0.73 Rightk cn,34.801609,135.770973
4,7.13,34801609,135770973,6,236.25,0,0,0,0,2,0,2,t0.73 Rightk cn,34.801609,135.770973
4,7.14,34801609,135770973,6,236.25,0,0,0,0,2,0,2,t0.73 Rightk cn,34.801609,135.770973
4,7.15,34801609,135770973,6,236.25,0,0,0,0,2,0,2,t0.73 Rightk cn,34.801609,135.770973
4,7.16,34801609,135770973,6,236.25,0,0,0,0,2,0,2,t0.73 Rightk cn,34.801609,135.770973
4,7.17,34801609,135770973,6,236.25,0,0,0,0,2,0,2,t0.82 Rightk cn,34.801609,135.770973
4,7.18,34801609,135770973,6,236.25,0,0,0,0,2,0,2,t0.82 Rightk cn,34.801609,135.770973
4,7.19,34801609,135770973,6,247.5,0,0,0,0,2,0,2,t0.77 Rightk cn,34.801609,135.770973
4,7.2,34801609,135770973,6,247.5,0,0,0,0,2,0,2,t0.73 Rightk cn,34.801609,135.770973
4,7.21,34801609,135770973,6,236.25,0,0,0,0,2,0,2,t0.73 Rightk cn,34.801609,135.770973
4,7.22,34801609,135770973,6,236.25,0,0,0,0,2,0,2,t0.73 Rightk cn,34.801609,135.770973
4,7.23,34801609,135770973,6,236.25,0,0,0,0,2,0,2,t0.79 Rightk cn,34.801609,135.770973
4,7.24,34801609,135770973,6,236.25,0,0,0,0,2,0,2,t0.79 Rightk cn,34.801609,135.770973
4,7.25,34801609,135770973,6,236.25,0,0,0,0,2,0,2,t0.79 Rightk cn,34.801609,135.770973
4,7.26,34801609,135770973,6,236.25,0,0,0,0,2,0,2,t0.79 Rightk cn,34.801609,135.770973
4,7.27,34801609,135770973,6,236.25,0,0,0,0,2,0,2,t0.79 Rightk cn,34.801609,135.770973
4,7.28,34801609,135770973,6,236.25,0,0,0,0,2,0,2,t0.79 Rightk cn,34.801609,135.770973
4,7.29,34801609,135770973,6,236.25,0,0,0,0,2,0,2,t0.81 Rightk cn,34.801609,135.770973
4,7.3,34801609,135770973,6,236.25,0,0,0,0,2,0,2,t0.74 Rightk cn,34.801609,135.770973
4,7.31,34801609,135770973,6,236.25,0,0,0,0,2,0,2,t0.70 Rightk cn,34.801609,135.770973
4,7.32,34801609,135770973,6,236.25,0,0,0,0,2,0,2,t0.70 Rightk cn,34.801609,135.770973
4,7.33,34801609,135770973,6,236.25,0,0,0,0,2,0,2,t0.70 Rightk cn,34.801609,135.770973
4,7.34,34801609,135770973,6,236.25,0,0,0,0,2,0,2,t0.70 Rightk cn,34.801609,135.770973
4,7.35,34801609,135770973,6,236.25,0,0,0,0,2,0,2,t0.81 Rightk cn,34.801609,135.770973
4,7.37,34801609,135770973,6,236.25,0,0,0,0,2,0,2,t0.81 Rightk cn,34.801609,135.770973
4,7.38,34801609,135770974,6,236.25,0,0,0,0,2,0,2,t0.80 Rightk cn,34.801609,135.770974
4,7.39,34801609,135770974,6,236.25,0,0,0,0,2,0,2,t0.74 Rightk cn,34.801609,135.770974
4,7.4,34801609,135770974,6,236.25,0,0,0,0,2,0,2,t0.74 Rightk cn,34.801609,135.770974
4,7.41,34801609,135770974,6,236.25,0,0,0,0,2,0,2,t0.74 Rightk cn,34.801609,135.770974
4,7.42,34801609,135770973,6,247.5,0,0,0,0,2,0,2,t0.78 Rightk cn,34.801609,135.770973
4,7.43,34801609,135770973,6,236.25,0,0,0,0,2,0,2,t0.78 Rightk cn,34.801609,135.770973
4,7.44,34801609,135770973,6,236.25,0,0,0,0,2,0,2,t0.79 Rightk cn,34.801609,135.770973
4,7.45,34801609,135770973,6,247.5,0,0,0,0,2,0,2,t0.75 Rightk cn,34.801609,135.770973
4,7.46,34801609,135770973,6,247.5,0,0,0,0,2,0,2,t0.71 Rightk cn,34.801609,135.770973
4,7.47,34801609,135770973,6,247.5,0,0,0,0,2,0,2,t0.69 Rightk cn,34.801609,135.770973
4,7.48,34801609,135770973,6,247.5,0,0,0,0,2,0,2,t0.68 Rightk cn,34.801609,135.770973
4,7.49,34801609,135770973,6,236.25,0,0,0,0,2,0,2,t0.68 Rightk cn,34.801609,135.770973
4,7.5,34801609,135770973,6,236.25,0,0,0,0,2,0,2,t0.68 Rightk cn,34.801609,135.770973
4,7.51,34801609,135770973,6,236.25,0,0,0,0,2,0,2,t0.68 Rightk cn,34.801609,135.770973
4,7.52,34801609,135770973,6,236.25,0,0,0,0,2,0,2,t0.68 Rightk cn,34.801609,135.770973
4,7.53,34801609,135770973,6,236.25,0,0,0,0,2,0,2,t0.68 Rightk cn,34.801609,135.770973
4,7.54,34801610,135770973,6,236.25,0,0,0,0,2,0,2,t0.83 Rightk cn,34.80161,135.770973
4,7.55,34801610,135770973,6,236.25,0,0,0,0,2,0,2,t0.76 Rightk cn,34.80161,135.770973
4,7.56,34801611,135770973,6,236.25,0,0,0,0,2,0,2,t0.73 Rightk cn,34.801611,135.770973
4,7.57,34801611,135770973,6,236.25,0,0,0,0,2,0,2,t0.72 Rightk cn,34.801611,135.770973
4,7.58,34801611,135770973,6,236.25,0,0,0,0,2,0,2,t0.71 Rightk cn,34.801611,135.770973
4,7.59,34801611,135770973,6,236.25,0,0,0,0,2,0,2,t0.70 Rightk cn,34.801611,135.770973
4,8,34801611,135770973,6,236.25,0,0,0,0,2,0,2,t0.69 Rightk cn,34.801611,135.770973
4,8.1,34801611,135770973,6,236.25,0,0,0,0,2,0,2,t0.69 Rightk cn,34.801611,135.770973
4,8.3,34801611,135770973,6,236.25,0,0,0,0,2,0,2,t0.69 Rightk cn,34.801611,135.770973
4,8.4,34801611,135770973,6,236.25,0,0,0,0,2,0,2,t0.69 Rightk cn,34.801611,135.770973
4,8.5,34801611,135770973,6,236.25,0,0,0,0,2,0,2,t0.78 Rightk cn,34.801611,135.770973
4,8.6,34801611,135770973,6,236.25,0,0,0,0,2,0,2,t0.73 Rightk cn,34.801611,135.770973
4,8.7,34801611,135770973,6,236.25,0,0,0,0,2,0,2,t0.73 Rightk cn,34.801611,135.770973
4,8.8,34801612,135770973,7,247.5,0,0,0,0,2,0,2,t0.78 Rightk cn,34.801612,135.770973
4,8.9,34801612,135770973,7,247.5,0,0,0,0,2,0,2,t0.74 Rightk cn,34.801612,135.770973
4,8.1,34801612,135770973,7,247.5,0,0,0,0,2,0,2,t0.74 Rightk cn,34.801612,135.770973
4,8.11,34801612,135770973,7,247.5,0,0,0,0,2,0,2,t0.73 Rightk cn,34.801612,135.770973
4,8.12,34801612,135770973,7,247.5,0,0,0,0,2,0,2,t0.74 Rightk cn,34.801612,135.770973
4,8.13,34801612,135770973,7,247.5,0,0,0,0,2,0,2,t0.73 Rightk cn,34.801612,135.770973
4,8.14,34801612,135770973,7,247.5,0,0,0,0,2,0,2,t0.75 Rightk cn,34.801612,135.770973
4,8.15,34801612,135770973,7,247.5,0,0,0,0,2,0,2,t0.72 Rightk cn,34.801612,135.770973
4,8.16,34801612,135770973,6,236.25,0,0,0,0,2,0,2,t0.72 Rightk cn,34.801612,135.770973
4,8.17,34801612,135770973,6,236.25,0,0,0,0,2,0,2,t0.72 Rightk cn,34.801612,135.770973
4,8.18,34801612,135770973,6,236.25,0,0,0,0,2,0,2,t0.72 Rightk cn,34.801612,135.770973
4,8.19,34801612,135770973,6,236.25,0,0,0,0,2,0,2,t0.72 Rightk cn,34.801612,135.770973
4,8.2,34801612,135770973,6,236.25,0,0,0,0,2,0,2,t0.72 Rightk cn,34.801612,135.770973
4,8.21,34801612,135770973,6,236.25,0,0,0,0,2,0,2,t0.72 Rightk cn,34.801612,135.770973
4,8.22,34801612,135770973,6,236.25,0,0,0,0,2,0,2,t0.72 Rightk cn,34.801612,135.770973
4,8.23,34801613,135770972,7,236.25,0,0,0,0,2,0,2,t0.87 Rightk cn,34.801613,135.770972
4,8.24,34801613,135770972,7,236.25,0,0,0,0,2,0,2,t0.81 Rightk cn,34.801613,135.770972
4,8.25,34801613,135770972,7,236.25,0,0,0,0,2,0,2,t0.79 Rightk cn,34.801613,135.770972
4,8.26,34801613,135770972,7,236.25,0,0,0,0,2,0,2,t0.78 Rightk cn,34.801613,135.770972
4,8.27,34801613,135770972,7,236.25,0,0,0,0,2,0,2,t0.76 Rightk cn,34.801613,135.770972
4,8.29,34801613,135770972,7,236.25,0,0,0,0,2,0,2,t0.73 Rightk cn,34.801613,135.770972
4,8.3,34801613,135770972,7,247.5,0,0,0,0,2,0,2,t0.69 Rightk cn,34.801613,135.770972
4,8.31,34801613,135770972,7,247.5,0,0,0,0,2,0,2,t0.66 Rightk cn,34.801613,135.770972
4,8.32,34801613,135770972,7,247.5,0,0,0,0,2,0,2,t0.64 Rightk cn,34.801613,135.770972
4,8.33,34801613,135770972,7,247.5,0,0,0,0,2,0,2,t0.67 Rightk cn,34.801613,135.770972
4,8.34,34801613,135770972,7,258.75,0,0,0,0,2,0,2,t0.54 Rightk cn,34.801613,135.770972
4,8.35,34801613,135770972,7,247.5,0,0,0,0,2,0,2,t0.63 Rightk cn,34.801613,135.770972
4,8.36,34801613,135770972,7,247.5,0,0,0,0,2,0,2,t0.71 Rightk cn,34.801613,135.770972
4,8.37,34801613,135770972,7,247.5,0,0,0,0,2,0,2,t0.71 Rightk cn,34.801613,135.770972
4,8.38,34801614,135770972,7,247.5,0,0,0,0,2,0,2,t0.74 Rightk cn,34.801614,135.770972
4,8.39,34801614,135770972,7,247.5,0,0,0,0,2,0,2,t0.75 Rightk cn,34.801614,135.770972
4,8.4,34801614,135770972,7,247.5,0,0,0,0,2,0,2,t0.75 Rightk cn,34.801614,135.770972
4,8.41,34801614,135770972,7,247.5,0,0,0,0,2,0,2,t0.75 Rightk cn,34.801614,135.770972
4,8.42,34801614,135770972,7,247.5,0,0,0,0,2,0,2,t0.75 Rightk cn,34.801614,135.770972
4,8.43,34801614,135770972,7,236.25,0,0,0,0,2,0,2,t0.75 Rightk cn,34.801614,135.770972
4,8.44,34801614,135770972,6,236.25,0,0,0,0,2,0,2,t0.75 Rightk cn,34.801614,135.770972
4,8.45,34801614,135770972,6,236.25,0,0,0,0,2,0,2,t0.75 Rightk cn,34.801614,135.770972
4,8.46,34801614,135770972,6,236.25,0,0,0,0,2,0,2,t0.75 Rightk cn,34.801614,135.770972
4,8.47,34801614,135770972,6,236.25,0,0,0,0,2,0,2,t0.75 Rightk cn,34.801614,135.770972
4,8.48,34801614,135770972,6,236.25,0,0,0,0,2,0,2,t0.75 Rightk cn,34.801614,135.770972
4,8.49,34801614,135770973,7,236.25,0,0,0,0,2,0,2,t0.87 Rightk cn,34.801614,135.770973
4,8.5,34801615,135770973,7,236.25,0,0,0,0,2,0,2,t0.82 Rightk cn,34.801615,135.770973
4,8.51,34801615,135770973,7,236.25,0,0,0,0,2,0,2,t0.79 Rightk cn,34.801615,135.770973
4,8.52,34801615,135770973,7,236.25,0,0,0,0,2,0,2,t0.79 Rightk cn,34.801615,135.770973
4,8.53,34801615,135770973,7,236.25,0,0,0,0,2,0,2,t0.77 Rightk cn,34.801615,135.770973
4,8.55,34801615,135770973,7,236.25,0,0,0,0,2,0,2,t0.76 Rightk cn,34.801615,135.770973
4,8.56,34801615,135770973,7,236.25,0,0,0,0,2,0,2,t0.74 Rightk cn,34.801615,135.770973
4,8.57,34801615,135770973,7,247.5,0,0,0,0,2,0,2,t0.73 Rightk cn,34.801615,135.770973
4,8.58,34801615,135770973,7,247.5,0,0,0,0,2,0,2,t0.72 Rightk cn,34.801615,135.770973
4,8.59,34801615,135770973,7,247.5,0,0,0,0,2,0,2,t0.72 Rightk cn,34.801615,135.770973
4,9,34801615,135770973,7,258.75,0,0,0,0,2,0,2,t0.60 Rightk cn,34.801615,135.770973
4,9.1,34801615,135770973,7,247.5,0,0,0,0,2,0,2,t0.69 Rightk cn,34.801615,135.770973
4,9.2,34801615,135770973,7,247.5,0,0,0,0,2,0,2,t0.74 Rightk cn,34.801615,135.770973
4,9.3,34801615,135770973,7,247.5,0,0,0,0,2,0,2,t0.76 Rightk cn,34.801615,135.770973
4,9.4,34801616,135770973,7,247.5,0,0,0,0,2,0,2,t0.82 Rightk cn,34.801616,135.770973
4,9.5,34801616,135770973,7,247.5,0,0,0,0,2,0,2,t0.82 Rightk cn,34.801616,135.770973
4,9.6,34801616,135770973,7,247.5,0,0,0,0,2,0,2,t0.81 Rightk cn,34.801616,135.770973
4,9.7,34801616,135770973,7,247.5,0,0,0,0,2,0,2,t0.80 Rightk cn,34.801616,135.770973
4,9.8,34801616,135770973,7,247.5,0,0,0,0,2,0,2,t0.78 Rightk cn,34.801616,135.770973
4,9.9,34801616,135770973,7,247.5,0,0,0,0,2,0,2,t0.76 Rightk cn,34.801616,135.770973
4,9.1,34801616,135770974,7,247.5,0,0,0,0,2,0,2,t0.76 Rightk cn,34.801616,135.770974
4,9.11,34801616,135770974,6,236.25,0,0,0,0,2,0,2,t0.76 Rightk cn,34.801616,135.770974
4,9.12,34801617,135770974,7,236.25,0,0,0,0,2,0,2,t0.88 Rightk cn,34.801617,135.770974
4,9.13,34801617,135770974,7,236.25,0,0,0,0,2,0,2,t0.82 Rightk cn,34.801617,135.770974
4,9.14,34801617,135770974,7,236.25,0,0,0,0,2,0,2,t0.80 Rightk cn,34.801617,135.770974
4,9.15,34801617,135770974,7,236.25,0,0,0,0,2,0,2,t0.79 Rightk cn,34.801617,135.770974
4,9.16,34801617,135770974,7,236.25,0,0,0,0,2,0,2,t0.80 Rightk cn,34.801617,135.770974
4,9.17,34801617,135770974,7,236.25,0,0,0,0,2,0,2,t0.81 Rightk cn,34.801617,135.770974
4,9.18,34801617,135770974,7,236.25,0,0,0,0,2,0,2,t0.79 Rightk cn,34.801617,135.770974
4,9.19,34801617,135770974,7,236.25,0,0,0,0,2,0,2,t0.78 Rightk cn,34.801617,135.770974
4,9.21,34801617,135770974,7,236.25,0,0,0,0,2,0,2,t0.79 Rightk cn,34.801617,135.770974
4,9.22,34801618,135770974,7,236.25,0,0,0,0,2,0,2,t0.82 Rightk cn,34.801618,135.770974
4,9.23,34801618,135770974,7,236.25,0,0,0,0,2,0,2,t0.81 Rightk cn,34.801618,135.770974
4,9.24,34801618,135770974,7,236.25,0,0,0,0,2,0,2,t0.80 Rightk cn,34.801618,135.770974
4,9.25,34801618,135770974,7,236.25,0,0,0,0,2,0,2,t0.78 Rightk cn,34.801618,135.770974
4,9.26,34801618,135770974,7,236.25,0,0,0,0,2,0,2,t0.79 Rightk cn,34.801618,135.770974
4,9.27,34801618,135770974,6,236.25,0,0,0,0,2,0,2,t0.79 Rightk cn,34.801618,135.770974
4,9.28,34801618,135770974,7,247.5,0,0,0,0,2,0,2,t0.83 Rightk cn,34.801618,135.770974
4,9.29,34801618,135770974,7,247.5,0,0,0,0,2,0,2,t0.82 Rightk cn,34.801618,135.770974
4,9.3,34801618,135770974,7,247.5,0,0,0,0,2,0,2,t0.79 Rightk cn,34.801618,135.770974
4,9.31,34801619,135770974,7,247.5,0,0,0,0,2,0,2,t0.78 Rightk cn,34.801619,135.770974
4,9.32,34801619,135770974,7,247.5,0,0,0,0,2,0,2,t0.76 Rightk cn,34.801619,135.770974
4,9.33,34801619,135770974,7,247.5,0,0,0,0,2,0,2,t0.76 Rightk cn,34.801619,135.770974
4,9.34,34801619,135770973,7,247.5,0,0,0,0,2,0,2,t0.76 Rightk cn,34.801619,135.770973
4,9.35,34801619,135770973,7,247.5,0,0,0,0,2,0,2,t0.78 Rightk cn,34.801619,135.770973
4,9.36,34801619,135770973,7,236.25,0,0,0,0,2,0,2,t0.78 Rightk cn,34.801619,135.770973
4,9.37,34801619,135770973,7,236.25,0,0,0,0,2,0,2,t0.90 Rightk cn,34.801619,135.770973
4,9.38,34801619,135770972,7,236.25,0,0,0,0,2,0,2,t0.83 Rightk cn,34.801619,135.770972
4,9.39,34801619,135770972,7,236.25,0,0,0,0,2,0,2,t0.81 Rightk cn,34.801619,135.770972
4,9.4,34801619,135770972,7,236.25,0,0,0,0,2,0,2,t0.79 Rightk cn,34.801619,135.770972
4,9.41,34801619,135770972,7,236.25,0,0,0,0,2,0,2,t0.77 Rightk cn,34.801619,135.770972
4,9.42,34801619,135770972,7,247.5,0,0,0,0,2,0,2,t0.76 Rightk cn,34.801619,135.770972
4,9.43,34801619,135770972,7,236.25,0,0,0,0,2,0,2,t0.78 Rightk cn,34.801619,135.770972
4,9.44,34801619,135770972,7,236.25,0,0,0,0,2,0,2,t0.79 Rightk cn,34.801619,135.770972
4,9.45,34801619,135770972,7,236.25,0,0,0,0,2,0,2,t0.79 Rightk cn,34.801619,135.770972
4,9.47,34801619,135770972,7,236.25,0,0,0,0,2,0,2,t0.79 Rightk cn,34.801619,135.770972
4,9.48,34801619,135770972,6,236.25,0,0,0,0,2,0,2,t0.79 Rightk cn,34.801619,135.770972
4,9.49,34801619,135770971,7,236.25,0,0,0,0,2,0,2,t0.92 Rightk cn,34.801619,135.770971
4,9.5,34801619,135770971,7,236.25,0,0,0,0,2,0,2,t0.92 Rightk cn,34.801619,135.770971
4,9.51,34801619,135770971,7,236.25,0,0,0,0,2,0,2,t0.92 Rightk cn,34.801619,135.770971
4,9.52,34801619,135770971,7,236.25,0,0,0,0,2,0,2,t0.91 Rightk cn,34.801619,135.770971
4,9.53,34801619,135770971,7,247.5,0,0,0,0,2,0,2,t0.77 Rightk cn,34.801619,135.770971
4,9.54,34801620,135770971,7,247.5,0,0,0,0,2,0,2,t0.79 Rightk cn,34.80162,135.770971
4,9.55,34801620,135770970,7,247.5,0,0,0,0,2,0,2,t0.77 Rightk cn,34.80162,135.77097
4,9.56,34801620,135770970,7,247.5,0,0,0,0,2,0,2,t0.78 Rightk cn,34.80162,135.77097
4,9.57,34801620,135770970,7,247.5,0,0,0,0,2,0,2,t0.77 Rightk cn,34.80162,135.77097
4,9.58,34801620,135770970,7,247.5,0,0,0,0,2,0,2,t0.79 Rightk cn,34.80162,135.77097
4,9.59,34801620,135770970,7,247.5,0,0,0,0,2,0,2,t0.82 Rightk cn,34.80162,135.77097
4,10,34801620,135770970,7,247.5,0,0,0,0,2,0,2,t0.81 Rightk cn,34.80162,135.77097
4,10.1,34801620,135770970,7,247.5,0,0,0,0,2,0,2,t0.81 Rightk cn,34.80162,135.77097
4,10.2,34801620,135770970,7,247.5,0,0,0,0,2,0,2,t0.83 Rightk cn,34.80162,135.77097
4,10.3,34801620,135770970,7,247.5,0,0,0,0,2,0,2,t0.84 Rightk cn,34.80162,135.77097
4,10.4,34801620,135770970,7,236.25,0,0,0,0,2,0,2,t0.84 Rightk cn,34.80162,135.77097
4,10.5,34801620,135770970,7,236.25,0,0,0,0,2,0,2,t0.92 Rightk cn,34.80162,135.77097
4,10.6,34801620,135770969,7,236.25,0,0,0,0,2,0,2,t0.87 Rightk cn,34.80162,135.770969
4,10.7,34801620,135770969,7,236.25,0,0,0,0,2,0,2,t0.84 Rightk cn,34.80162,135.770969
4,10.8,34801620,135770969,7,236.25,0,0,0,0,2,0,2,t0.82 Rightk cn,34.80162,135.770969
4,10.9,34801620,135770969,7,236.25,0,0,0,0,2,0,2,t0.81 Rightk cn,34.80162,135.770969
4,10.1,34801620,135770969,7,236.25,0,0,0,0,2,0,2,t0.78 Rightk cn,34.80162,135.770969
4,10.11,34801620,135770969,7,247.5,0,0,0,0,2,0,2,t0.74 Rightk cn,34.80162,135.770969
4,10.13,34801620,135770969,7,247.5,0,0,0,0,2,0,2,t0.77 Rightk cn,34.80162,135.770969
4,10.14,34801621,135770969,7,236.25,0,0,0,0,2,0,2,t0.82 Rightk cn,34.801621,135.770969
4,10.15,34801621,135770969,7,236.25,0,0,0,0,2,0,2,t0.82 Rightk cn,34.801621,135.770969
4,10.16,34801621,135770968,7,236.25,0,0,0,0,2,0,2,t0.91 Rightk cn,34.801621,135.770968
4,10.17,34801621,135770968,7,236.25,0,0,0,0,2,0,2,t0.91 Rightk cn,34.801621,135.770968
4,10.18,34801621,135770968,7,236.25,0,0,0,0,2,0,2,t0.92 Rightk cn,34.801621,135.770968
4,10.19,34801621,135770968,7,236.25,0,0,0,0,2,0,2,t0.88 Rightk cn,34.801621,135.770968
4,10.2,34801621,135770968,7,236.25,0,0,0,0,2,0,2,t0.84 Rightk cn,34.801621,135.770968
4,10.21,34801621,135770968,7,236.25,0,0,0,0,2,0,2,t0.81 Rightk cn,34.801621,135.770968
4,10.22,34801621,135770968,7,258.75,0,0,0,0,2,0,2,t0.68 Rightk cn,34.801621,135.770968
4,10.23,34801621,135770969,7,247.5,0,0,0,0,2,0,2,t0.76 Rightk cn,34.801621,135.770969
4,10.24,34801621,135770969,7,247.5,0,0,0,0,2,0,2,t0.79 Rightk cn,34.801621,135.770969
4,10.25,34801621,135770969,7,247.5,0,0,0,0,2,0,2,t0.80 Rightk cn,34.801621,135.770969
4,10.26,34801621,135770969,7,247.5,0,0,0,0,2,0,2,t0.82 Rightk cn,34.801621,135.770969
4,10.27,34801621,135770969,7,247.5,0,0,0,0,2,0,2,t0.83 Rightk cn,34.801621,135.770969
4,10.28,34801621,135770969,7,247.5,0,0,0,0,2,0,2,t0.84 Rightk cn,34.801621,135.770969
4,10.29,34801621,135770969,7,247.5,0,0,0,0,2,0,2,t0.85 Rightk cn,34.801621,135.770969
4,10.3,34801621,135770969,7,236.25,0,0,0,0,2,0,2,t0.85 Rightk cn,34.801621,135.770969
4,10.31,34801621,135770969,7,236.25,0,0,0,0,2,0,2,t0.92 Rightk cn,34.801621,135.770969
4,10.32,34801621,135770969,7,236.25,0,0,0,0,2,0,2,t0.86 Rightk cn,34.801621,135.770969
4,10.33,34801621,135770969,7,236.25,0,0,0,0,2,0,2,t0.83 Rightk cn,34.801621,135.770969
4,10.34,34801621,135770969,7,236.25,0,0,0,0,2,0,2,t0.80 Rightk cn,34.801621,135.770969
4,10.35,34801621,135770969,7,236.25,0,0,0,0,2,0,2,t0.80 Rightk cn,34.801621,135.770969
4,10.36,34801621,135770970,7,236.25,0,0,0,0,2,0,2,t0.81 Rightk cn,34.801621,135.77097
4,10.37,34801621,135770970,7,236.25,0,0,0,0,2,0,2,t0.82 Rightk cn,34.801621,135.77097
4,10.39,34801621,135770970,7,236.25,0,0,0,0,2,0,2,t0.81 Rightk cn,34.801621,135.77097
4,10.4,34801621,135770970,7,247.5,0,0,0,0,2,0,2,t0.76 Rightk cn,34.801621,135.77097
4,10.41,34801621,135770970,7,247.5,0,0,0,0,2,0,2,t0.74 Rightk cn,34.801621,135.77097
4,10.42,34801621,135770970,7,247.5,0,0,0,0,2,0,2,t0.78 Rightk cn,34.801621,135.77097
4,10.43,34801621,135770970,7,247.5,0,0,0,0,2,0,2,t0.76 Rightk cn,34.801621,135.77097
4,10.44,34801621,135770970,7,247.5,0,0,0,0,2,0,2,t0.78 Rightk cn,34.801621,135.77097
4,10.45,34801621,135770971,7,247.5,0,0,0,0,2,0,2,t0.77 Rightk cn,34.801621,135.770971
4,10.46,34801621,135770971,7,258.75,0,0,0,0,2,0,2,t0.62 Rightk cn,34.801621,135.770971
4,10.47,34801621,135770971,7,247.5,0,0,0,0,2,0,2,t0.75 Rightk cn,34.801621,135.770971
4,10.48,34801621,135770971,7,247.5,0,0,0,0,2,0,2,t0.79 Rightk cn,34.801621,135.770971
4,10.49,34801621,135770971,7,247.5,0,0,0,0,2,0,2,t0.80 Rightk cn,34.801621,135.770971
4,10.5,34801621,135770971,7,247.5,0,0,0,0,2,0,2,t0.80 Rightk cn,34.801621,135.770971
4,10.51,34801621,135770970,7,247.5,0,0,0,0,2,0,2,t0.79 Rightk cn,34.801621,135.77097
4,10.52,34801621,135770970,7,236.25,0,0,0,0,2,0,2,t0.79 Rightk cn,34.801621,135.77097
4,10.53,34801621,135770970,7,236.25,0,0,0,0,2,0,2,t0.79 Rightk cn,34.801621,135.77097
4,10.54,34801621,135770970,7,236.25,0,0,0,0,2,0,2,t0.79 Rightk cn,34.801621,135.77097
4,10.55,34801621,135770970,7,236.25,0,0,0,0,2,0,2,t0.79 Rightk cn,34.801621,135.77097
4,10.56,34801621,135770970,6,236.25,0,0,0,0,2,0,2,t0.79 Rightk cn,34.801621,135.77097
4,10.57,34801622,135770970,7,236.25,0,0,0,0,2,0,2,t0.95 Rightk cn,34.801622,135.77097
4,10.58,34801622,135770970,7,236.25,0,0,0,0,2,0,2,t0.89 Rightk cn,34.801622,135.77097
4,10.59,34801622,135770970,7,236.25,0,0,0,0,2,0,2,t0.85 Rightk cn,34.801622,135.77097
4,11,34801622,135770970,7,236.25,0,0,0,0,2,0,2,t0.85 Rightk cn,34.801622,135.77097
4,11.1,34801622,135770970,7,236.25,0,0,0,0,2,0,2,t0.85 Rightk cn,34.801622,135.77097
4,11.2,34801622,135770970,7,236.25,0,0,0,0,2,0,2,t0.85 Rightk cn,34.801622,135.77097
4,11.3,34801622,135770970,7,236.25,0,0,0,0,2,0,2,t0.85 Rightk cn,34.801622,135.77097
4,11.5,34801622,135770970,7,236.25,0,0,0,0,2,0,2,t0.97 Rightk cn,34.801622,135.77097
4,11.6,34801622,135770970,7,236.25,0,0,0,0,2,0,2,t0.91 Rightk cn,34.801622,135.77097
4,11.7,34801622,135770970,7,236.25,0,0,0,0,2,0,2,t0.86 Rightk cn,34.801622,135.77097
4,11.8,34801622,135770970,7,258.75,0,0,0,0,2,0,2,t0.71 Rightk cn,34.801622,135.77097
4,11.9,34801622,135770970,7,247.5,0,0,0,0,2,0,2,t0.76 Rightk cn,34.801622,135.77097
4,11.1,34801622,135770970,7,247.5,0,0,0,0,2,0,2,t0.78 Rightk cn,34.801622,135.77097
4,11.11,34801622,135770970,7,247.5,0,0,0,0,2,0,2,t0.79 Rightk cn,34.801622,135.77097
4,11.12,34801622,135770970,7,247.5,0,0,0,0,2,0,2,t0.80 Rightk cn,34.801622,135.77097
4,11.13,34801622,135770969,7,247.5,0,0,0,0,2,0,2,t0.82 Rightk cn,34.801622,135.770969
4,11.14,34801622,135770969,7,247.5,0,0,0,0,2,0,2,t0.81 Rightk cn,34.801622,135.770969
4,11.15,34801622,135770969,7,247.5,0,0,0,0,2,0,2,t0.80 Rightk cn,34.801622,135.770969
4,11.16,34801622,135770969,7,247.5,0,0,0,0,2,0,2,t0.76 Rightk cn,34.801622,135.770969
4,11.17,34801622,135770969,7,247.5,0,0,0,0,2,0,2,t0.77 Rightk cn,34.801622,135.770969
4,11.18,34801622,135770969,7,247.5,0,0,0,0,2,0,2,t0.76 Rightk cn,34.801622,135.770969
4,11.19,34801622,135770969,7,236.25,0,0,0,0,2,0,2,t0.76 Rightk cn,34.801622,135.770969
4,11.2,34801622,135770969,7,236.25,0,0,0,0,2,0,2,t0.76 Rightk cn,34.801622,135.770969
4,11.21,34801622,135770969,7,236.25,0,0,0,0,2,0,2,t0.76 Rightk cn,34.801622,135.770969
4,11.22,34801622,135770969,7,236.25,0,0,0,0,2,0,2,t0.76 Rightk cn,34.801622,135.770969
4,11.23,34801622,135770969,7,236.25,0,0,0,0,2,0,2,t0.96 Rightk cn,34.801622,135.770969
4,11.24,34801622,135770969,7,236.25,0,0,0,0,2,0,2,t0.88 Rightk cn,34.801622,135.770969
4,11.25,34801622,135770969,7,236.25,0,0,0,0,2,0,2,t0.85 Rightk cn,34.801622,135.770969
4,11.26,34801622,135770969,7,236.25,0,0,0,0,2,0,2,t0.83 Rightk cn,34.801622,135.770969
4,11.27,34801622,135770969,7,236.25,0,0,0,0,2,0,2,t0.83 Rightk cn,34.801622,135.770969
4,11.28,34801622,135770969,7,236.25,0,0,0,0,2,0,2,t0.83 Rightk cn,34.801622,135.770969
4,11.29,34801622,135770969,7,236.25,0,0,0,0,2,0,2,t0.94 Rightk cn,34.801622,135.770969
4,11.31,34801622,135770969,7,236.25,0,0,0,0,2,0,2,t0.94 Rightk cn,34.801622,135.770969
4,11.32,34801623,135770969,7,236.25,0,0,0,0,2,0,2,t0.95 Rightk cn,34.801623,135.770969
4,11.33,34801623,135770969,7,236.25,0,0,0,0,2,0,2,t0.89 Rightk cn,34.801623,135.770969
4,11.34,34801623,135770969,7,236.25,0,0,0,0,2,0,2,t0.86 Rightk cn,34.801623,135.770969
4,11.35,34801623,135770969,7,236.25,0,0,0,0,2,0,2,t0.84 Rightk cn,34.801623,135.770969
4,11.36,34801623,135770969,7,247.5,0,0,0,0,2,0,2,t0.73 Rightk cn,34.801623,135.770969
4,11.37,34801623,135770970,7,247.5,0,0,0,0,2,0,2,t0.80 Rightk cn,34.801623,135.77097
4,11.38,34801623,135770970,7,247.5,0,0,0,0,2,0,2,t0.81 Rightk cn,34.801623,135.77097
4,11.39,34801623,135770970,7,247.5,0,0,0,0,2,0,2,t0.81 Rightk cn,34.801623,135.77097
4,11.4,34801623,135770970,7,247.5,0,0,0,0,2,0,2,t0.82 Rightk cn,34.801623,135.77097
4,11.41,34801623,135770970,7,236.25,0,0,0,0,2,0,2,t0.82 Rightk cn,34.801623,135.77097
4,11.42,34801623,135770970,7,236.25,0,0,0,0,2,0,2,t0.82 Rightk cn,34.801623,135.77097
4,11.43,34801623,135770970,7,236.25,0,0,0,0,2,0,2,t0.82 Rightk cn,34.801623,135.77097
4,11.44,34801623,135770970,7,236.25,0,0,0,0,2,0,2,t0.82 Rightk cn,34.801623,135.77097
4,11.45,34801623,135770970,7,236.25,0,0,0,0,2,0,2,t0.82 Rightk cn,34.801623,135.77097
4,11.46,34801623,135770970,6,236.25,0,0,0,0,2,0,2,t0.82 Rightk cn,34.801623,135.77097
4,11.47,34801623,135770970,6,236.25,0,0,0,0,2,0,2,t0.82 Rightk cn,34.801623,135.77097
4,11.48,34801623,-135770970,135,258.75,180,0,0,2,0,0,2,t-2.48 Leftk cn,34.801623,-135.77097
4,11.49,34801623,-135770970,135,236.25,0,0,0,2,0,0,2,t-2.48 Leftk cn,34.801623,-135.77097
4,11.5,34801623,135770970,7,225,0,0,0,0,2,0,2,t1.05 Rightk cn,34.801623,135.77097
4,11.51,34801623,135770970,7,236.25,0,0,0,0,2,0,2,t0.98 Rightk cn,34.801623,135.77097
4,11.52,34801623,135770970,7,236.25,0,0,0,0,2,0,2,t0.95 Rightk cn,34.801623,135.77097
4,11.53,34801623,135770970,7,236.25,0,0,0,0,2,0,2,t0.95 Rightk cn,34.801623,135.77097
4,11.54,34801623,135770971,7,236.25,0,0,0,0,2,0,2,t1.00 Rightk cn,34.801623,135.770971
4,11.55,34801623,135770971,7,236.25,0,0,0,0,2,0,2,t0.94 Rightk cn,34.801623,135.770971
4,11.57,34801623,135770971,7,236.25,0,0,0,0,2,0,2,t0.94 Rightk cn,34.801623,135.770971
4,11.58,34801623,135770971,7,236.25,0,0,0,0,2,0,2,t0.94 Rightk cn,34.801623,135.770971
4,11.59,34801622,135770971,7,225,0,0,0,0,2,0,2,t1.00 Rightk cn,34.801622,135.770971
4,12,34801622,135770971,7,236.25,0,0,0,0,2,0,2,t0.93 Rightk cn,34.801622,135.770971
4,12.1,34801622,135770971,7,236.25,0,0,0,0,2,0,2,t0.91 Rightk cn,34.801622,135.770971
4,12.2,34801622,135770971,7,247.5,0,0,0,0,2,0,2,t0.76 Rightk cn,34.801622,135.770971
4,12.3,34801622,135770971,7,247.5,0,0,0,0,2,0,2,t0.85 Rightk cn,34.801622,135.770971
4,12.4,34801622,135770971,7,247.5,0,0,0,0,2,0,2,t0.85 Rightk cn,34.801622,135.770971
4,12.5,34801621,135770971,7,247.5,0,0,0,0,2,0,2,t0.88 Rightk cn,34.801621,135.770971
4,12.6,34801621,135770971,7,247.5,0,0,0,0,2,0,2,t0.86 Rightk cn,34.801621,135.770971
4,12.7,34801621,135770971,7,247.5,0,0,0,0,2,0,2,t0.85 Rightk cn,34.801621,135.770971
4,12.8,34801621,135770971,7,247.5,0,0,0,0,2,0,2,t0.84 Rightk cn,34.801621,135.770971
4,12.9,34801621,135770971,7,247.5,0,0,0,0,2,0,2,t0.86 Rightk cn,34.801621,135.770971
4,12.1,34801621,135770971,7,236.25,0,0,0,0,2,0,2,t0.86 Rightk cn,34.801621,135.770971
4,12.11,34801621,135770971,7,225,0,0,0,0,2,0,2,t0.86 Rightk cn,34.801621,135.770971
4,12.12,34801621,135770971,7,225,0,0,0,0,2,0,2,t0.86 Rightk cn,34.801621,135.770971
4,12.13,34801621,135770971,6,225,0,0,0,0,2,0,2,t0.86 Rightk cn,34.801621,135.770971
4,12.14,34801620,135770971,7,225,0,0,0,0,2,0,2,t1.00 Rightk cn,34.80162,135.770971
4,12.15,34801620,135770971,7,236.25,0,0,0,0,2,0,2,t0.93 Rightk cn,34.80162,135.770971
4,12.16,34801620,135770971,7,236.25,0,0,0,0,2,0,2,t0.90 Rightk cn,34.80162,135.770971
4,12.17,34801620,135770971,7,236.25,0,0,0,0,2,0,2,t0.88 Rightk cn,34.80162,135.770971
4,12.18,34801620,135770971,7,236.25,0,0,0,0,2,0,2,t0.87 Rightk cn,34.80162,135.770971
4,12.19,34801620,135770970,7,236.25,0,0,0,0,2,0,2,t0.84 Rightk cn,34.80162,135.77097
4,12.2,34801620,135770970,7,236.25,0,0,0,0,2,0,2,t0.81 Rightk cn,34.80162,135.77097
4,12.21,34801620,135770970,7,236.25,0,0,0,0,2,0,2,t0.78 Rightk cn,34.80162,135.77097
4,12.23,34801620,135770970,7,236.25,0,0,0,0,2,0,2,t0.79 Rightk cn,34.80162,135.77097
4,12.24,34801620,135770970,7,236.25,0,0,0,0,2,0,2,t0.83 Rightk cn,34.80162,135.77097
4,12.25,34801620,135770970,7,236.25,0,0,0,0,2,0,2,t0.84 Rightk cn,34.80162,135.77097
4,12.26,34801620,135770970,7,236.25,0,0,0,0,2,0,2,t0.86 Rightk cn,34.80162,135.77097
4,12.27,34801620,135770970,7,236.25,0,0,0,0,2,0,2,t0.82 Rightk cn,34.80162,135.77097
4,12.28,34801620,135770970,7,236.25,0,0,0,0,2,0,2,t0.80 Rightk cn,34.80162,135.77097
4,12.29,34801620,135770970,7,258.75,0,0,0,0,2,0,2,t0.62 Rightk cn,34.80162,135.77097
4,12.3,34801620,135770970,7,258.75,0,0,0,0,2,0,2,t0.72 Rightk cn,34.80162,135.77097
4,12.31,34801620,135770970,7,247.5,0,0,0,0,2,0,2,t0.78 Rightk cn,34.80162,135.77097
