code,min.sec,lat,lon,dist,yaw,roll,pitch,yaw_to_goal,motor_left,motor_right,stack,seq,data,latitude,longitude
5,0.4,0,0,244,292.5,0,11.2,0,0,0,0,1,174.9 altNRdy,0,0
5,0.4,0,0,244,281.25,0,0,0,0,0,0,1,172.0 altNRdy,0,0
5,0.5,0,0,244,281.25,0,0,0,0,0,0,1,172.0 altNRdy,0,0
5,0.6,0,0,244,281.25,0,0,0,0,0,0,1,172.0 altNRdy,0,0
5,0.7,0,0,244,281.25,0,0,0,0,0,0,1,172.0 altNRdy,0,0
5,0.8,0,0,244,281.25,0,0,0,0,0,0,1,172.1 altNRdy,0,0
5,0.9,0,0,244,281.25,0,0,0,0,0,0,1,172.1 altNRdy,0,0
5,0.1,0,0,244,281.25,0,0,0,0,0,0,1,172.1 altNRdy,0,0
5,0.11,0,0,244,281.25,0,0,0,0,0,0,1,172.1 altNRdy,0,0
5,0.12,0,0,244,281.25,0,0,0,0,0,0,1,172.1 altNRdy,0,0
5,0.13,0,0,244,348.75,0,0,0,0,0,0,1,172.1 altNRdy,0,0
5,0.15,0,0,244,45,0,0,0,0,0,0,1,172.1 altNRdy,0,0
5,0.16,0,0,244,123.75,0,0,0,0,0,0,1,172.1 altNRdy,0,0
5,0.17,0,0,15,157.5,0,0,0,0,0,0,1,173.9 c5 Rise,0,0
5,0.18,0,0,244,168.75,0,0,0,0,0,0,1,173.9 c5 Rise,0,0
5,0.19,0,0,244,191.25,0,0,0,0,0,0,1,173.9 c5 Rise,0,0
5,0.2,0,0,244,247.5,0,0,0,0,0,0,1,173.9 c5 Rise,0,0
5,0.21,0,0,244,270,0,0,0,0,0,0,1,172.6 c5 Fall,0,0
5,0.22,0,0,244,101.25,45,0,0,0,0,0,1,172.6 c5 Fall,0,0
5,0.23,0,0,244,123.75,0,0,0,0,0,0,1,172.6 c5 Fall,0,0
5,0.24,0,0,15,303.75,157.5,56.2,0,0,0,0,1,172.6 c5 Fall,0,0
5,0.25,0,0,244,22.5,0,67.5,0,0,0,0,1,172.6 c5 Fall,0,0
5,0.26,0,0,244,45,0,67.5,0,0,0,0,6,NC 0 Heata -0 L,0,0
5,0.27,0,0,244,11.25,0,67.5,0,0,0,0,6,NC 2 Heata -0 L,0,0
5,0.28,0,0,244,11.25,0,67.5,0,0,0,0,6,NC 4 Heata -0 L,0,0
5,0.29,0,0,15,348.75,168.8,78.8,0,0,0,0,6,NC 6 Heata -0 L,0,0
5,0.3,0,0,15,348.75,168.8,78.8,0,0,2,0,2,t1.06 Right-0 L,0,0
5,0.31,0,0,3,191.25,0,56.2,0,0,2,0,2,t1.06 Right-0 L,0,0
5,0.32,0,0,15,191.25,0,56.2,0,2,0,0,2,t-2.44 Left-0 L,0,0
5,0.33,0,0,15,191.25,0,22.5,0,2,0,0,2,t-2.48 Left-0 L,0,0
5,0.34,0,0,3,236.25,0,0,0,2,0,0,2,t-2.48 Left-0 L,0,0
5,0.35,0,0,21,258.75,0,0,0,2,0,0,2,t-2.48 Left-0 L,0,0
5,0.36,0,0,15,258.75,0,0,0,2,0,0,2,t-2.48 Left-0 L,0,0
5,0.37,0,0,15,258.75,0,0,0,0,2,0,2,t2.71 Right-0 L,0,0
5,0.38,0,0,15,303.75,0,0,0,0,2,0,2,t1.83 Right-0 L,0,0
5,0.39,0,0,3,337.5,0,0,0,0,2,0,2,t1.83 Right-0 L,0,0
5,0.41,0,0,21,337.5,0,0,0,0,2,0,2,t1.83 Right-0 L,0,0
5,0.42,0,0,15,337.5,0,0,0,0,2,0,2,t1.83 Right-0 L,0,0
5,0.43,0,0,217,337.5,0,0,0,0,2,0,2,t1.83 Right-0 L,0,0
5,0.44,0,0,196,337.5,0,0,0,0,2,0,2,t1.83 Right-0 L,0,0
5,0.45,0,0,15,348.75,0,0,0,0,2,0,2,t1.28 Right-0 L,0,0
5,0.46,0,0,15,348.75,0,0,0,0,2,0,2,t1.28 Right-0 L,0,0
5,0.47,0,0,3,337.5,0,0,0,0,2,0,2,t1.28 Right-0 L,0,0
5,0.48,0,0,15,348.75,0,0,0,0,2,0,2,t1.31 Right-0 L,0,0
5,0.49,34801637,135771045,3,337.5,0,0,0,0,2,0,2,t0.44 Right-0 L,34.801637,135.771045
5,0.5,34801637,135771045,2,337.5,0,0,0,0,2,0,2,t0.44 Right-0 L,34.801637,135.771045
5,0.51,34801637,135771045,2,337.5,0,0,0,0,2,0,2,t0.44 Right-0 L,34.801637,135.771045
5,0.52,34801637,135771045,1,337.5,0,0,0,0,2,0,2,t0.44 Right-0 L,34.801637,135.771045
5,0.53,34801601,135770919,11,348.75,0,0,0,2,0,0,2,t-1.09 Left-0 L,34.801601,135.770919
5,0.54,34801601,135770919,11,326.25,0,0,0,2,0,0,2,t-1.09 Left-0 L,34.801601,135.770919
5,0.55,34801601,135770919,11,326.25,0,0,0,2,0,0,2,t-1.09 Left-0 L,34.801601,135.770919
5,0.56,34801601,135770919,11,326.25,0,0,0,2,0,0,2,t-1.09 Left-0 L,34.801601,135.770919
5,0.57,34801601,135770919,11,326.25,0,0,0,2,0,0,2,t-1.09 Left-0 L,34.801601,135.770919
5,0.58,34801601,135770919,11,326.25,0,0,0,2,0,0,2,t-1.09 Left-0 L,34.801601,135.770919
5,0.59,34801601,135770919,11,326.25,0,0,0,2,0,0,2,t-1.09 Left-0 L,34.801601,135.770919
5,1,34801601,135770919,11,326.25,0,0,0,2,0,0,2,t-1.09 Left-0 L,34.801601,135.770919
5,1.1,34801605,135770960,7,326.25,0,0,0,2,0,0,2,t-0.96 Left-0 L,34.801605,135.77096
5,1.2,34801605,135770960,7,337.5,0,0,0,2,0,0,2,t-0.96 Left-0 L,34.801605,135.77096
5,1.3,34801605,135770960,8,326.25,0,0,0,2,0,0,2,t-0.96 Left-0 L,34.801605,135.77096
5,1.4,34801608,135770965,7,326.25,0,0,0,2,0,0,2,t-0.94 Left-0 L,34.801608,135.770965
5,1.5,34801608,135770965,7,337.5,0,0,0,2,0,0,2,t-0.94 Left-0 L,34.801608,135.770965
5,1.7,34801608,135770965,7,315,0,0,0,2,0,0,2,t-0.94 Left-0 L,34.801608,135.770965
5,1.8,34801608,135770965,7,315,0,0,0,2,0,0,2,t-0.94 Left-0 L,34.801608,135.770965
5,1.9,34801608,135770965,7,315,0,0,0,2,0,0,2,t-0.94 Left-0 L,34.801608,135.770965
5,1.1,34801608,135770965,7,315,0,0,0,2,0,0,2,t-0.94 Left-0 L,34.801608,135.770965
5,1.11,34801608,135770965,7,315,0,0,0,2,0,0,2,t-0.68 Left-0 L,34.801608,135.770965
5,1.12,34801608,135770965,7,337.5,0,0,0,2,0,0,2,t-0.68 Left-0 L,34.801608,135.770965
5,1.13,34801609,135770966,7,337.5,0,0,0,2,0,0,2,t-1.00 Left-0 L,34.801609,135.770966
5,1.14,34801609,135770966,7,337.5,0,0,0,2,0,0,2,t-1.00 Left-0 L,34.801609,135.770966
5,1.15,34801609,135770966,7,337.5,0,0,0,2,0,0,2,t-1.00 Left-0 L,34.801609,135.770966
5,1.16,34801609,135770966,7,337.5,0,0,0,2,0,0,2,t-1.00 Left-0 L,34.801609,135.770966
5,1.17,34801611,135770964,7,348.75,0,0,0,2,0,0,2,t-0.92 Left-0 L,34.801611,135.770964
5,1.18,34801611,135770964,7,348.75,0,0,0,2,0,0,2,t-0.92 Left-0 L,34.801611,135.770964
5,1.19,34801612,135770963,7,0,0,0,0,2,0,0,2,t-1.13 Left-0 L,34.801612,135.770963
5,1.2,34801612,135770963,7,0,0,0,0,2,0,0,2,t-1.13 Left-0 L,34.801612,135.770963
5,1.21,34801612,135770963,7,348.75,0,0,0,2,0,0,2,t-1.13 Left-0 L,34.801612,135.770963
5,1.22,34801612,135770963,7,0,0,0,0,2,0,0,2,t-1.13 Left-0 L,34.801612,135.770963
5,1.23,34801614,135770960,8,11.25,0,0,0,2,0,0,2,t-1.37 Left-0 L,34.801614,135.77096
5,1.24,34801614,135770960,8,11.25,0,0,0,2,0,0,2,t-1.62 Left-0 L,34.801614,135.77096
5,1.25,34801614,135770960,8,11.25,0,0,0,2,0,0,2,t-1.62 Left-0 L,34.801614,135.77096
5,1.26,34801614,135770960,7,11.25,0,0,0,2,0,0,2,t-1.62 Left-0 L,34.801614,135.77096
5,1.27,34801614,135770960,7,11.25,0,0,0,2,0,0,2,t-1.62 Left-0 L,34.801614,135.77096
5,1.28,34801614,135770960,7,11.25,0,0,0,2,0,0,2,t-1.62 Left-0 L,34.801614,135.77096
5,1.29,34801616,135770963,7,11.25,0,0,0,2,0,0,2,t-1.55 Left-0 L,34.801616,135.770963
5,1.3,34801616,135770963,7,0,0,0,0,2,0,0,2,t-1.34 Left-0 L,34.801616,135.770963
5,1.31,34801616,135770963,7,11.25,0,0,0,2,0,0,2,t-1.34 Left-0 L,34.801616,135.770963
5,1.33,34801616,135770963,7,11.25,0,0,0,2,0,0,2,t-1.34 Left-0 L,34.801616,135.770963
5,1.34,34801616,135770963,7,11.25,0,0,0,2,0,0,2,t-1.34 Left-0 L,34.801616,135.770963
5,1.35,34801616,135770963,7,11.25,0,0,0,2,0,0,2,t-1.34 Left-0 L,34.801616,135.770963
5,1.36,34801616,135770963,7,11.25,0,0,0,2,0,0,2,t-1.34 Left-0 L,34.801616,135.770963
5,1.37,34801617,135770964,7,11.25,0,0,0,2,0,0,2,t-1.54 Left-0 L,34.801617,135.770964
5,1.38,34801617,135770964,7,337.5,0,0,0,2,0,0,2,t-1.54 Left-0 L,34.801617,135.770964
5,1.39,34801617,135770964,7,326.25,0,0,0,2,0,0,2,t-1.54 Left-0 L,34.801617,135.770964
5,1.4,34801617,135770964,7,326.25,0,0,0,2,0,0,2,t-1.54 Left-0 L,34.801617,135.770964
5,1.41,34801617,135770964,7,326.25,0,0,0,2,0,0,2,t-1.54 Left-0 L,34.801617,135.770964
5,1.42,34801617,135770965,7,0,0,0,0,2,0,0,2,t-0.79 Left-0 L,34.801617,135.770965
5,1.43,34801617,135770966,7,11.25,0,0,0,2,0,0,2,t-1.31 Left-0 L,34.801617,135.770966
5,1.44,34801617,135770966,7,11.25,0,0,0,2,0,0,2,t-1.99 Left-0 L,34.801617,135.770966
5,1.45,34801617,135770966,7,0,0,0,0,2,0,0,2,t-1.99 Left-0 L,34.801617,135.770966
5,1.46,34801618,135770966,7,22.5,0,0,0,2,0,0,2,t-1.38 Left-0 L,34.801618,135.770966
5,1.47,34801618,135770966,7,33.75,0,0,0,2,0,0,2,t-1.87 Left-0 L,34.801618,135.770966
5,1.48,34801618,135770966,7,90,0,0,0,2,0,0,2,t-1.87 Left-0 L,34.801618,135.770966
5,1.49,34801618,135770966,7,90,0,0,0,2,0,0,2,t-1.87 Left-0 L,34.801618,135.770966
5,1.5,34801618,135770966,7,78.75,0,0,0,2,0,0,2,t-1.87 Left-0 L,34.801618,135.770966
5,1.51,34801618,135770966,7,90,0,0,0,2,0,0,2,t-1.87 Left-0 L,34.801618,135.770966
5,1.52,34801618,135770966,7,90,0,0,0,2,0,0,2,t-1.87 Left-0 L,34.801618,135.770966
5,1.53,34801618,135770966,7,90,0,0,0,2,0,0,2,t-1.87 Left-0 L,34.801618,135.770966
5,1.54,34801618,135770966,7,90,0,0,0,2,0,0,2,t-1.87 Left-0 L,34.801618,135.770966
5,1.55,34801619,135770967,7,90,0,0,0,2,0,0,2,t-2.81 Left-0 L,34.801619,135.770967
5,1.56,34801619,135770967,7,45,0,0,0,2,0,0,2,t-2.81 Left-0 L,34.801619,135.770967
5,1.57,34801619,135770967,7,45,0,0,0,2,0,0,2,t-2.16 Left-0 L,34.801619,135.770967
5,1.59,34801619,135770967,7,45,0,0,0,2,0,0,2,t-2.16 Left-0 L,34.801619,135.770967
5,2,34801619,135770967,7,56.25,0,0,0,2,0,0,2,t-2.16 Left-0 L,34.801619,135.770967
5,2.1,34801619,135770967,7,56.25,0,0,0,2,0,0,2,t-2.32 Left-0 L,34.801619,135.770967
5,2.2,34801619,135770967,7,45,0,0,0,2,0,0,2,t-2.32 Left-0 L,34.801619,135.770967
5,2.3,34801620,135770966,7,56.25,0,0,0,2,0,0,2,t-2.22 Left-0 L,34.80162,135.770966
5,2.4,34801620,135770966,7,45,0,0,0,2,0,0,2,t-2.22 Left-0 L,34.80162,135.770966
5,2.5,34801620,135770966,7,56.25,0,0,0,2,0,0,2,t-2.20 Left-0 L,34.80162,135.770966
5,2.6,34801620,135770966,7,67.5,0,0,0,2,0,0,2,t-2.57 Left-0 L,34.80162,135.770966
5,2.7,34801620,135770966,7,56.25,0,0,0,2,0,0,2,t-2.57 Left-0 L,34.80162,135.770966
5,2.8,34801620,135770966,7,56.25,0,0,0,2,0,0,2,t-2.57 Left-0 L,34.80162,135.770966
5,2.9,34801620,135770966,7,56.25,0,0,0,2,0,0,2,t-2.57 Left-0 L,34.80162,135.770966
5,2.1,34801620,135770966,7,45,0,0,0,2,0,0,2,t-2.31 Left-0 L,34.80162,135.770966
5,2.11,34801620,135770966,7,67.5,0,0,0,2,0,0,2,t-2.31 Left-0 L,34.80162,135.770966
5,2.12,34801620,135770966,7,67.5,0,0,0,2,0,0,2,t-2.31 Left-0 L,34.80162,135.770966
5,2.13,34801620,135770966,7,67.5,0,0,0,2,0,0,2,t-2.31 Left-0 L,34.80162,135.770966
5,2.14,34801621,135770966,8,33.75,0,0,0,0,0,1,2,stack left-0 L,34.801621,135.770966
5,2.15,34801621,135770966,8,67.5,0,0,0,0,0,1,2,stack left-0 L,34.801621,135.770966
5,2.16,34801621,135770966,8,67.5,0,0,0,0,0,1,2,stack left-0 L,34.801621,135.770966
5,2.17,34801621,135770966,8,67.5,0,0,0,0,0,1,2,stack left-0 L,34.801621,135.770966
5,2.18,34801621,135770966,7,67.5,0,0,0,0,0,1,2,stack left-0 L,34.801621,135.770966
5,2.19,34801621,135770966,7,67.5,0,0,0,0,0,1,2,stack left-0 L,34.801621,135.770966
5,2.2,34801621,135770966,7,67.5,0,0,0,0,0,1,2,stack left-0 L,34.801621,135.770966
5,2.21,34801623,135770966,8,67.5,0,0,0,0,0,1,2,stack left-0 L,34.801623,135.770966
5,2.22,34801623,135770966,8,67.5,0,0,0,0,0,1,2,stack right-0 L,34.801623,135.770966
5,2.23,34801623,135770966,8,168.75,0,11.2,0,0,0,1,2,stack left-0 L,34.801623,135.770966
5,2.25,34801623,135770966,7,180,0,11.2,0,0,0,1,2,stack left-0 L,34.801623,135.770966
5,2.26,34801623,135770966,7,168.75,0,11.2,0,0,0,1,2,stack left-0 L,34.801623,135.770966
5,2.27,34801623,135770966,7,168.75,0,11.2,0,0,0,1,2,stack left-0 L,34.801623,135.770966
5,2.28,34801623,135770966,8,168.75,0,11.2,0,0,0,1,2,stack right-0 L,34.801623,135.770966
5,2.29,34801623,135770966,7,180,0,11.2,0,0,0,1,2,stack right-0 L,34.801623,135.770966
5,2.3,34801623,135770967,8,168.75,0,11.2,0,0,0,1,2,stack left-0 L,34.801623,135.770967
5,2.31,34801623,135770967,7,112.5,0,0,0,0,0,1,2,stack left-0 L,34.801623,135.770967
5,2.32,34801623,135770967,7,112.5,0,0,0,0,0,1,2,stack left-0 L,34.801623,135.770967
5,2.33,34801623,135770967,7,112.5,0,0,0,0,0,1,2,stack left-0 L,34.801623,135.770967
5,2.34,34801624,135770967,8,112.5,0,0,0,0,0,1,2,stack left-0 L,34.801624,135.770967
5,2.35,34801624,135770967,8,168.75,0,11.2,0,0,0,1,2,stack right-0 L,34.801624,135.770967
5,2.36,34801624,135770967,7,168.75,0,11.2,0,0,0,1,2,stack right-0 L,34.801624,135.770967
5,2.37,34801624,135770967,7,180,0,11.2,0,0,0,1,2,stack right-0 L,34.801624,135.770967
5,2.38,34801624,135770967,7,180,0,11.2,0,0,0,1,2,stack right-0 L,34.801624,135.770967
5,2.39,34801624,135770967,7,168.75,0,11.2,0,0,0,1,2,stack right-0 L,34.801624,135.770967
5,2.4,34801624,135770967,7,168.75,0,11.2,0,0,0,1,2,stack right-0 L,34.801624,135.770967
5,2.41,34801625,135770967,7,135,0,11.2,0,0,2,0,2,t2.02 Rightk cn,34.801625,135.770967
5,2.42,34801625,135770967,7,135,0,0,0,0,2,0,2,t2.02 Rightk cn,34.801625,135.770967
5,2.43,34801625,135770967,7,135,0,0,0,0,2,0,2,t2.02 Rightk cn,34.801625,135.770967
5,2.44,34801625,135770967,7,135,0,0,0,0,2,0,2,t2.02 Rightk cn,34.801625,135.770967
5,2.45,34801625,135770967,7,135,0,0,0,0,2,0,2,t2.02 Rightk cn,34.801625,135.770967
5,2.46,34801625,135770967,7,135,0,0,0,0,2,0,2,t2.02 Rightk cn,34.801625,135.770967
5,2.47,34801625,135770967,7,135,0,0,0,0,2,0,2,t2.02 Rightk cn,34.801625,135.770967
5,2.48,34801626,135770966,8,146.25,0,0,0,0,2,0,2,t2.57 Rightk cn,34.801626,135.770966
5,2.49,34801626,135770966,7,22.5,0,0,0,0,2,0,2,t2.57 Rightk cn,34.801626,135.770966
5,2.51,34801626,135770966,7,0,0,0,0,0,2,0,2,t2.57 Rightk cn,34.801626,135.770966
5,2.52,34801626,135770966,7,0,0,0,0,0,2,0,2,t2.57 Rightk cn,34.801626,135.770966
5,2.53,34801627,135770966,8,0,0,0,0,2,0,0,2,t-1.26 Leftk cn,34.801627,135.770966
5,2.54,34801627,135770966,7,11.25,0,0,0,2,0,0,2,t-1.26 Leftk cn,34.801627,135.770966
5,2.55,34801627,135770966,7,11.25,0,0,0,2,0,0,2,t-1.26 Leftk cn,34.801627,135.770966
5,2.56,34801627,135770966,8,11.25,0,0,0,2,0,0,2,t-1.48 Leftk cn,34.801627,135.770966
5,2.57,34801627,135770966,7,56.25,0,0,0,2,0,0,2,t-1.48 Leftk cn,34.801627,135.770966
5,2.58,34801627,135770966,7,67.5,0,0,0,2,0,0,2,t-1.48 Leftk cn,34.801627,135.770966
5,2.59,34801627,135770966,8,67.5,0,0,0,2,0,0,2,t-2.47 Leftk cn,34.801627,135.770966
5,3,34801627,135770966,7,33.75,0,0,0,2,0,0,2,t-2.47 Leftk cn,34.801627,135.770966
5,3.1,34801627,135770966,7,33.75,0,0,0,2,0,0,2,t-2.47 Leftk cn,34.801627,135.770966
5,3.2,34801627,135770966,7,33.75,0,0,0,2,0,0,2,t-2.47 Leftk cn,34.801627,135.770966
5,3.3,34801627,135770966,7,33.75,0,0,0,2,0,0,2,t-2.47 Leftk cn,34.801627,135.770966
5,3.4,34801627,135770966,7,33.75,0,0,0,2,0,0,2,t-2.47 Leftk cn,34.801627,135.770966
5,3.5,34801627,135770967,8,33.75,0,0,0,2,0,0,2,t-1.88 Leftk cn,34.801627,135.770967
5,3.6,34801627,135770967,8,33.75,0,0,0,2,0,0,2,t-2.11 Leftk cn,34.801627,135.770967
5,3.7,34801627,135770967,8,56.25,0,0,0,2,0,0,2,t-2.77 Leftk cn,34.801627,135.770967
5,3.8,34801627,135770967,8,45,0,0,0,2,0,0,2,t-2.18 Leftk cn,34.801627,135.770967
5,3.9,34801627,135770967,8,56.25,0,0,0,2,0,0,2,t-2.93 Leftk cn,34.801627,135.770967
5,3.1,34801627,135770967,7,56.25,0,0,0,2,0,0,2,t-2.93 Leftk cn,34.801627,135.770967
5,3.11,34801627,135770967,7,56.25,0,0,0,2,0,0,2,t-2.93 Leftk cn,34.801627,135.770967
5,3.12,34801627,135770967,7,56.25,0,0,0,2,0,0,2,t-2.93 Leftk cn,34.801627,135.770967
5,3.13,34801627,135770967,7,56.25,0,0,0,2,0,0,2,t-2.93 Leftk cn,34.801627,135.770967
5,3.14,34801627,135770967,8,56.25,0,0,0,2,0,0,2,t-2.26 Leftk cn,34.801627,135.770967
5,3.15,34801627,135770967,7,67.5,0,0,0,2,0,0,2,t-2.26 Leftk cn,34.801627,135.770967
5,3.17,34801627,135770967,7,67.5,0,0,0,2,0,0,2,t-2.26 Leftk cn,34.801627,135.770967
5,3.18,34801627,135770967,7,67.5,0,0,0,2,0,0,2,t-2.26 Leftk cn,34.801627,135.770967
5,3.19,34801627,135770967,7,67.5,0,0,0,2,0,0,2,t-2.26 Leftk cn,34.801627,135.770967
5,3.2,34801627,135770967,7,67.5,0,0,0,2,0,0,2,t-2.26 Leftk cn,34.801627,135.770967
5,3.21,34801628,135770968,7,67.5,0,0,0,2,0,0,2,t-2.41 Leftk cn,34.801628,135.770968
5,3.22,34801628,135770968,7,67.5,0,0,0,2,0,0,2,t-2.48 Leftk cn,34.801628,135.770968
5,3.23,34801628,135770968,7,67.5,0,0,0,2,0,0,2,t-2.48 Leftk cn,34.801628,135.770968
5,3.24,34801628,135770968,7,67.5,0,0,0,2,0,0,2,t-2.35 Leftk cn,34.801628,135.770968
5,3.25,34801628,135770968,7,67.5,0,0,0,2,0,0,2,t-2.35 Leftk cn,34.801628,135.770968
5,3.26,34801628,135770968,7,67.5,0,0,0,2,0,0,2,t-2.35 Leftk cn,34.801628,135.770968
5,3.27,34801629,135770968,8,56.25,0,0,0,2,0,0,2,t-2.42 Leftk cn,34.801629,135.770968
5,3.28,34801629,135770968,8,56.25,0,0,0,2,0,0,2,t-2.24 Leftk cn,34.801629,135.770968
5,3.29,34801629,135770968,8,56.25,0,0,0,2,0,0,2,t-2.50 Leftk cn,34.801629,135.770968
5,3.3,34801629,135770968,7,90,0,0,0,2,0,0,2,t-2.50 Leftk cn,34.801629,135.770968
5,3.31,34801629,135770968,8,67.5,0,0,0,2,0,0,2,t-2.84 Leftk cn,34.801629,135.770968
5,3.32,34801629,135770968,7,67.5,0,0,0,2,0,0,2,t-2.84 Leftk cn,34.801629,135.770968
5,3.33,34801629,135770967,8,45,0,0,0,2,0,0,2,t-2.41 Leftk cn,34.801629,135.770967
5,3.34,34801629,135770967,8,45,0,0,0,2,0,0,2,t-2.63 Leftk cn,34.801629,135.770967
5,3.35,34801629,135770967,7,45,0,0,0,2,0,0,2,t-2.63 Leftk cn,34.801629,135.770967
5,3.36,34801630,135770967,8,33.75,0,0,0,2,0,0,2,t-1.99 Leftk cn,34.80163,135.770967
5,3.37,34801630,135770967,7,78.75,0,0,0,2,0,0,2,t-1.99 Leftk cn,34.80163,135.770967
5,3.38,34801630,135770967,7,180,0,0,0,2,0,0,2,t-1.99 Leftk cn,34.80163,135.770967
5,3.39,34801630,135770967,7,180,0,0,0,2,0,0,2,t-1.99 Leftk cn,34.80163,135.770967
5,3.4,34801630,135770967,7,180,0,0,0,2,0,0,2,t-1.99 Leftk cn,34.80163,135.770967
5,3.41,34801630,135770968,8,180,0,0,0,0,2,0,2,t1.90 Rightk cn,34.80163,135.770968
5,3.43,34801630,135770968,8,33.75,11.2,0,0,2,0,0,2,t-1.69 Leftk cn,34.80163,135.770968
5,3.44,34801630,135770968,7,337.5,0,0,0,2,0,0,2,t-1.69 Leftk cn,34.80163,135.770968
5,3.45,34801630,135770968,7,337.5,0,0,0,2,0,0,2,t-1.69 Leftk cn,34.80163,135.770968
5,3.46,34801630,135770968,7,326.25,0,0,0,2,0,0,2,t-1.69 Leftk cn,34.80163,135.770968
5,3.47,34801631,135770968,8,326.25,0,0,0,2,0,0,2,t-0.68 Leftk cn,34.801631,135.770968
5,3.48,34801631,135770969,8,315,0,0,0,0,0,0,2,t-0.35 Forwardn,34.801631,135.770969
5,3.49,34801631,135770969,7,315,0,0,0,0,0,0,2,t-0.35 Forwardn,34.801631,135.770969
5,3.5,34801631,135770969,8,303.75,0,0,0,0,0,0,2,t-0.23 Forwardn,34.801631,135.770969
5,3.51,34801631,135770969,7,337.5,0,0,0,0,0,0,2,t-0.23 Forwardn,34.801631,135.770969
5,3.52,34801631,135770969,7,337.5,0,0,0,0,0,0,2,t-0.23 Forwardn,34.801631,135.770969
5,3.53,34801631,135770969,7,337.5,0,0,0,0,0,0,2,t-0.23 Forwardn,34.801631,135.770969
5,3.54,34801631,135770969,7,337.5,0,0,0,0,0,0,2,t-0.23 Forwardn,34.801631,135.770969
5,3.55,34801632,135770969,8,348.75,0,0,0,2,0,0,2,t-0.69 Leftk cn,34.801632,135.770969
5,3.56,34801632,135770969,7,337.5,0,0,0,2,0,0,2,t-0.69 Leftk cn,34.801632,135.770969
5,3.57,34801632,135770969,8,348.75,0,0,0,2,0,0,2,t-0.72 Leftk cn,34.801632,135.770969
5,3.58,34801632,135770969,7,303.75,0,0,0,2,0,0,2,t-0.72 Leftk cn,34.801632,135.770969
5,3.59,34801632,135770969,7,303.75,0,0,0,2,0,0,2,t-0.72 Leftk cn,34.801632,135.770969
5,4,34801632,135770969,7,303.75,0,0,0,2,0,0,2,t-0.72 Leftk cn,34.801632,135.770969
5,4.1,34801632,135770969,8,337.5,0,0,0,0,0,0,2,t-0.17 Forwardn,34.801632,135.770969
5,4.2,34801632,135770969,7,326.25,0,0,0,0,0,0,2,t-0.17 Forwardn,34.801632,135.770969
5,4.3,34801632,135770969,7,326.25,0,0,0,0,0,0,2,t-0.17 Forwardn,34.801632,135.770969
5,4.4,34801632,135770969,7,326.25,0,0,0,0,0,0,2,t-0.17 Forwardn,34.801632,135.770969
5,4.5,34801632,135770969,7,326.25,0,0,0,0,0,0,2,t-0.17 Forwardn,34.801632,135.770969
5,4.6,34801633,135770969,8,326.25,0,0,0,2,0,0,2,t-0.58 Leftk cn,34.801633,135.770969
5,4.7,34801633,135770969,7,348.75,0,0,0,2,0,0,2,t-0.58 Leftk cn,34.801633,135.770969
5,4.9,34801633,135770969,8,337.5,0,0,0,2,0,0,2,t-0.81 Leftk cn,34.801633,135.770969
5,4.1,34801633,135770969,8,337.5,0,0,0,2,0,0,2,t-0.79 Leftk cn,34.801633,135.770969
5,4.11,34801633,135770969,7,11.25,0,0,0,2,0,0,2,t-0.79 Leftk cn,34.801633,135.770969
5,4.12,34801633,135770969,7,11.25,0,0,0,2,0,0,2,t-0.79 Leftk cn,34.801633,135.770969
5,4.13,34801634,135770970,8,11.25,0,0,0,2,0,0,2,t-1.33 Leftk cn,34.801634,135.77097
5,4.14,34801634,135770970,7,45,0,0,0,2,0,0,2,t-1.33 Leftk cn,34.801634,135.77097
5,4.15,34801634,135770970,8,135,0,0,0,0,2,0,2,t2.69 Rightk cn,34.801634,135.77097
5,4.16,34801634,135770970,7,22.5,11.2,0,0,0,2,0,2,t2.69 Rightk cn,34.801634,135.77097
5,4.17,34801634,135770970,7,337.5,0,0,0,0,2,0,2,t2.69 Rightk cn,34.801634,135.77097
5,4.18,34801634,135770970,7,337.5,0,0,0,0,2,0,2,t2.69 Rightk cn,34.801634,135.77097
5,4.19,34801634,135770970,7,337.5,0,0,0,0,2,0,2,t2.69 Rightk cn,34.801634,135.77097
5,4.2,34801634,135770970,8,11.25,0,0,0,2,0,0,2,t-0.70 Leftk cn,34.801634,135.77097
5,4.21,34801634,135770970,7,11.25,0,0,0,2,0,0,2,t-0.70 Leftk cn,34.801634,135.77097
5,4.22,34801635,135770970,8,22.5,0,0,0,2,0,0,2,t-1.27 Leftk cn,34.801635,135.77097
5,4.23,34801635,135770970,8,22.5,0,0,0,2,0,0,2,t-1.56 Leftk cn,34.801635,135.77097
5,4.24,34801635,135770970,8,45,0,0,0,2,0,0,2,t-1.76 Leftk cn,34.801635,135.77097
5,4.25,34801635,135770970,7,90,0,0,0,2,0,0,2,t-1.76 Leftk cn,34.801635,135.77097
5,4.26,34801635,135770970,7,90,0,0,0,2,0,0,2,t-1.76 Leftk cn,34.801635,135.77097
5,4.27,34801635,135770970,7,90,0,0,0,2,0,0,2,t-1.76 Leftk cn,34.801635,135.77097
5,4.28,34801635,135770970,7,90,0,0,0,2,0,0,2,t-1.76 Leftk cn,34.801635,135.77097
5,4.29,34801635,135770970,7,90,0,0,0,2,0,0,2,t-1.76 Leftk cn,34.801635,135.77097
5,4.3,34801635,135770970,7,90,0,0,0,2,0,0,2,t-1.76 Leftk cn,34.801635,135.77097
5,4.31,34801635,135770970,6,90,0,0,0,2,0,0,2,t-1.76 Leftk cn,34.801635,135.77097
5,4.32,34801636,135770970,8,90,0,0,0,2,0,0,2,t-2.70 Leftk cn,34.801636,135.77097
5,4.33,34801636,135770970,8,101.25,0,0,0,2,0,0,2,t-2.87 Leftk cn,34.801636,135.77097
5,4.35,34801636,135770970,8,56.25,0,0,0,2,0,0,2,t-2.09 Leftk cn,34.801636,135.77097
5,4.36,34801636,135770970,8,78.75,0,0,0,2,0,0,2,t-2.43 Leftk cn,34.801636,135.77097
5,4.37,34801636,135770970,8,67.5,0,0,0,2,0,0,2,t-2.20 Leftk cn,34.801636,135.77097
5,4.38,34801636,135770970,7,90,0,0,0,2,0,0,2,t-2.20 Leftk cn,34.801636,135.77097
5,4.39,34801636,135770970,7,123.75,0,0,0,2,0,0,2,t-2.20 Leftk cn,34.801636,135.77097
5,4.4,34801636,135770970,7,123.75,0,0,0,2,0,0,2,t-2.20 Leftk cn,34.801636,135.77097
5,4.41,34801636,135770970,7,123.75,0,0,0,2,0,0,2,t-2.20 Leftk cn,34.801636,135.77097
5,4.42,34801636,135770970,7,123.75,0,0,0,2,0,0,2,t-2.20 Leftk cn,34.801636,135.77097
5,4.43,34801637,135770970,8,123.75,0,0,0,0,2,0,2,t2.96 Rightk cn,34.801637,135.77097
5,4.44,34801637,135770970,8,67.5,0,0,0,2,0,0,2,t-2.33 Leftk cn,34.801637,135.77097
5,4.45,34801637,135770970,8,33.75,0,0,0,2,0,0,2,t-1.84 Leftk cn,34.801637,135.77097
5,4.46,34801637,135770970,7,56.25,0,0,0,2,0,0,2,t-1.84 Leftk cn,34.801637,135.77097
5,4.47,34801637,135770970,8,33.75,0,0,0,2,0,0,2,t-2.08 Leftk cn,34.801637,135.77097
5,4.48,34801637,135770970,8,67.5,0,0,0,2,0,0,2,t-2.57 Leftk cn,34.801637,135.77097
5,4.49,34801637,135770970,7,56.25,0,0,0,2,0,0,2,t-2.57 Leftk cn,34.801637,135.77097
5,4.5,34801637,135770970,8,45,0,0,0,2,0,0,2,t-2.06 Leftk cn,34.801637,135.77097
5,4.51,34801637,135770970,8,67.5,0,0,0,2,0,0,2,t-2.72 Leftk cn,34.801637,135.77097
5,4.52,34801637,135770970,7,78.75,0,0,0,2,0,0,2,t-2.72 Leftk cn,34.801637,135.77097
5,4.53,34801637,135770970,7,67.5,0,0,0,2,0,0,2,t-2.72 Leftk cn,34.801637,135.77097
5,4.54,34801637,135770970,7,67.5,0,0,0,2,0,0,2,t-2.72 Leftk cn,34.801637,135.77097
5,4.55,34801637,135770970,7,67.5,0,0,0,2,0,0,2,t-2.72 Leftk cn,34.801637,135.77097
5,4.56,34801637,135770970,7,67.5,0,0,0,2,0,0,2,t-2.72 Leftk cn,34.801637,135.77097
5,4.57,34801637,135770970,7,67.5,0,0,0,2,0,0,2,t-2.72 Leftk cn,34.801637,135.77097
5,4.58,34801638,135770970,8,67.5,0,0,0,2,0,0,2,t-2.35 Leftk cn,34.801638,135.77097
5,4.59,34801638,135770970,7,78.75,0,0,0,2,0,0,2,t-2.35 Leftk cn,34.801638,135.77097
5,5.1,34801638,135770970,7,78.75,0,0,0,2,0,0,2,t-2.35 Leftk cn,34.801638,135.77097
5,5.2,34801638,135770970,7,78.75,0,0,0,2,0,0,2,t-2.35 Leftk cn,34.801638,135.77097
5,5.3,34801638,135770970,8,78.75,0,0,0,2,0,0,2,t-2.44 Leftk cn,34.801638,135.77097
5,5.4,34801638,135770970,8,78.75,0,0,0,2,0,0,2,t-2.52 Leftk cn,34.801638,135.77097
5,5.5,34801638,135770969,8,67.5,0,0,0,2,0,0,2,t-2.27 Leftk cn,34.801638,135.770969
5,5.6,34801638,135770969,7,78.75,0,0,0,2,0,0,2,t-2.27 Leftk cn,34.801638,135.770969
5,5.7,34801638,135770969,7,78.75,0,0,0,2,0,0,2,t-2.27 Leftk cn,34.801638,135.770969
5,5.8,34801638,135770969,7,78.75,0,0,0,2,0,0,2,t-2.27 Leftk cn,34.801638,135.770969
5,5.9,34801638,135770969,7,78.75,0,0,0,2,0,0,2,t-2.27 Leftk cn,34.801638,135.770969
5,5.1,34801638,135770969,7,78.75,0,0,0,2,0,0,2,t-2.27 Leftk cn,34.801638,135.770969
5,5.11,34801639,135770970,8,78.75,0,0,0,2,0,0,2,t-2.52 Leftk cn,34.801639,135.77097
5,5.12,34801639,135770970,7,90,0,0,0,2,0,0,2,t-2.52 Leftk cn,34.801639,135.77097
5,5.13,34801639,135770970,7,90,0,0,0,2,0,0,2,t-2.52 Leftk cn,34.801639,135.77097
5,5.14,34801639,135770970,7,90,0,0,0,2,0,0,2,t-2.52 Leftk cn,34.801639,135.77097
5,5.15,34801639,135770970,7,90,0,0,0,2,0,0,2,t-2.52 Leftk cn,34.801639,135.77097
5,5.16,34801639,135770970,7,90,0,0,0,2,0,0,2,t-2.52 Leftk cn,34.801639,135.77097
5,5.17,34801640,135770970,8,67.5,0,0,0,2,0,0,2,t-2.63 Leftk cn,34.80164,135.77097
5,5.18,34801640,135770970,8,45,0,0,0,2,0,0,2,t-2.31 Leftk cn,34.80164,135.77097
5,5.19,34801640,135770970,7,78.75,0,0,0,2,0,0,2,t-2.31 Leftk cn,34.80164,135.77097
5,5.2,34801640,135770970,7,78.75,0,0,0,2,0,0,2,t-2.31 Leftk cn,34.80164,135.77097
5,5.21,34801640,135770970,7,78.75,0,0,0,2,0,0,2,t-2.31 Leftk cn,34.80164,135.77097
5,5.22,34801640,135770970,7,78.75,0,0,0,2,0,0,2,t-2.31 Leftk cn,34.80164,135.77097
5,5.23,34801640,135770970,7,78.75,0,0,0,2,0,0,2,t-2.31 Leftk cn,34.80164,135.77097
5,5.24,34801641,135770970,8,78.75,0,0,0,2,0,0,2,t-2.43 Leftk cn,34.801641,135.77097
5,5.25,34801641,135770970,7,78.75,0,0,0,2,0,0,2,t-2.43 Leftk cn,34.801641,135.77097
5,5.27,34801641,135770970,7,101.25,0,0,0,2,0,0,2,t-2.43 Leftk cn,34.801641,135.77097
5,5.28,34801641,135770970,7,101.25,0,0,0,2,0,0,2,t-2.43 Leftk cn,34.801641,135.77097
5,5.29,34801641,135770970,8,101.25,0,0,0,2,0,0,2,t-2.76 Leftk cn,34.801641,135.77097
5,5.3,34801641,135770970,7,67.5,0,0,0,2,0,0,2,t-2.76 Leftk cn,34.801641,135.77097
5,5.31,34801641,135770970,7,67.5,0,0,0,2,0,0,2,t-2.76 Leftk cn,34.801641,135.77097
5,5.32,34801641,135770970,7,67.5,0,0,0,2,0,0,2,t-2.76 Leftk cn,34.801641,135.77097
5,5.33,34801641,135770970,7,67.5,0,0,0,2,0,0,2,t-2.76 Leftk cn,34.801641,135.77097
5,5.34,34801641,135770970,7,67.5,0,0,0,2,0,0,2,t-2.76 Leftk cn,34.801641,135.77097
5,5.35,34801642,135770970,8,67.5,0,0,0,2,0,0,2,t-2.31 Leftk cn,34.801642,135.77097
5,5.36,34801642,135770970,7,78.75,0,0,0,2,0,0,2,t-2.31 Leftk cn,34.801642,135.77097
5,5.37,34801642,135770970,7,78.75,0,0,0,2,0,0,2,t-2.31 Leftk cn,34.801642,135.77097
5,5.38,34801642,135770970,7,78.75,0,0,0,2,0,0,2,t-2.31 Leftk cn,34.801642,135.77097
5,5.39,34801642,135770970,7,78.75,0,0,0,2,0,0,2,t-2.31 Leftk cn,34.801642,135.77097
5,5.4,34801642,135770970,7,78.75,0,0,0,2,0,0,2,t-2.31 Leftk cn,34.801642,135.77097
5,5.41,34801642,135770970,7,78.75,0,0,0,2,0,0,2,t-2.31 Leftk cn,34.801642,135.77097
5,5.42,34801643,135770970,8,67.5,0,0,0,2,0,0,2,t-2.46 Leftk cn,34.801643,135.77097
5,5.43,34801643,135770970,8,67.5,0,0,0,2,0,0,2,t-2.46 Leftk cn,34.801643,135.77097
5,5.44,34801643,135770970,7,67.5,0,0,0,2,0,0,2,t-2.46 Leftk cn,34.801643,135.77097
5,5.45,34801643,135770970,7,67.5,0,0,0,2,0,0,2,t-2.46 Leftk cn,34.801643,135.77097
5,5.46,34801643,135770970,7,67.5,0,0,0,2,0,0,2,t-2.46 Leftk cn,34.801643,135.77097
5,5.47,34801643,135770970,7,67.5,0,0,0,2,0,0,2,t-2.46 Leftk cn,34.801643,135.77097
5,5.48,34801643,135770970,7,67.5,0,0,0,2,0,0,2,t-2.46 Leftk cn,34.801643,135.77097
5,5.49,34801643,135770970,7,67.5,0,0,0,2,0,0,2,t-2.46 Leftk cn,34.801643,135.77097
5,5.5,34801644,135770971,8,67.5,0,0,0,2,0,0,2,t-2.22 Leftk cn,34.801644,135.770971
5,5.51,34801644,135770971,7,67.5,0,0,0,2,0,0,2,t-2.22 Leftk cn,34.801644,135.770971
5,5.53,34801644,135770971,7,67.5,0,0,0,2,0,0,2,t-2.22 Leftk cn,34.801644,135.770971
5,5.54,34801645,135770971,8,67.5,0,0,0,2,0,0,2,t-2.26 Leftk cn,34.801645,135.770971
5,5.55,34801645,135770971,8,56.25,0,0,0,2,0,0,2,t-2.09 Leftk cn,34.801645,135.770971
5,5.56,34801645,135770971,7,67.5,0,0,0,2,0,0,2,t-2.09 Leftk cn,34.801645,135.770971
5,5.57,34801645,135770971,7,67.5,0,0,0,2,0,0,2,t-2.09 Leftk cn,34.801645,135.770971
5,5.58,34801645,135770971,7,67.5,0,0,0,2,0,0,2,t-2.09 Leftk cn,34.801645,135.770971
5,5.59,34801645,135770971,7,67.5,0,0,0,2,0,0,2,t-2.09 Leftk cn,34.801645,135.770971
5,6,34801645,135770971,8,67.5,0,0,0,2,0,0,2,t-2.22 Leftk cn,34.801645,135.770971
5,6.1,34801645,135770971,7,67.5,0,0,0,2,0,0,2,t-2.22 Leftk cn,34.801645,135.770971
5,6.2,34801645,135770971,7,67.5,0,0,0,2,0,0,2,t-2.22 Leftk cn,34.801645,135.770971
5,6.3,34801645,135770972,8,56.25,0,0,0,2,0,0,2,t-2.23 Leftk cn,34.801645,135.770972
5,6.4,34801645,135770972,7,56.25,0,0,0,2,0,0,2,t-2.23 Leftk cn,34.801645,135.770972
5,6.5,34801645,135770972,7,56.25,0,0,0,2,0,0,2,t-2.23 Leftk cn,34.801645,135.770972
5,6.6,34801646,135770971,8,56.25,0,0,0,2,0,0,2,t-2.04 Leftk cn,34.801646,135.770971
5,6.7,34801646,135770971,8,56.25,0,0,0,2,0,0,2,t-2.32 Leftk cn,34.801646,135.770971
5,6.8,34801646,135770971,8,67.5,0,0,0,2,0,0,2,t-2.32 Leftk cn,34.801646,135.770971
5,6.9,34801646,135770971,7,67.5,0,0,0,2,0,0,2,t-2.32 Leftk cn,34.801646,135.770971
5,6.1,34801646,135770971,8,56.25,0,0,0,2,0,0,2,t-2.11 Leftk cn,34.801646,135.770971
5,6.11,34801646,135770971,8,56.25,0,0,0,2,0,0,2,t-2.11 Leftk cn,34.801646,135.770971
5,6.12,34801646,135770971,7,56.25,0,0,0,2,0,0,2,t-2.11 Leftk cn,34.801646,135.770971
5,6.13,34801646,135770971,7,56.25,0,0,0,2,0,0,2,t-2.11 Leftk cn,34.801646,135.770971
5,6.14,34801646,135770971,7,56.25,0,0,0,2,0,0,2,t-2.11 Leftk cn,34.801646,135.770971
5,6.15,34801646,135770971,7,56.25,0,0,0,2,0,0,2,t-2.11 Leftk cn,34.801646,135.770971
5,6.16,34801646,135770971,7,56.25,0,0,0,2,0,0,2,t-2.11 Leftk cn,34.801646,135.770971
5,6.17,34801646,135770971,6,56.25,0,0,0,2,0,0,2,t-2.11 Leftk cn,34.801646,135.770971
5,6.19,34801652,135770971,8,56.25,0,0,0,2,0,0,2,t-2.04 Leftk cn,34.801652,135.770971
5,6.2,34801652,135770971,8,67.5,0,0,0,2,0,0,2,t-2.04 Leftk cn,34.801652,135.770971
5,6.21,34801652,135770971,7,67.5,0,0,0,2,0,0,2,t-2.04 Leftk cn,34.801652,135.770971
5,6.22,34801652,135770971,7,67.5,0,0,0,2,0,0,2,t-2.04 Leftk cn,34.801652,135.770971
5,6.23,34801652,135770971,7,67.5,0,0,0,2,0,0,2,t-2.04 Leftk cn,34.801652,135.770971
5,6.24,34801652,135770971,7,67.5,0,0,0,2,0,0,2,t-2.04 Leftk cn,34.801652,135.770971
5,6.25,34801655,135770969,8,67.5,0,0,0,2,0,0,2,t-2.22 Leftk cn,34.801655,135.770969
5,6.26,34801655,135770968,8,56.25,0,0,0,2,0,0,2,t-1.93 Leftk cn,34.801655,135.770968
5,6.27,34801656,135770967,9,56.25,0,0,0,2,0,0,2,t-1.90 Leftk cn,34.801656,135.770967
5,6.28,34801656,135770967,8,56.25,0,0,0,2,0,0,2,t-1.90 Leftk cn,34.801656,135.770967
5,6.29,34801657,135770967,9,56.25,0,0,0,2,0,0,2,t-1.86 Leftk cn,34.801657,135.770967
5,6.3,34801657,135770967,8,56.25,0,0,0,2,0,0,2,t-1.86 Leftk cn,34.801657,135.770967
5,6.31,34801657,135770967,8,56.25,0,0,0,2,0,0,2,t-1.86 Leftk cn,34.801657,135.770967
5,6.32,34801657,135770967,8,56.25,0,0,0,2,0,0,2,t-1.86 Leftk cn,34.801657,135.770967
5,6.33,34801658,135770966,9,45,0,0,0,2,0,0,2,t-1.90 Leftk cn,34.801658,135.770966
5,6.34,34801658,135770966,8,56.25,0,0,0,2,0,0,2,t-1.90 Leftk cn,34.801658,135.770966
5,6.35,34801658,135770966,8,56.25,0,0,0,2,0,0,2,t-1.90 Leftk cn,34.801658,135.770966
5,6.36,34801658,135770966,8,56.25,0,0,0,2,0,0,2,t-1.90 Leftk cn,34.801658,135.770966
5,6.37,34801658,135770966,7,56.25,0,0,0,2,0,0,2,t-1.90 Leftk cn,34.801658,135.770966
5,6.38,34801658,135770966,7,56.25,0,0,0,2,0,0,2,t-1.90 Leftk cn,34.801658,135.770966
5,6.39,34801658,135770966,7,56.25,0,0,0,2,0,0,2,t-1.90 Leftk cn,34.801658,135.770966
5,6.4,34801658,135770966,7,56.25,0,0,0,2,0,0,2,t-1.90 Leftk cn,34.801658,135.770966
5,6.41,34801658,135770966,7,56.25,0,0,0,2,0,0,2,t-1.90 Leftk cn,34.801658,135.770966
5,6.42,34801659,135770965,9,56.25,0,0,0,2,0,0,2,t-1.94 Leftk cn,34.801659,135.770965
5,6.43,34801659,135770965,9,45,0,0,0,2,0,0,2,t-1.82 Leftk cn,34.801659,135.770965
5,6.45,34801659,135770965,8,56.25,0,0,0,2,0,0,2,t-1.82 Leftk cn,34.801659,135.770965
5,6.46,34801659,135770965,9,56.25,0,0,0,2,0,0,2,t-2.01 Leftk cn,34.801659,135.770965
5,6.47,34801659,135770965,8,56.25,0,0,0,2,0,0,2,t-2.01 Leftk cn,34.801659,135.770965
5,6.48,34801659,135770965,8,56.25,0,0,0,2,0,0,2,t-2.01 Leftk cn,34.801659,135.770965
5,6.49,34801659,135770965,8,56.25,0,0,0,2,0,0,2,t-2.01 Leftk cn,34.801659,135.770965
5,6.5,34801659,135770964,9,56.25,0,0,0,2,0,0,2,t-1.99 Leftk cn,34.801659,135.770964
5,6.51,34801659,135770964,8,67.5,0,0,0,2,0,0,2,t-1.99 Leftk cn,34.801659,135.770964
5,6.52,34801659,135770964,8,67.5,0,0,0,2,0,0,2,t-1.99 Leftk cn,34.801659,135.770964
5,6.53,34801659,135770964,8,67.5,0,0,0,2,0,0,2,t-1.99 Leftk cn,34.801659,135.770964
5,6.54,34801659,135770964,8,67.5,0,0,0,2,0,0,2,t-1.99 Leftk cn,34.801659,135.770964
5,6.55,34801659,135770964,7,67.5,0,0,0,2,0,0,2,t-1.99 Leftk cn,34.801659,135.770964
5,6.56,34801660,135770964,9,56.25,0,0,0,2,0,0,2,t-2.14 Leftk cn,34.80166,135.770964
5,6.57,34801660,135770964,9,56.25,0,0,0,2,0,0,2,t-1.90 Leftk cn,34.80166,135.770964
5,6.58,34801660,135770964,9,45,0,0,0,2,0,0,2,t-2.07 Leftk cn,34.80166,135.770964
5,6.59,34801660,135770964,9,67.5,0,0,0,2,0,0,2,t-2.07 Leftk cn,34.80166,135.770964
5,7,34801660,135770964,8,67.5,0,0,0,2,0,0,2,t-2.07 Leftk cn,34.80166,135.770964
5,7.1,34801660,135770964,9,56.25,0,0,0,2,0,0,2,t-2.06 Leftk cn,34.80166,135.770964
5,7.2,34801660,135770964,9,56.25,0,0,0,2,0,0,2,t-2.06 Leftk cn,34.80166,135.770964
5,7.3,34801660,135770964,8,56.25,0,0,0,2,0,0,2,t-2.06 Leftk cn,34.80166,135.770964
5,7.4,34801660,135770964,8,56.25,0,0,0,2,0,0,2,t-2.06 Leftk cn,34.80166,135.770964
5,7.5,34801660,135770964,8,56.25,0,0,0,2,0,0,2,t-2.06 Leftk cn,34.80166,135.770964
5,7.6,34801660,135770963,9,45,0,0,0,2,0,0,2,t-1.84 Leftk cn,34.80166,135.770963
5,7.7,34801660,135770963,9,56.25,0,0,0,2,0,0,2,t-1.84 Leftk cn,34.80166,135.770963
5,7.8,34801660,135770963,8,45,0,0,0,2,0,0,2,t-1.84 Leftk cn,34.80166,135.770963
5,7.9,34801660,135770963,8,45,0,0,0,2,0,0,2,t-1.84 Leftk cn,34.80166,135.770963
5,7.11,34801660,135770963,9,45,0,0,0,2,0,0,2,t-1.83 Leftk cn,34.80166,135.770963
5,7.12,34801660,135770963,9,45,0,0,0,2,0,0,2,t-1.73 Leftk cn,34.80166,135.770963
5,7.13,34801660,135770963,9,45,0,0,0,2,0,0,2,t-1.73 Leftk cn,34.80166,135.770963
5,7.14,34801660,135770963,8,56.25,0,0,0,2,0,0,2,t-1.73 Leftk cn,34.80166,135.770963
5,7.15,34801660,135770963,8,56.25,0,0,0,2,0,0,2,t-1.73 Leftk cn,34.80166,135.770963
5,7.16,34801660,135770963,8,56.25,0,0,0,2,0,0,2,t-1.73 Leftk cn,34.80166,135.770963
5,7.17,34801660,135770963,8,56.25,0,0,0,2,0,0,2,t-1.73 Leftk cn,34.80166,135.770963
5,7.18,34801660,135770963,9,56.25,0,0,0,2,0,0,2,t-1.85 Leftk cn,34.80166,135.770963
5,7.19,34801660,135770963,9,45,0,0,0,2,0,0,2,t-1.85 Leftk cn,34.80166,135.770963
5,7.2,34801660,135770963,8,45,0,0,0,2,0,0,2,t-1.85 Leftk cn,34.80166,135.770963
5,7.21,34801660,135770962,9,45,0,0,0,2,0,0,2,t-1.79 Leftk cn,34.80166,135.770962
5,7.22,34801660,135770962,9,45,0,0,0,2,0,0,2,t-1.79 Leftk cn,34.80166,135.770962
5,7.23,34801660,135770962,8,45,0,0,0,2,0,0,2,t-1.79 Leftk cn,34.80166,135.770962
5,7.24,34801660,135770962,8,45,0,0,0,2,0,0,2,t-1.79 Leftk cn,34.80166,135.770962
5,7.25,34801661,135770962,9,33.75,0,0,0,2,0,0,2,t-1.67 Leftk cn,34.801661,135.770962
5,7.26,34801661,135770962,9,45,0,0,0,2,0,0,2,t-1.67 Leftk cn,34.801661,135.770962
5,7.27,34801661,135770962,8,45,0,0,0,2,0,0,2,t-1.67 Leftk cn,34.801661,135.770962
5,7.28,34801661,135770962,9,45,0,0,0,2,0,0,2,t-1.80 Leftk cn,34.801661,135.770962
5,7.29,34801661,135770962,9,45,0,0,0,2,0,0,2,t-1.80 Leftk cn,34.801661,135.770962
5,7.3,34801661,135770962,9,33.75,0,0,0,2,0,0,2,t-1.65 Leftk cn,34.801661,135.770962
5,7.31,34801661,135770962,9,33.75,0,0,0,2,0,0,2,t-1.64 Leftk cn,34.801661,135.770962
5,7.32,34801661,135770962,9,33.75,0,0,0,2,0,0,2,t-1.64 Leftk cn,34.801661,135.770962
5,7.33,34801661,135770962,8,33.75,0,0,0,2,0,0,2,t-1.64 Leftk cn,34.801661,135.770962
5,7.34,34801661,135770962,8,33.75,0,0,0,2,0,0,2,t-1.64 Leftk cn,34.801661,135.770962
5,7.35,34801661,135770962,8,33.75,0,0,0,2,0,0,2,t-1.64 Leftk cn,34.801661,135.770962
5,7.37,34801661,135770962,8,33.75,0,0,0,2,0,0,2,t-1.64 Leftk cn,34.801661,135.770962
5,7.38,34801657,135770960,9,33.75,0,0,0,2,0,0,2,t-1.60 Leftk cn,34.801657,135.77096
5,7.39,34801657,135770960,9,45,0,0,0,2,0,0,2,t-1.60 Leftk cn,34.801657,135.77096
5,7.4,34801657,135770960,8,45,0,0,0,2,0,0,2,t-1.60 Leftk cn,34.801657,135.77096
5,7.41,34801656,135770962,9,45,0,0,0,2,0,0,2,t-1.71 Leftk cn,34.801656,135.770962
5,7.42,34801656,135770962,9,45,0,0,0,2,0,0,2,t-1.72 Leftk cn,34.801656,135.770962
5,7.43,34801656,135770962,9,45,0,0,0,2,0,0,2,t-1.68 Leftk cn,34.801656,135.770962
5,7.44,34801656,135770962,9,45,0,0,0,2,0,0,2,t-1.70 Leftk cn,34.801656,135.770962
5,7.45,34801656,135770962,9,33.75,0,0,0,2,0,0,2,t-1.70 Leftk cn,34.801656,135.770962
5,7.46,34801656,135770962,8,33.75,0,0,0,2,0,0,2,t-1.70 Leftk cn,34.801656,135.770962
5,7.47,34801655,135770963,9,33.75,0,0,0,2,0,0,2,t-1.59 Leftk cn,34.801655,135.770963
5,7.48,34801655,135770963,8,45,0,0,0,2,0,0,2,t-1.59 Leftk cn,34.801655,135.770963
5,7.49,34801655,135770963,8,33.75,0,0,0,2,0,0,2,t-1.59 Leftk cn,34.801655,135.770963
5,7.5,34801656,135770963,9,33.75,0,0,0,2,0,0,2,t-1.64 Leftk cn,34.801656,135.770963
5,7.51,34801656,135770963,8,33.75,0,0,0,2,0,0,2,t-1.64 Leftk cn,34.801656,135.770963
5,7.52,34801656,135770963,8,33.75,0,0,0,2,0,0,2,t-1.64 Leftk cn,34.801656,135.770963
5,7.53,34801657,135770962,9,33.75,0,0,0,2,0,0,2,t-1.64 Leftk cn,34.801657,135.770962
5,7.54,34801657,135770962,9,33.75,0,0,0,2,0,0,2,t-1.64 Leftk cn,34.801657,135.770962
5,7.55,34801657,135770962,8,33.75,0,0,0,2,0,0,2,t-1.64 Leftk cn,34.801657,135.770962
5,7.56,34801657,135770962,8,33.75,0,0,0,2,0,0,2,t-1.64 Leftk cn,34.801657,135.770962
5,7.57,34801657,135770962,8,33.75,0,0,0,2,0,0,2,t-1.64 Leftk cn,34.801657,135.770962
5,7.58,34801657,135770962,8,22.5,22.5,0,0,2,0,0,2,t-1.64 Leftk cn,34.801657,135.770962
5,7.59,34801657,135770962,7,33.75,0,0,0,2,0,0,2,t-1.64 Leftk cn,34.801657,135.770962
5,8,34801657,135770962,7,33.75,0,0,0,2,0,0,2,t-1.64 Leftk cn,34.801657,135.770962
5,8.1,34801657,135770962,7,33.75,0,0,0,2,0,0,2,t-1.64 Leftk cn,34.801657,135.770962
5,8.3,34801657,135770962,7,33.75,0,0,0,2,0,0,2,t-1.64 Leftk cn,34.801657,135.770962
5,8.4,34801659,135770960,9,33.75,0,0,0,2,0,0,2,t-1.54 Leftk cn,34.801659,135.77096
5,8.5,34801659,135770960,9,45,0,0,0,2,0,0,2,t-1.54 Leftk cn,34.801659,135.77096
5,8.6,34801659,135770960,8,33.75,0,0,0,2,0,0,2,t-1.54 Leftk cn,34.801659,135.77096
5,8.7,34801659,135770960,8,33.75,0,0,0,2,0,0,2,t-1.54 Leftk cn,34.801659,135.77096
5,8.8,34801659,135770959,9,33.75,0,0,0,2,0,0,2,t-1.53 Leftk cn,34.801659,135.770959
5,8.9,34801659,135770959,9,33.75,0,0,0,2,0,0,2,t-1.53 Leftk cn,34.801659,135.770959
5,8.1,34801659,135770959,9,33.75,0,0,0,2,0,0,2,t-1.53 Leftk cn,34.801659,135.770959
5,8.11,34801659,135770959,8,33.75,0,0,0,2,0,0,2,t-1.53 Leftk cn,34.801659,135.770959
5,8.12,34801659,135770959,8,33.75,0,0,0,2,0,0,2,t-1.53 Leftk cn,34.801659,135.770959
5,8.13,34801659,135770959,8,33.75,0,0,0,2,0,0,2,t-1.53 Leftk cn,34.801659,135.770959
5,8.14,34801659,135770959,9,22.5,0,0,0,2,0,0,2,t-1.49 Leftk cn,34.801659,135.770959
5,8.15,34801659,135770959,9,22.5,0,0,0,2,0,0,2,t-1.50 Leftk cn,34.801659,135.770959
5,8.16,34801659,135770959,9,22.5,0,0,0,2,0,0,2,t-1.50 Leftk cn,34.801659,135.770959
5,8.17,34801660,135770958,9,22.5,0,0,0,2,0,0,2,t-1.38 Leftk cn,34.80166,135.770958
5,8.18,34801660,135770958,9,22.5,0,0,0,2,0,0,2,t-1.38 Leftk cn,34.80166,135.770958
5,8.19,34801660,135770958,9,22.5,0,0,0,2,0,0,2,t-1.38 Leftk cn,34.80166,135.770958
5,8.2,34801660,135770958,9,22.5,0,0,0,2,0,0,2,t-1.38 Leftk cn,34.80166,135.770958
5,8.21,34801660,135770958,8,22.5,0,0,0,2,0,0,2,t-1.38 Leftk cn,34.80166,135.770958
5,8.22,34801660,135770958,9,33.75,0,0,0,2,0,0,2,t-1.45 Leftk cn,34.80166,135.770958
5,8.23,34801660,135770958,9,22.5,0,0,0,2,0,0,2,t-1.45 Leftk cn,34.80166,135.770958
5,8.24,34801660,135770958,9,22.5,0,0,0,2,0,0,2,t-1.45 Leftk cn,34.80166,135.770958
5,8.25,34801660,135770958,8,22.5,0,0,0,2,0,0,2,t-1.45 Leftk cn,34.80166,135.770958
5,8.26,34801660,135770958,8,22.5,0,0,0,2,0,0,2,t-1.45 Leftk cn,34.80166,135.770958
5,8.27,34801655,135770959,9,22.5,0,0,0,2,0,0,2,t-1.38 Leftk cn,34.801655,135.770959
5,8.29,34801655,135770959,9,22.5,0,0,0,2,0,0,2,t-1.41 Leftk cn,34.801655,135.770959
5,8.3,34801655,135770959,9,22.5,0,0,0,2,0,0,2,t-1.41 Leftk cn,34.801655,135.770959
5,8.31,34801655,135770959,9,11.25,0,0,0,2,0,0,2,t-1.28 Leftk cn,34.801655,135.770959
5,8.32,34801655,135770959,9,22.5,0,0,0,2,0,0,2,t-1.28 Leftk cn,34.801655,135.770959
5,8.33,34801655,135770958,9,22.5,0,0,0,2,0,0,2,t-1.35 Leftk cn,34.801655,135.770958
5,8.34,34801655,135770958,9,22.5,0,0,0,2,0,0,2,t-1.34 Leftk cn,34.801655,135.770958
5,8.35,34801655,135770958,9,22.5,0,0,0,2,0,0,2,t-1.34 Leftk cn,34.801655,135.770958
5,8.36,34801655,135770958,9,22.5,0,0,0,2,0,0,2,t-1.34 Leftk cn,34.801655,135.770958
5,8.37,34801656,135770956,9,22.5,0,0,0,2,0,0,2,t-1.34 Leftk cn,34.801656,135.770956
5,8.38,34801656,135770956,9,11.25,0,0,0,2,0,0,2,t-1.34 Leftk cn,34.801656,135.770956
5,8.39,34801656,135770956,9,11.25,0,0,0,2,0,0,2,t-1.34 Leftk cn,34.801656,135.770956
5,8.4,34801648,135770961,9,11.25,0,0,0,2,0,0,2,t-1.31 Leftk cn,34.801648,135.770961
5,8.41,34801648,135770961,8,11.25,0,0,0,2,0,0,2,t-1.31 Leftk cn,34.801648,135.770961
5,8.42,34801648,135770961,8,11.25,0,0,0,2,0,0,2,t-1.31 Leftk cn,34.801648,135.770961
5,8.43,34801633,135770966,8,11.25,11.2,0,0,2,0,0,2,t-1.35 Leftk cn,34.801633,135.770966
5,8.44,34801633,135770964,8,11.25,0,0,0,2,0,0,2,t-1.46 Leftk cn,34.801633,135.770964
5,8.45,34801634,135770962,8,11.25,0,0,0,2,0,0,2,t-1.33 Leftk cn,34.801634,135.770962
5,8.46,34801634,135770962,8,11.25,0,0,0,2,0,0,2,t-1.33 Leftk cn,34.801634,135.770962
5,8.47,34801631,135770966,8,11.25,0,0,0,2,0,0,2,t-1.33 Leftk cn,34.801631,135.770966
5,8.48,34801630,135770966,8,11.25,0,0,0,2,0,0,2,t-1.31 Leftk cn,34.80163,135.770966
5,8.49,34801630,135770966,7,11.25,0,0,0,2,0,0,2,t-1.31 Leftk cn,34.80163,135.770966
5,8.5,34801630,135770966,7,11.25,0,0,0,2,0,0,2,t-1.31 Leftk cn,34.80163,135.770966
5,8.51,34801630,135770966,7,11.25,0,0,0,2,0,0,2,t-1.31 Leftk cn,34.80163,135.770966
5,8.52,34801632,135770962,8,11.25,0,0,0,2,0,0,2,t-1.35 Leftk cn,34.801632,135.770962
5,8.53,34801634,135770960,8,11.25,0,0,0,2,0,0,2,t-1.34 Leftk cn,34.801634,135.77096
5,8.55,34801634,135770960,8,0,0,0,0,2,0,0,2,t-1.34 Leftk cn,34.801634,135.77096
5,8.56,34801637,135770958,9,0,0,0,0,2,0,0,2,t-1.23 Leftk cn,34.801637,135.770958
5,8.57,34801637,135770958,8,0,0,0,0,2,0,0,2,t-1.23 Leftk cn,34.801637,135.770958
5,8.58,34801637,135770958,8,0,0,0,0,2,0,0,2,t-1.23 Leftk cn,34.801637,135.770958
5,8.59,34801637,135770958,8,0,0,0,0,2,0,0,2,t-1.23 Leftk cn,34.801637,135.770958
5,9,34801637,135770958,8,0,0,0,0,2,0,0,2,t-1.23 Leftk cn,34.801637,135.770958
5,9.1,34801637,135770958,8,0,0,0,0,2,0,0,2,t-1.23 Leftk cn,34.801637,135.770958
5,9.2,34801642,135770953,9,0,0,0,0,2,0,0,2,t-1.23 Leftk cn,34.801642,135.770953
5,9.3,34801642,135770952,9,0,0,0,0,2,0,0,2,t-1.17 Leftk cn,34.801642,135.770952
5,9.4,34801642,135770952,9,0,0,0,0,2,0,0,2,t-1.17 Leftk cn,34.801642,135.770952
5,9.5,34801642,135770952,9,0,0,0,0,2,0,0,2,t-1.17 Leftk cn,34.801642,135.770952
5,9.6,34801643,135770949,10,0,0,0,0,2,0,0,2,t-1.10 Leftk cn,34.801643,135.770949
5,9.7,34801643,135770949,9,0,0,0,0,2,0,0,2,t-1.10 Leftk cn,34.801643,135.770949
5,9.8,34801643,135770949,9,0,0,0,0,2,0,0,2,t-1.10 Leftk cn,34.801643,135.770949
5,9.9,34801643,135770949,9,0,0,0,0,2,0,0,2,t-1.10 Leftk cn,34.801643,135.770949
5,9.1,34801643,135770949,9,0,0,0,0,2,0,0,2,t-1.10 Leftk cn,34.801643,135.770949
5,9.11,34801643,135770949,9,0,0,0,0,2,0,0,2,t-1.10 Leftk cn,34.801643,135.770949
5,9.12,34801644,135770946,10,0,0,0,0,2,0,0,2,t-1.11 Leftk cn,34.801644,135.770946
5,9.13,34801644,135770946,10,0,0,0,0,2,0,0,2,t-1.07 Leftk cn,34.801644,135.770946
5,9.14,34801644,135770946,10,0,0,0,0,2,0,0,2,t-1.03 Leftk cn,34.801644,135.770946
5,9.15,34801644,135770946,10,0,0,0,0,2,0,0,2,t-1.07 Leftk cn,34.801644,135.770946
5,9.16,34801644,135770946,10,0,0,0,0,2,0,0,2,t-1.07 Leftk cn,34.801644,135.770946
5,9.17,34801644,135770946,9,0,0,0,0,2,0,0,2,t-1.07 Leftk cn,34.801644,135.770946
5,9.18,34801644,135770946,9,0,0,0,0,2,0,0,2,t-1.07 Leftk cn,34.801644,135.770946
5,9.19,34801643,135770947,10,0,0,0,0,2,0,0,2,t-1.10 Leftk cn,34.801643,135.770947
5,9.21,34801643,135770947,9,0,0,0,0,2,0,0,2,t-1.10 Leftk cn,34.801643,135.770947
5,9.22,34801643,135770948,10,348.75,0,0,0,2,0,0,2,t-1.02 Leftk cn,34.801643,135.770948
5,9.23,34801643,135770948,9,348.75,0,0,0,2,0,0,2,t-1.02 Leftk cn,34.801643,135.770948
5,9.24,34801643,135770948,9,348.75,0,0,0,2,0,0,2,t-1.02 Leftk cn,34.801643,135.770948
5,9.25,34801643,135770948,10,348.75,0,0,0,2,0,0,2,t-0.96 Leftk cn,34.801643,135.770948
5,9.26,34801643,135770948,9,348.75,0,0,0,2,0,0,2,t-0.96 Leftk cn,34.801643,135.770948
5,9.27,34801643,135770948,9,348.75,0,0,0,2,0,0,2,t-0.96 Leftk cn,34.801643,135.770948
5,9.28,34801643,135770949,10,348.75,0,0,0,2,0,0,2,t-0.97 Leftk cn,34.801643,135.770949
5,9.29,34801643,135770949,9,348.75,0,0,0,2,0,0,2,t-0.97 Leftk cn,34.801643,135.770949
5,9.3,34801643,135770949,9,348.75,0,0,0,2,0,0,2,t-0.97 Leftk cn,34.801643,135.770949
5,9.31,34801643,135770949,10,348.75,0,0,0,2,0,0,2,t-0.89 Leftk cn,34.801643,135.770949
5,9.32,34801643,135770949,10,348.75,0,0,0,2,0,0,2,t-0.99 Leftk cn,34.801643,135.770949
5,9.33,34801643,135770949,10,348.75,0,0,0,2,0,0,2,t-0.85 Leftk cn,34.801643,135.770949
5,9.34,34801643,135770949,9,348.75,0,0,0,2,0,0,2,t-0.85 Leftk cn,34.801643,135.770949
5,9.35,34801643,135770949,9,337.5,0,0,0,2,0,0,2,t-0.85 Leftk cn,34.801643,135.770949
5,9.36,34801643,135770950,10,348.75,0,0,0,2,0,0,2,t-0.85 Leftk cn,34.801643,135.77095
5,9.37,34801643,135770950,10,348.75,0,0,0,2,0,0,2,t-0.83 Leftk cn,34.801643,135.77095
5,9.38,34801643,135770950,10,337.5,0,0,0,2,0,0,2,t-0.81 Leftk cn,34.801643,135.77095
5,9.39,34801643,135770950,9,348.75,0,0,0,2,0,0,2,t-0.81 Leftk cn,34.801643,135.77095
5,9.4,34801643,135770950,9,348.75,0,0,0,2,0,0,2,t-0.81 Leftk cn,34.801643,135.77095
5,9.41,34801643,135770950,9,348.75,0,0,0,2,0,0,2,t-0.81 Leftk cn,34.801643,135.77095
5,9.42,34801643,135770950,9,348.75,0,0,0,2,0,0,2,t-0.81 Leftk cn,34.801643,135.77095
5,9.43,34801643,135770950,8,348.75,0,0,0,2,0,0,2,t-0.81 Leftk cn,34.801643,135.77095
5,9.44,34801643,135770950,8,348.75,0,0,0,2,0,0,2,t-0.81 Leftk cn,34.801643,135.77095
5,9.45,34801644,135770950,10,348.75,0,0,0,2,0,0,2,t-0.88 Leftk cn,34.801644,135.77095
5,9.47,34801644,135770950,10,348.75,0,0,0,2,0,0,2,t-0.90 Leftk cn,34.801644,135.77095
5,9.48,34801644,135770950,9,337.5,0,0,0,2,0,0,2,t-0.90 Leftk cn,34.801644,135.77095
5,9.49,34801644,135770950,9,337.5,0,0,0,2,0,0,2,t-0.90 Leftk cn,34.801644,135.77095
5,9.5,34801644,135770950,10,337.5,0,0,0,2,0,0,2,t-0.72 Leftk cn,34.801644,135.77095
5,9.51,34801644,135770950,9,337.5,0,0,0,2,0,0,2,t-0.72 Leftk cn,34.801644,135.77095
5,9.52,34801644,135770950,9,337.5,0,0,0,2,0,0,2,t-0.72 Leftk cn,34.801644,135.77095
5,9.53,34801644,135770950,10,337.5,0,0,0,2,0,0,2,t-0.79 Leftk cn,34.801644,135.77095
5,9.54,34801644,135770950,9,337.5,0,0,0,2,0,0,2,t-0.79 Leftk cn,34.801644,135.77095
5,9.55,34801644,135770950,9,337.5,0,0,0,2,0,0,2,t-0.79 Leftk cn,34.801644,135.77095
5,9.56,34801644,135770950,9,337.5,0,0,0,2,0,0,2,t-0.79 Leftk cn,34.801644,135.77095
5,9.57,34801644,135770951,9,337.5,0,0,0,2,0,0,2,t-0.68 Leftk cn,34.801644,135.770951
5,9.58,34801644,135770951,9,337.5,0,0,0,2,0,0,2,t-0.68 Leftk cn,34.801644,135.770951
5,9.59,34801644,135770951,9,337.5,0,0,0,2,0,0,2,t-0.68 Leftk cn,34.801644,135.770951
5,10,34801645,135770951,10,348.75,0,0,0,2,0,0,2,t-0.66 Leftk cn,34.801645,135.770951
5,10.1,34801645,135770951,10,337.5,0,0,0,2,0,0,2,t-0.68 Leftk cn,34.801645,135.770951
5,10.2,34801645,135770951,9,337.5,0,0,0,2,0,0,2,t-0.68 Leftk cn,34.801645,135.770951
5,10.3,34801645,135770951,9,326.25,0,0,0,2,0,0,2,t-0.68 Leftk cn,34.801645,135.770951
5,10.4,34801645,135770951,9,337.5,0,0,0,2,0,0,2,t-0.68 Leftk cn,34.801645,135.770951
5,10.5,34801645,135770951,9,326.25,0,0,0,2,0,0,2,t-0.68 Leftk cn,34.801645,135.770951
5,10.6,34801645,135770951,8,337.5,0,0,0,2,0,0,2,t-0.68 Leftk cn,34.801645,135.770951
5,10.7,34801645,135770951,8,326.25,0,0,0,2,0,0,2,t-0.68 Leftk cn,34.801645,135.770951
5,10.8,34801645,135770951,8,326.25,0,0,0,2,0,0,2,t-0.68 Leftk cn,34.801645,135.770951
5,10.9,34801645,135770951,8,337.5,0,0,0,2,0,0,2,t-0.68 Leftk cn,34.801645,135.770951
5,10.1,34801645,135770951,8,337.5,0,0,0,2,0,0,2,t-0.68 Leftk cn,34.801645,135.770951
5,10.11,34801645,135770952,9,326.25,0,0,0,2,0,0,2,t-0.63 Leftk cn,34.801645,135.770952
5,10.13,34801645,135770952,9,337.5,0,0,0,2,0,0,2,t-0.63 Leftk cn,34.801645,135.770952
5,10.14,34801645,135770952,9,337.5,0,0,0,2,0,0,2,t-0.66 Leftk cn,34.801645,135.770952
5,10.15,34801645,135770952,9,337.5,0,0,0,2,0,0,2,t-0.66 Leftk cn,34.801645,135.770952
5,10.16,34801645,135770952,9,326.25,0,0,0,2,0,0,2,t-0.55 Leftk cn,34.801645,135.770952
5,10.17,34801645,135770952,9,326.25,0,0,0,2,0,0,2,t-0.55 Leftk cn,34.801645,135.770952
5,10.18,34801645,135770952,9,326.25,0,0,0,2,0,0,2,t-0.55 Leftk cn,34.801645,135.770952
5,10.19,34801645,135770953,9,326.25,0,0,0,2,0,0,2,t-0.58 Leftk cn,34.801645,135.770953
5,10.2,34801645,135770953,9,337.5,0,0,0,2,0,0,2,t-0.64 Leftk cn,34.801645,135.770953
5,10.21,34801645,135770953,9,326.25,0,0,0,2,0,0,2,t-0.64 Leftk cn,34.801645,135.770953
5,10.22,34801645,135770953,9,326.25,0,0,0,2,0,0,2,t-0.44 Leftk cn,34.801645,135.770953
5,10.23,34801645,135770953,9,337.5,0,0,0,2,0,0,2,t-0.44 Leftk cn,34.801645,135.770953
5,10.24,34801645,135770953,9,326.25,0,0,0,2,0,0,2,t-0.44 Leftk cn,34.801645,135.770953
5,10.25,34801645,135770953,9,337.5,0,0,0,2,0,0,2,t-0.60 Leftk cn,34.801645,135.770953
5,10.26,34801645,135770953,9,337.5,0,0,0,2,0,0,2,t-0.61 Leftk cn,34.801645,135.770953
5,10.27,34801645,135770953,9,315,0,0,0,2,0,0,2,t-0.61 Leftk cn,34.801645,135.770953
5,10.28,34801645,135770953,9,315,0,0,0,2,0,0,2,t-0.61 Leftk cn,34.801645,135.770953
5,10.29,34801646,135770953,9,337.5,0,0,0,0,0,0,2,t-0.33 Forwardn,34.801646,135.770953
5,10.3,34801646,135770953,9,326.25,0,0,0,0,0,0,2,t-0.33 Forwardn,34.801646,135.770953
5,10.31,34801646,135770953,9,326.25,0,0,0,0,0,0,2,t-0.33 Forwardn,34.801646,135.770953
5,10.32,34801646,135770953,9,337.5,0,0,0,2,0,0,2,t-0.50 Leftk cn,34.801646,135.770953
5,10.33,34801646,135770953,9,326.25,0,0,0,2,0,0,2,t-0.50 Leftk cn,34.801646,135.770953
5,10.34,34801646,135770953,9,326.25,0,0,0,2,0,0,2,t-0.50 Leftk cn,34.801646,135.770953
5,10.35,34801646,135770953,9,326.25,0,0,0,2,0,0,2,t-0.50 Leftk cn,34.801646,135.770953
5,10.36,34801646,135770953,8,326.25,0,0,0,2,0,0,2,t-0.50 Leftk cn,34.801646,135.770953
5,10.37,34801646,135770954,9,326.25,0,0,0,2,0,0,2,t-0.54 Leftk cn,34.801646,135.770954
5,10.39,34801646,135770954,9,315,0,0,0,2,0,0,2,t-0.54 Leftk cn,34.801646,135.770954
5,10.4,34801646,135770954,9,303.75,0,0,0,0,0,0,2,t-0.12 Forwardn,34.801646,135.770954
5,10.41,34801646,135770955,9,326.25,0,0,0,2,0,0,2,t-0.54 Leftrdn,34.801646,135.770955
5,10.42,34801646,135770955,9,326.25,0,0,0,2,0,0,2,t-0.54 Leftrdn,34.801646,135.770955
5,10.43,34801646,135770955,9,326.25,0,0,0,2,0,0,2,t-0.49 Leftrdn,34.801646,135.770955
5,10.44,34801646,135770955,9,315,0,0,0,2,0,0,2,t-0.49 Leftrdn,34.801646,135.770955
5,10.45,34801646,135770955,9,281.25,0,0,0,0,0,0,2,t0.31 Forwardn,34.801646,135.770955
5,10.46,34801646,135770955,9,326.25,0,0,0,2,0,0,2,t-0.55 Leftdn,34.801646,135.770955
5,10.47,34801646,135770955,9,326.25,0,0,0,2,0,0,2,t-0.57 Leftdn,34.801646,135.770955
5,10.48,34801646,135770955,9,326.25,0,0,0,2,0,0,2,t-0.57 Leftdn,34.801646,135.770955
5,10.49,34801646,135770955,9,326.25,0,0,0,2,0,0,2,t-0.57 Leftdn,34.801646,135.770955
5,10.5,34801646,135770956,9,348.75,0,0,0,2,0,0,2,t-0.48 Leftdn,34.801646,135.770956
5,10.51,34801646,135770956,9,337.5,11.2,0,0,2,0,0,2,t-0.48 Leftdn,34.801646,135.770956
5,10.52,34801646,135770956,9,337.5,11.2,0,0,2,0,0,2,t-0.48 Leftdn,34.801646,135.770956
5,10.53,34801646,135770956,8,337.5,0,0,0,2,0,0,2,t-0.48 Leftdn,34.801646,135.770956
5,10.54,34801646,135770956,8,337.5,11.2,0,0,2,0,0,2,t-0.48 Leftdn,34.801646,135.770956
5,10.55,34801646,135770956,8,337.5,11.2,0,0,2,0,0,2,t-0.48 Leftdn,34.801646,135.770956
5,10.56,34801646,135770956,9,348.75,0,0,0,2,0,0,2,t-0.62 Leftdn,34.801646,135.770956
5,10.57,34801646,135770956,9,337.5,0,0,0,2,0,0,2,t-0.62 Leftdn,34.801646,135.770956
5,10.58,34801646,135770956,9,337.5,0,0,0,2,0,0,2,t-0.62 Leftdn,34.801646,135.770956
5,10.59,34801646,135770956,8,337.5,0,0,0,2,0,0,2,t-0.62 Leftdn,34.801646,135.770956
5,11,34801646,135770956,8,326.25,0,0,0,2,0,0,2,t-0.62 Leftdn,34.801646,135.770956
5,11.1,34801646,135770956,8,326.25,0,0,0,2,0,0,2,t-0.62 Leftdn,34.801646,135.770956
5,11.2,34801646,135770956,8,326.25,0,0,0,2,0,0,2,t-0.62 Leftdn,34.801646,135.770956
5,11.3,34801646,135770956,8,326.25,0,0,0,2,0,0,2,t-0.62 Leftdn,34.801646,135.770956
5,11.5,34801646,135770956,9,326.25,0,0,0,2,0,0,2,t-0.55 Leftdn,34.801646,135.770956
5,11.6,34801646,135770956,9,348.75,0,0,0,2,0,0,2,t-0.55 Leftdn,34.801646,135.770956
5,11.7,34801646,135770956,9,348.75,0,0,0,2,0,0,2,t-0.87 Leftk cn,34.801646,135.770956
5,11.8,34801646,135770956,9,0,0,0,0,2,0,0,2,t-1.04 Leftk cn,34.801646,135.770956
5,11.9,34801646,135770956,9,348.75,0,0,0,2,0,0,2,t-0.81 Leftk cn,34.801646,135.770956
5,11.1,34801646,135770956,9,0,0,0,0,2,0,0,2,t-1.14 Leftk cn,34.801646,135.770956
5,11.11,34801646,135770956,9,0,0,0,0,2,0,0,2,t-1.14 Leftk cn,34.801646,135.770956
5,11.12,34801646,135770956,9,348.75,0,0,0,2,0,0,2,t-0.93 Leftk cn,34.801646,135.770956
5,11.13,34801646,135770956,9,348.75,0,0,0,2,0,0,2,t-0.84 Leftk cn,34.801646,135.770956
5,11.14,34801646,135770956,9,11.25,0,0,0,2,0,0,2,t-0.84 Leftk cn,34.801646,135.770956
5,11.15,34801646,135770956,9,11.25,0,0,0,2,0,0,2,t-0.84 Leftk cn,34.801646,135.770956
5,11.16,34801646,135770956,8,22.5,0,0,0,2,0,0,2,t-0.84 Leftk cn,34.801646,135.770956
5,11.17,34801646,135770956,8,11.25,0,0,0,2,0,0,2,t-0.84 Leftk cn,34.801646,135.770956
5,11.18,34801647,135770957,9,11.25,0,0,0,2,0,0,2,t-1.36 Leftk cn,34.801647,135.770957
5,11.19,34801647,135770957,9,123.75,0,0,0,2,0,0,2,t-1.36 Leftk cn,34.801647,135.770957
5,11.2,34801647,135770957,8,123.75,0,0,0,2,0,0,2,t-1.36 Leftk cn,34.801647,135.770957
5,11.21,34801647,135770957,8,135,0,0,0,2,0,0,2,t-1.36 Leftk cn,34.801647,135.770957
5,11.22,34801647,135770957,8,123.75,0,0,0,2,0,0,2,t-1.36 Leftk cn,34.801647,135.770957
5,11.23,34801647,135770957,8,123.75,0,0,0,2,0,0,2,t-1.36 Leftk cn,34.801647,135.770957
5,11.24,34801647,135770957,9,67.5,0,0,0,0,2,0,2,t2.95 Rightk cn,34.801647,135.770957
5,11.25,34801647,135770957,9,22.5,0,0,0,0,2,0,2,t2.95 Rightk cn,34.801647,135.770957
5,11.26,34801647,135770957,8,22.5,0,0,0,0,2,0,2,t2.95 Rightk cn,34.801647,135.770957
5,11.27,34801647,135770957,8,22.5,0,0,0,0,2,0,2,t2.95 Rightk cn,34.801647,135.770957
5,11.28,34801647,135770957,8,22.5,0,0,0,0,2,0,2,t2.95 Rightk cn,34.801647,135.770957
5,11.29,34801648,135770957,9,22.5,0,0,0,2,0,0,2,t-1.44 Leftk cn,34.801648,135.770957
5,11.31,34801648,135770957,9,45,0,0,0,2,0,0,2,t-1.44 Leftk cn,34.801648,135.770957
5,11.32,34801648,135770957,8,56.25,0,0,0,2,0,0,2,t-1.44 Leftk cn,34.801648,135.770957
5,11.33,34801648,135770957,8,56.25,0,0,0,2,0,0,2,t-1.44 Leftk cn,34.801648,135.770957
5,11.34,34801648,135770957,8,56.25,0,0,0,2,0,0,2,t-1.44 Leftk cn,34.801648,135.770957
5,11.35,34801648,135770957,8,56.25,0,0,0,2,0,0,2,t-1.44 Leftk cn,34.801648,135.770957
5,11.36,34801648,135770957,9,56.25,0,0,0,2,0,0,2,t-1.96 Leftk cn,34.801648,135.770957
5,11.37,34801648,135770957,9,67.5,0,0,0,2,0,0,2,t-2.20 Leftk cn,34.801648,135.770957
5,11.38,34801648,135770957,9,56.25,0,0,0,2,0,0,2,t-2.20 Leftk cn,34.801648,135.770957
5,11.39,34801648,135770957,8,56.25,0,0,0,2,0,0,2,t-2.20 Leftk cn,34.801648,135.770957
5,11.4,34801648,135770957,8,56.25,0,0,0,2,0,0,2,t-2.20 Leftk cn,34.801648,135.770957
5,11.41,34801648,135770957,8,56.25,0,0,0,2,0,0,2,t-2.20 Leftk cn,34.801648,135.770957
5,11.42,34801648,135770957,8,56.25,0,0,0,2,0,0,2,t-2.20 Leftk cn,34.801648,135.770957
5,11.43,34801648,135770958,9,45,0,0,0,2,0,0,2,t-2.09 Leftk cn,34.801648,135.770958
5,11.44,34801649,135770958,9,33.75,0,0,0,2,0,0,2,t-2.08 Leftk cn,34.801649,135.770958
5,11.45,34801649,135770958,9,123.75,0,0,0,2,0,0,2,t-2.08 Leftk cn,34.801649,135.770958
5,11.46,34801649,135770958,8,123.75,0,0,0,2,0,0,2,t-2.08 Leftk cn,34.801649,135.770958
5,11.47,34801649,135770958,8,123.75,0,0,0,2,0,0,2,t-2.08 Leftk cn,34.801649,135.770958
5,11.48,34801649,135770959,9,56.25,0,0,0,0,2,0,2,t3.05 Rightk cn,34.801649,135.770959
5,11.49,34801649,135770959,9,11.25,0,0,0,2,0,0,2,t-1.53 Leftk cn,34.801649,135.770959
5,11.5,34801649,135770959,9,348.75,0,0,0,0,0,0,2,t-0.16 Forwardn,34.801649,135.770959
5,11.51,34801649,135770959,9,0,0,0,0,2,0,0,2,t-0.93 Leftk cn,34.801649,135.770959
5,11.52,34801649,135770959,9,22.5,0,0,0,2,0,0,2,t-0.93 Leftk cn,34.801649,135.770959
5,11.53,34801649,135770959,8,22.5,0,0,0,2,0,0,2,t-0.93 Leftk cn,34.801649,135.770959
5,11.54,34801649,135770959,8,22.5,0,0,0,2,0,0,2,t-0.93 Leftk cn,34.801649,135.770959
5,11.55,34801650,135770960,9,22.5,0,0,0,2,0,0,2,t-1.46 Leftk cn,34.80165,135.77096
5,11.57,34801650,135770960,9,0,0,0,0,2,0,0,2,t-1.46 Leftk cn,34.80165,135.77096
5,11.58,34801650,135770960,8,0,0,0,0,2,0,0,2,t-1.46 Leftk cn,34.80165,135.77096
5,11.59,34801650,135770960,8,0,0,0,0,2,0,0,2,t-1.46 Leftk cn,34.80165,135.77096
5,12,34801650,135770961,9,0,0,0,0,2,0,0,2,t-1.03 Leftk cn,34.80165,135.770961
5,12.1,34801650,135770961,8,0,0,0,0,2,0,0,2,t-1.03 Leftk cn,34.80165,135.770961
5,12.2,34801650,135770961,9,326.25,0,0,0,2,0,0,2,t-0.52 Leftk cn,34.80165,135.770961
5,12.3,34801650,135770961,9,11.25,0,0,0,2,0,0,2,t-1.20 Leftk cn,34.80165,135.770961
5,12.4,34801650,135770961,8,337.5,0,0,0,2,0,0,2,t-1.20 Leftk cn,34.80165,135.770961
5,12.5,34801650,135770961,8,281.25,0,0,0,2,0,0,2,t-1.20 Leftk cn,34.80165,135.770961
5,12.6,34801650,135770961,8,292.5,0,0,0,2,0,0,2,t-1.20 Leftk cn,34.80165,135.770961
5,12.7,34801650,135770961,8,315,0,0,0,2,0,0,2,t-1.20 Leftk cn,34.80165,135.770961
5,12.8,34801650,135770961,8,315,0,0,0,2,0,0,2,t-1.20 Leftk cn,34.80165,135.770961
5,12.9,34801651,135770962,9,348.75,0,0,0,0,0,0,2,t-0.15 Forwardn,34.801651,135.770962
5,12.1,34801651,135770962,9,0,0,0,0,2,0,0,2,t-0.64 Leftrdn,34.801651,135.770962
5,12.11,34801651,135770962,8,348.75,0,0,0,2,0,0,2,t-0.64 Leftrdn,34.801651,135.770962
5,12.12,34801651,135770962,8,348.75,0,0,0,2,0,0,2,t-0.64 Leftrdn,34.801651,135.770962
5,12.13,34801651,135770962,9,0,0,0,0,2,0,0,2,t-0.84 Leftrdn,34.801651,135.770962
5,12.14,34801651,135770962,9,11.25,0,0,0,2,0,0,2,t-1.06 Leftrdn,34.801651,135.770962
5,12.15,34801651,135770962,8,11.25,0,0,0,2,0,0,2,t-1.06 Leftrdn,34.801651,135.770962
5,12.16,34801651,135770962,9,33.75,0,0,0,2,0,0,2,t-1.30 Leftk cn,34.801651,135.770962
5,12.17,34801651,135770962,8,67.5,0,0,0,2,0,0,2,t-1.30 Leftk cn,34.801651,135.770962
5,12.18,34801651,135770962,8,67.5,0,0,0,2,0,0,2,t-1.30 Leftk cn,34.801651,135.770962
5,12.19,34801651,135770963,9,67.5,0,0,0,2,0,0,2,t-2.29 Leftk cn,34.801651,135.770963
5,12.2,34801651,135770963,8,67.5,0,0,0,2,0,0,2,t-2.29 Leftk cn,34.801651,135.770963
5,12.21,34801651,135770963,8,67.5,0,0,0,2,0,0,2,t-2.29 Leftk cn,34.801651,135.770963
5,12.23,34801652,135770963,9,78.75,0,0,0,2,0,0,2,t-2.30 Leftk cn,34.801652,135.770963
5,12.24,34801652,135770963,9,45,0,0,0,2,0,0,2,t-1.85 Leftk cn,34.801652,135.770963
5,12.25,34801652,135770964,9,56.25,0,0,0,2,0,0,2,t-2.06 Leftk cn,34.801652,135.770964
5,12.26,34801652,135770964,8,67.5,0,0,0,2,0,0,2,t-2.06 Leftk cn,34.801652,135.770964
5,12.27,34801652,135770964,9,90,0,0,0,2,0,0,2,t-2.64 Leftk cn,34.801652,135.770964
5,12.28,34801652,135770964,8,78.75,0,0,0,2,0,0,2,t-2.64 Leftk cn,34.801652,135.770964
5,12.29,34801652,135770964,8,78.75,0,0,0,2,0,0,2,t-2.64 Leftk cn,34.801652,135.770964
5,12.3,34801652,135770964,8,67.5,0,0,0,2,0,0,2,t-2.64 Leftk cn,34.801652,135.770964
5,12.31,34801652,135770964,8,78.75,0,0,0,2,0,0,2,t-2.64 Leftk cn,34.801652,135.770964
5,12.32,34801652,135770964,7,67.5,0,0,0,2,0,0,2,t-2.64 Leftk cn,34.801652,135.770964
5,12.33,34801652,135770965,9,56.25,0,0,0,2,0,0,2,t-2.27 Leftk cn,34.801652,135.770965
5,12.34,34801653,135770965,9,56.25,0,0,0,2,0,0,2,t-2.45 Leftk cn,34.801653,135.770965
5,12.35,34801653,135770965,8,56.25,0,0,0,2,0,0,2,t-2.45 Leftk cn,34.801653,135.770965
5,12.36,34801653,135770965,8,56.25,0,0,0,2,0,0,2,t-2.45 Leftk cn,34.801653,135.770965
5,12.37,34801653,135770965,9,56.25,0,0,0,2,0,0,2,t-2.05 Leftk cn,34.801653,135.770965
5,12.38,34801653,135770965,8,67.5,0,0,0,2,0,0,2,t-2.05 Leftk cn,34.801653,135.770965
5,12.39,34801653,135770966,9,56.25,0,0,0,2,0,0,2,t-2.24 Leftk cn,34.801653,135.770966
