code,min.sec,lat,lon,dist,yaw,roll,pitch,yaw_to_goal,motor_left,motor_right,stack,seq,data,latitude,longitude
8,0.4,0,0,244,146.25,0,0,0,0,0,0,1,125.7 altNRdy,0,0
8,0.4,0,0,244,146.25,0,0,0,0,0,0,1,176.0 altNRdy,0,0
8,0.5,0,0,233,146.25,0,0,0,0,0,0,1,175.8 altNRdy,0,0
8,0.6,0,0,242,146.25,0,0,0,0,0,0,1,176.5 altNRdy,0,0
8,0.7,0,0,244,146.25,0,0,0,0,0,0,1,177.1 altNRdy,0,0
8,0.8,0,0,244,146.25,0,0,0,0,0,0,1,177.0 altNRdy,0,0
8,0.9,0,0,244,146.25,0,0,0,0,0,0,1,177.0 altNRdy,0,0
8,0.1,0,0,244,146.25,0,0,0,0,0,0,1,177.0 altNRdy,0,0
8,0.11,0,0,233,146.25,0,0,0,0,0,0,1,177.0 altNRdy,0,0
8,0.12,0,0,242,146.25,0,0,0,0,0,0,1,177.0 altNRdy,0,0
8,0.13,0,0,244,146.25,0,0,0,0,0,0,1,177.0 altNRdy,0,0
8,0.15,0,0,244,146.25,0,0,0,0,0,0,1,177.0 altNRdy,0,0
8,0.16,0,0,233,146.25,0,0,0,0,0,0,1,177.0 altNRdy,0,0
8,0.17,0,0,244,146.25,0,0,0,0,0,0,1,177.0 altNRdy,0,0
8,0.18,0,0,244,146.25,0,0,0,0,0,0,1,177.0 altNRdy,0,0
8,0.19,0,0,244,146.25,0,0,0,0,0,0,1,177.0 altNRdy,0,0
8,0.2,0,0,244,146.25,0,0,0,0,0,0,1,177.0 altNRdy,0,0
8,0.21,0,0,244,146.25,0,0,0,0,0,0,1,177.0 altNRdy,0,0
8,0.22,0,0,244,146.25,0,0,0,0,0,0,1,177.0 altNRdy,0,0
8,0.23,0,0,233,135,0,0,0,0,0,0,1,177.0 altNRdy,0,0
8,0.24,0,0,242,90,11.2,0,0,0,0,0,1,177.0 altNRdy,0,0
8,0.25,0,0,229,56.25,0,0,0,0,0,0,1,177.0 altNRdy,0,0
8,0.26,0,0,244,67.5,0,0,0,0,0,0,1,177.0 altNRdy,0,0
8,0.27,0,0,244,90,0,0,0,0,0,0,1,177.0 altNRdy,0,0
8,0.28,0,0,244,112.5,0,0,0,0,0,0,1,173.9 c5 Rise,0,0
8,0.29,0,0,244,135,0,0,0,0,0,0,1,173.9 c5 Rise,0,0
8,0.3,0,0,244,168.75,0,0,0,0,0,0,1,173.9 c5 Rise,0,0
8,0.31,0,0,244,101.25,0,0,0,0,0,0,1,170.9 c5 Fall,0,0
8,0.32,0,0,233,135,22.5,0,0,0,0,0,1,170.9 c5 Fall,0,0
8,0.33,0,0,242,146.25,0,0,0,0,0,0,1,170.9 c5 Fall,0,0
8,0.34,0,0,244,135,0,0,0,0,0,0,1,170.9 c5 Fall,0,0
8,0.35,0,0,244,135,0,0,0,0,0,0,1,170.9 c5 Fall,0,0
8,0.36,0,0,244,135,0,0,0,0,0,0,1,170.9 c5 Fall,0,0
8,0.37,0,0,233,146.25,0,0,0,0,0,0,1,170.9 c5 Fall,0,0
8,0.38,0,0,244,146.25,0,0,0,0,0,0,1,170.9 c5 Fall,0,0
8,0.39,0,0,233,146.25,0,0,0,0,0,0,1,170.9 c5 Fall,0,0
8,0.41,0,0,242,146.25,0,0,0,0,0,0,1,170.9 c5 Fall,0,0
8,0.42,0,0,229,146.25,0,0,0,0,0,0,1,170.9 c5 Fall,0,0
8,0.43,0,0,87,146.25,0,0,0,0,0,0,1,170.9 c5 Fall,0,0
8,0.44,34801580,135770845,17,146.25,0,0,0,0,0,0,1,170.9 c5 Fall,34.80158,135.770845
8,0.45,34801581,135770846,17,146.25,0,0,0,0,0,0,1,170.9 c5 Fall,34.801581,135.770846
8,0.46,34801596,135770865,16,146.25,0,0,0,0,0,0,1,170.9 c5 Fall,34.801596,135.770865
8,0.47,34801591,135770870,16,146.25,0,0,0,0,0,0,1,170.9 c5 Fall,34.801591,135.77087
8,0.48,34801591,135770870,16,146.25,0,0,0,0,0,0,1,170.9 c5 Fall,34.801591,135.77087
8,0.49,34801591,135770870,15,146.25,0,0,0,0,0,0,1,170.9 c5 Fall,34.801591,135.77087
8,0.5,34801591,135770870,15,146.25,0,0,0,0,0,0,1,170.9 c5 Fall,34.801591,135.77087
8,0.51,34801591,135770870,15,146.25,0,0,0,0,0,0,1,170.9 c5 Fall,34.801591,135.77087
8,0.52,34801591,135770870,15,146.25,0,0,0,0,0,0,1,170.9 c5 Fall,34.801591,135.77087
8,0.53,34801589,135770877,15,146.25,0,0,0,0,0,0,1,170.9 c5 Fall,34.801589,135.770877
8,0.54,34801591,135770878,15,146.25,0,0,0,0,0,0,1,170.9 c5 Fall,34.801591,135.770878
8,0.55,34801594,135770879,15,146.25,0,0,0,0,0,0,1,170.9 c5 Fall,34.801594,135.770879
8,0.56,34801598,135770880,15,146.25,0,0,0,0,0,0,1,170.9 c5 Fall,34.801598,135.77088
8,0.57,34801600,135770882,14,146.25,0,0,0,0,0,0,1,170.9 c5 Fall,34.8016,135.770882
8,0.58,34801601,135770883,14,146.25,0,0,0,0,0,0,1,170.9 c5 Fall,34.801601,135.770883
8,0.59,34801602,135770885,14,146.25,0,0,0,0,0,0,1,170.9 c5 Fall,34.801602,135.770885
8,1,34801603,135770887,14,146.25,0,0,0,0,0,0,1,170.9 c5 Fall,34.801603,135.770887
8,1.1,34801604,135770889,14,146.25,0,0,0,0,0,0,1,170.9 c5 Fall,34.801604,135.770889
8,1.2,34801606,135770896,13,146.25,0,0,0,0,0,0,1,170.9 c5 Fall,34.801606,135.770896
8,1.3,34801607,135770902,12,146.25,0,0,0,0,0,0,1,170.9 c5 Fall,34.801607,135.770902
8,1.4,34801607,135770909,12,146.25,0,0,0,0,0,0,1,170.9 c5 Fall,34.801607,135.770909
8,1.5,34801607,135770909,12,146.25,0,0,0,0,0,0,1,170.9 c5 Fall,34.801607,135.770909
8,1.7,34801607,135770909,12,146.25,0,0,0,0,0,0,1,170.9 c5 Fall,34.801607,135.770909
8,1.8,34801608,135770923,11,146.25,0,0,0,0,0,0,1,170.9 c5 Fall,34.801608,135.770923
8,1.9,34801607,135770926,10,146.25,0,0,0,0,0,0,1,170.9 c5 Fall,34.801607,135.770926
8,1.1,34801607,135770928,10,146.25,0,0,0,0,0,0,1,170.9 c5 Fall,34.801607,135.770928
8,1.11,34801607,135770929,10,135,0,0,0,0,0,0,1,170.9 c5 Fall,34.801607,135.770929
8,1.12,34801606,135770930,10,135,0,0,0,0,0,0,1,170.9 c5 Fall,34.801606,135.77093
8,1.13,34801606,135770931,10,146.25,0,0,0,0,0,0,1,170.9 c5 Fall,34.801606,135.770931
8,1.14,34801605,135770932,10,146.25,0,0,0,0,0,0,1,170.9 c5 Fall,34.801605,135.770932
8,1.15,34801605,135770933,10,146.25,0,0,0,0,0,0,1,170.9 c5 Fall,34.801605,135.770933
8,1.16,34801605,135770934,10,146.25,0,0,0,0,0,0,1,170.9 c5 Fall,34.801605,135.770934
8,1.17,34801605,135770934,10,146.25,0,0,0,0,0,0,1,170.9 c5 Fall,34.801605,135.770934
8,1.18,34801604,135770934,10,146.25,0,0,0,0,0,0,1,170.9 c5 Fall,34.801604,135.770934
8,1.19,34801604,135770935,10,146.25,0,0,0,0,0,0,1,170.9 c5 Fall,34.801604,135.770935
8,1.2,34801604,135770935,10,135,0,0,0,0,0,0,1,170.9 c5 Fall,34.801604,135.770935
8,1.21,34801604,135770935,9,135,0,0,0,0,0,0,1,170.9 c5 Fall,34.801604,135.770935
8,1.22,34801604,135770935,9,146.25,0,0,0,0,0,0,1,170.9 c5 Fall,34.801604,135.770935
8,1.23,34801604,135770935,10,146.25,0,0,0,0,0,0,1,170.9 c5 Fall,34.801604,135.770935
8,1.24,34801604,135770935,10,146.25,0,0,0,0,0,0,1,170.9 c5 Fall,34.801604,135.770935
8,1.25,34801604,135770935,10,146.25,0,0,0,0,0,0,1,170.9 c5 Fall,34.801604,135.770935
8,1.26,34801602,135770934,10,146.25,0,0,0,0,0,0,1,170.9 c5 Fall,34.801602,135.770934
8,1.27,34801602,135770934,10,146.25,0,0,0,0,0,0,1,170.9 c5 Fall,34.801602,135.770934
8,1.28,34801602,135770935,9,146.25,0,0,0,0,0,0,1,170.9 c5 Fall,34.801602,135.770935
8,1.29,34801602,135770935,9,146.25,0,0,0,0,0,0,1,170.9 c5 Fall,34.801602,135.770935
8,1.3,34801602,135770935,9,146.25,0,0,0,0,0,0,1,170.9 c5 Fall,34.801602,135.770935
8,1.31,34801602,135770935,9,146.25,0,0,0,0,0,0,1,170.9 c5 Fall,34.801602,135.770935
8,1.33,34801601,135770935,10,146.25,0,0,0,0,0,0,1,170.9 c5 Fall,34.801601,135.770935
8,1.34,34801601,135770935,10,146.25,0,0,0,0,0,0,1,170.9 c5 Fall,34.801601,135.770935
8,1.35,34801601,135770936,10,146.25,0,0,0,0,0,0,1,170.9 c5 Fall,34.801601,135.770936
8,1.36,34801601,135770936,10,146.25,0,0,0,0,0,0,1,170.9 c5 Fall,34.801601,135.770936
8,1.37,34801601,135770936,10,146.25,0,0,0,0,0,0,1,170.9 c5 Fall,34.801601,135.770936
8,1.38,34801601,135770936,10,146.25,0,0,0,0,0,0,1,170.9 c5 Fall,34.801601,135.770936
8,1.39,34801602,135770936,9,146.25,0,0,0,0,0,0,1,170.9 c5 Fall,34.801602,135.770936
8,1.4,34801602,135770936,9,146.25,0,0,0,0,0,0,1,170.9 c5 Fall,34.801602,135.770936
8,1.41,34801602,135770936,9,146.25,0,0,0,0,0,0,1,170.9 c5 Fall,34.801602,135.770936
8,1.42,34801602,135770936,9,146.25,0,0,0,0,0,0,1,170.9 c5 Fall,34.801602,135.770936
8,1.43,34801602,135770936,9,146.25,0,0,0,0,0,0,6,NC 0 Heata -0 L,34.801602,135.770936
8,1.44,34801602,135770936,9,315,67.5,0,0,0,0,0,6,NC 2 Heata -0 L,34.801602,135.770936
8,1.45,34801602,135770936,10,11.25,0,0,0,0,0,0,6,NC 4 Heata -0 L,34.801602,135.770936
8,1.46,34801603,135770937,9,11.25,0,0,0,0,0,0,6,NC 6 Heata -0 L,34.801603,135.770937
8,1.47,34801603,135770937,10,56.25,0,11.2,0,2,0,0,2,t-2.43 Left-0 L,34.801603,135.770937
8,1.48,34801603,135770937,10,123.75,0,0,0,2,0,0,2,t-2.43 Left-0 L,34.801603,135.770937
8,1.49,34801603,135770937,10,123.75,0,0,0,0,2,0,2,t2.60 Right-0 L,34.801603,135.770937
8,1.5,34801603,135770937,10,135,0,0,0,0,2,0,2,t2.60 Right-0 L,34.801603,135.770937
8,1.51,34801603,135770937,10,123.75,0,0,0,0,2,0,2,t2.60 Right-0 L,34.801603,135.770937
8,1.52,34801603,135770937,10,123.75,0,0,0,0,2,0,2,t2.60 Right-0 L,34.801603,135.770937
8,1.53,34801603,135770937,9,123.75,0,0,0,0,2,0,2,t2.60 Right-0 L,34.801603,135.770937
8,1.54,34801603,135770937,9,123.75,0,0,0,0,2,0,2,t2.60 Right-0 L,34.801603,135.770937
8,1.55,34801603,135770938,10,191.25,0,0,0,0,2,0,2,t2.58 Right-0 L,34.801603,135.770938
8,1.56,34801603,135770938,10,191.25,0,0,0,0,2,0,2,t2.46 Right-0 L,34.801603,135.770938
8,1.57,34801603,135770938,10,180,0,0,0,0,2,0,2,t2.31 Right-0 L,34.801603,135.770938
8,1.59,34801603,135770938,10,123.75,0,0,0,0,2,0,2,t2.31 Right-0 L,34.801603,135.770938
8,2,34801604,135770938,9,157.5,0,0,0,0,2,0,2,t2.59 Right-0 L,34.801604,135.770938
8,2.1,34801604,135770938,10,135,0,0,0,0,2,0,2,t2.59 Right-0 L,34.801604,135.770938
8,2.2,34801604,135770938,9,123.75,0,0,0,0,2,0,2,t2.59 Right-0 L,34.801604,135.770938
8,2.3,34801604,135770938,9,146.25,0,0,0,0,2,0,2,t2.51 Right-0 L,34.801604,135.770938
8,2.4,34801604,135770938,10,101.25,0,0,0,0,2,0,2,t2.51 Right-0 L,34.801604,135.770938
8,2.5,34801604,135770938,9,101.25,0,0,0,0,2,0,2,t2.51 Right-0 L,34.801604,135.770938
8,2.6,34801604,135770939,9,56.25,0,0,0,0,2,0,2,t2.98 Right-0 L,34.801604,135.770939
8,2.7,34801604,135770939,9,146.25,0,0,0,0,2,0,2,t2.98 Right-0 L,34.801604,135.770939
8,2.8,34801604,135770939,9,146.25,0,0,0,0,2,0,2,t2.98 Right-0 L,34.801604,135.770939
8,2.9,34801597,135770938,9,168.75,0,0,0,0,0,1,2,stack left-0 L,34.801597,135.770938
8,2.1,34801597,135770938,9,146.25,0,0,0,0,0,1,2,stack left-0 L,34.801597,135.770938
8,2.11,34801597,135770938,9,146.25,0,0,0,0,0,1,2,stack left-0 L,34.801597,135.770938
8,2.12,34801596,135770934,10,146.25,0,0,0,0,0,1,2,stack left-0 L,34.801596,135.770934
8,2.13,34801596,135770934,10,146.25,0,0,0,0,0,1,2,stack left-0 L,34.801596,135.770934
8,2.14,34801598,135770934,10,146.25,0,0,0,0,0,1,2,stack left-0 L,34.801598,135.770934
8,2.15,34801598,135770935,10,146.25,0,0,0,0,0,1,2,stack left-0 L,34.801598,135.770935
8,2.16,34801598,135770936,10,146.25,0,0,0,0,0,1,2,stack left-0 L,34.801598,135.770936
8,2.17,34801597,135770935,10,146.25,0,0,0,0,0,1,2,stack left-0 L,34.801597,135.770935
8,2.18,34801597,135770935,10,146.25,0,0,0,0,0,1,2,stack left-0 L,34.801597,135.770935
8,2.19,34801598,135770935,10,146.25,0,0,0,0,0,1,2,stack left-0 L,34.801598,135.770935
8,2.2,34801598,135770935,10,146.25,0,0,0,0,0,1,2,stack left-0 L,34.801598,135.770935
8,2.21,34801599,135770935,10,146.25,0,0,0,0,0,1,2,stack left-0 L,34.801599,135.770935
8,2.22,34801599,135770935,10,146.25,0,0,0,0,0,1,2,stack left-0 L,34.801599,135.770935
8,2.23,34801599,135770935,10,135,0,0,0,0,2,0,2,t2.23 Rightk cn,34.801599,135.770935
8,2.25,34801599,135770935,10,90,0,0,0,0,2,0,2,t2.53 Rightk cn,34.801599,135.770935
8,2.26,34801599,135770935,10,56.25,0,0,0,0,2,0,2,t3.06 Rightk cn,34.801599,135.770935
8,2.27,34801599,135770935,10,90,0,0,0,0,2,0,2,t3.06 Rightk cn,34.801599,135.770935
8,2.28,34801599,135770935,10,90,0,0,0,0,2,0,2,t3.06 Rightk cn,34.801599,135.770935
8,2.29,34801600,135770935,10,33.75,11.2,0,0,2,0,0,2,t-3.09 Leftk cn,34.8016,135.770935
8,2.3,34801600,135770936,10,11.25,11.2,0,0,2,0,0,2,t-2.69 Leftk cn,34.8016,135.770936
8,2.31,34801600,135770936,10,56.25,0,0,0,2,0,0,2,t-2.69 Leftk cn,34.8016,135.770936
8,2.32,34801601,135770937,10,112.5,0,0,0,0,2,0,2,t2.88 Rightk cn,34.801601,135.770937
8,2.33,34801601,135770937,10,135,0,0,0,0,2,0,2,t2.88 Rightk cn,34.801601,135.770937
8,2.34,34801601,135770937,10,135,0,0,0,0,2,0,2,t2.88 Rightk cn,34.801601,135.770937
8,2.35,34801602,135770938,10,157.5,0,0,0,0,2,0,2,t2.34 Rightk cn,34.801602,135.770938
8,2.36,34801603,135770938,10,67.5,11.2,0,0,0,2,0,2,t2.67 Rightk cn,34.801603,135.770938
8,2.37,34801603,135770938,10,22.5,11.2,0,0,2,0,0,2,t-2.59 Leftk cn,34.801603,135.770938
8,2.38,34801603,135770938,10,56.25,0,0,0,2,0,0,2,t-2.59 Leftk cn,34.801603,135.770938
8,2.39,34801603,135770938,9,56.25,0,0,0,2,0,0,2,t-2.59 Leftk cn,34.801603,135.770938
8,2.4,34801603,135770938,9,56.25,0,0,0,2,0,0,2,t-2.59 Leftk cn,34.801603,135.770938
8,2.41,34801603,135770938,9,56.25,0,0,0,2,0,0,2,t-2.59 Leftk cn,34.801603,135.770938
8,2.42,34801603,135770938,9,56.25,0,0,0,2,0,0,2,t-2.59 Leftk cn,34.801603,135.770938
8,2.43,34801603,135770938,9,56.25,0,0,0,2,0,0,2,t-2.59 Leftk cn,34.801603,135.770938
8,2.44,34801603,135770938,9,56.25,0,0,0,2,0,0,2,t-2.59 Leftk cn,34.801603,135.770938
8,2.45,34801603,135770938,9,56.25,0,0,0,2,0,0,2,t-2.59 Leftk cn,34.801603,135.770938
8,2.46,34801603,135770938,9,56.25,0,0,0,2,0,0,2,t-2.59 Leftk cn,34.801603,135.770938
8,2.47,34801603,135770938,9,56.25,0,0,0,2,0,0,2,t-2.59 Leftk cn,34.801603,135.770938
8,2.48,34801603,135770938,9,56.25,0,0,0,2,0,0,2,t-2.59 Leftk cn,34.801603,135.770938
8,2.49,34801603,135770938,9,56.25,0,0,0,2,0,0,2,t-2.59 Leftk cn,34.801603,135.770938
8,2.51,34801603,135770938,9,56.25,0,0,0,2,0,0,2,t-2.59 Leftk cn,34.801603,135.770938
8,2.52,34801603,135770938,9,56.25,0,0,0,2,0,0,2,t-2.59 Leftk cn,34.801603,135.770938
8,2.53,34801603,135770938,9,56.25,0,0,0,2,0,0,2,t-2.59 Leftk cn,34.801603,135.770938
8,2.54,34801603,135770938,9,56.25,0,0,0,2,0,0,2,t-2.59 Leftk cn,34.801603,135.770938
8,2.55,34801603,135770938,9,56.25,0,0,0,2,0,0,2,t-2.59 Leftk cn,34.801603,135.770938
8,2.56,34801603,135770938,9,56.25,0,0,0,2,0,0,2,t-2.59 Leftk cn,34.801603,135.770938
8,2.57,34801605,135770942,9,22.5,0,0,0,2,0,0,2,t-2.51 Leftk cn,34.801605,135.770942
8,2.58,34801605,135770942,9,56.25,0,0,0,2,0,0,2,t-2.51 Leftk cn,34.801605,135.770942
8,2.59,34801605,135770942,9,56.25,0,0,0,2,0,0,2,t-2.51 Leftk cn,34.801605,135.770942
8,3,34801605,135770942,9,56.25,0,0,0,2,0,0,2,t-2.51 Leftk cn,34.801605,135.770942
8,3.1,34801605,135770942,9,56.25,0,0,0,2,0,0,2,t-2.51 Leftk cn,34.801605,135.770942
8,3.2,34801606,135770945,9,56.25,0,0,0,2,0,0,2,t-2.49 Leftk cn,34.801606,135.770945
8,3.3,34801606,135770945,9,33.75,0,0,0,2,0,0,2,t-2.49 Leftk cn,34.801606,135.770945
8,3.4,34801606,135770945,9,45,0,0,0,2,0,0,2,t-2.49 Leftk cn,34.801606,135.770945
8,3.5,34801606,135770947,8,45,0,0,0,2,0,0,2,t-2.27 Leftk cn,34.801606,135.770947
8,3.6,34801606,135770947,8,45,0,0,0,2,0,0,2,t-2.27 Leftk cn,34.801606,135.770947
8,3.7,34801606,135770947,8,45,0,0,0,2,0,0,2,t-2.35 Leftk cn,34.801606,135.770947
8,3.8,34801606,135770947,8,45,0,0,0,2,0,0,2,t-2.35 Leftk cn,34.801606,135.770947
8,3.9,34801606,135770948,8,45,0,0,0,2,0,0,2,t-2.28 Leftk cn,34.801606,135.770948
8,3.1,34801606,135770948,8,45,0,0,0,2,0,0,2,t-2.28 Leftk cn,34.801606,135.770948
8,3.11,34801606,135770948,9,45,0,0,0,2,0,0,2,t-2.28 Leftk cn,34.801606,135.770948
8,3.12,34801606,135770948,9,45,0,0,0,2,0,0,2,t-2.28 Leftk cn,34.801606,135.770948
8,3.13,34801607,135770950,8,45,0,0,0,2,0,0,2,t-2.32 Leftk cn,34.801607,135.77095
8,3.14,34801607,135770950,8,33.75,0,0,0,2,0,0,2,t-2.32 Leftk cn,34.801607,135.77095
8,3.15,34801608,135770950,8,45,0,0,0,2,0,0,2,t-2.15 Leftk cn,34.801608,135.77095
8,3.17,34801608,135770950,8,33.75,0,0,0,2,0,0,2,t-2.15 Leftk cn,34.801608,135.77095
8,3.18,34801608,135770950,8,33.75,0,0,0,2,0,0,2,t-2.15 Leftk cn,34.801608,135.77095
8,3.19,34801608,135770951,8,45,0,0,0,2,0,0,2,t-2.15 Leftk cn,34.801608,135.770951
8,3.2,34801608,135770951,8,33.75,0,0,0,2,0,0,2,t-2.15 Leftk cn,34.801608,135.770951
8,3.21,34801608,135770951,8,45,0,0,0,2,0,0,2,t-2.15 Leftk cn,34.801608,135.770951
8,3.22,34801608,135770952,8,45,0,0,0,2,0,0,2,t-2.27 Leftk cn,34.801608,135.770952
8,3.23,34801608,135770952,8,33.75,0,0,0,2,0,0,2,t-2.27 Leftk cn,34.801608,135.770952
8,3.24,34801592,135770963,7,45,0,0,0,2,0,0,2,t-2.34 Leftk cn,34.801592,135.770963
8,3.25,34801592,135770963,7,33.75,0,0,0,2,0,0,2,t-2.34 Leftk cn,34.801592,135.770963
8,3.26,34801590,135770963,7,33.75,11.2,0,0,2,0,0,2,t-2.39 Leftk cn,34.80159,135.770963
8,3.27,34801590,135770963,7,33.75,0,0,0,2,0,0,2,t-2.39 Leftk cn,34.80159,135.770963
8,3.28,34801590,135770963,7,33.75,0,0,0,2,0,0,2,t-2.39 Leftk cn,34.80159,135.770963
8,3.29,34801593,135770966,7,11.25,0,0,0,2,0,0,2,t-2.28 Leftk cn,34.801593,135.770966
8,3.3,34801595,135770966,7,11.25,0,0,0,2,0,0,2,t-2.18 Leftk cn,34.801595,135.770966
8,3.31,34801596,135770966,7,11.25,0,0,0,2,0,0,2,t-2.12 Leftk cn,34.801596,135.770966
8,3.32,34801596,135770966,7,45,0,0,0,2,0,0,2,t-2.12 Leftk cn,34.801596,135.770966
8,3.33,34801596,135770966,7,45,0,0,0,2,0,0,2,t-2.12 Leftk cn,34.801596,135.770966
8,3.34,34801596,135770966,7,45,0,0,0,2,0,0,2,t-2.12 Leftk cn,34.801596,135.770966
8,3.35,34801602,135770968,7,33.75,0,0,0,2,0,0,2,t-2.29 Leftk cn,34.801602,135.770968
8,3.36,34801602,135770968,7,45,0,0,0,2,0,0,2,t-2.29 Leftk cn,34.801602,135.770968
8,3.37,34801603,135770972,6,45,0,0,0,2,0,0,2,t-2.18 Leftk cn,34.801603,135.770972
8,3.38,34801603,135770972,6,33.75,0,0,0,2,0,0,2,t-2.18 Leftk cn,34.801603,135.770972
8,3.39,34801603,135770972,6,33.75,0,0,0,2,0,0,2,t-2.18 Leftk cn,34.801603,135.770972
8,3.4,34801605,135770971,6,45,0,0,0,2,0,0,2,t-2.15 Leftk cn,34.801605,135.770971
8,3.41,34801606,135770972,6,33.75,0,0,0,2,0,0,2,t-2.02 Leftk cn,34.801606,135.770972
8,3.43,34801606,135770972,6,33.75,0,0,0,2,0,0,2,t-2.02 Leftk cn,34.801606,135.770972
8,3.44,34801606,135770972,6,33.75,0,0,0,2,0,0,2,t-2.02 Leftk cn,34.801606,135.770972
8,3.45,34801606,135770972,6,33.75,0,0,0,2,0,0,2,t-2.02 Leftk cn,34.801606,135.770972
8,3.46,34801601,135770972,6,33.75,0,0,0,2,0,0,2,t-2.19 Leftk cn,34.801601,135.770972
8,3.47,34801601,135770972,6,33.75,0,0,0,2,0,0,2,t-2.19 Leftk cn,34.801601,135.770972
8,3.48,34801601,135770972,6,33.75,0,0,0,2,0,0,2,t-2.19 Leftk cn,34.801601,135.770972
8,3.49,34801608,135770974,6,33.75,0,0,0,2,0,0,2,t-2.03 Leftk cn,34.801608,135.770974
8,3.5,34801608,135770974,6,22.5,0,0,0,2,0,0,2,t-2.03 Leftk cn,34.801608,135.770974
8,3.51,34801612,135770973,7,33.75,0,0,0,2,0,0,2,t-1.94 Leftk cn,34.801612,135.770973
8,3.52,34801612,135770973,6,33.75,0,0,0,2,0,0,2,t-1.94 Leftk cn,34.801612,135.770973
8,3.53,34801615,135770973,7,33.75,0,0,0,2,0,0,2,t-1.99 Leftk cn,34.801615,135.770973
8,3.54,34801615,135770973,6,33.75,0,0,0,2,0,0,2,t-1.99 Leftk cn,34.801615,135.770973
8,3.55,34801615,135770973,6,33.75,0,0,0,2,0,0,2,t-1.99 Leftk cn,34.801615,135.770973
8,3.56,34801618,135770972,7,11.25,0,0,0,2,0,0,2,t-1.85 Leftk cn,34.801618,135.770972
8,3.57,34801619,135770972,7,11.25,11.2,0,0,2,0,0,2,t-1.79 Leftk cn,34.801619,135.770972
8,3.58,34801619,135770972,7,22.5,0,0,0,2,0,0,2,t-1.79 Leftk cn,34.801619,135.770972
8,3.59,34801619,135770972,7,33.75,0,0,0,2,0,0,2,t-1.79 Leftk cn,34.801619,135.770972
8,4,34801620,135770974,7,11.25,0,0,0,2,0,0,2,t-1.79 Leftk cn,34.80162,135.770974
8,4.1,34801620,135770974,7,33.75,0,0,0,2,0,0,2,t-1.79 Leftk cn,34.80162,135.770974
8,4.2,34801620,135770974,7,11.25,0,0,0,2,0,0,2,t-1.90 Leftk cn,34.80162,135.770974
8,4.3,34801620,135770974,7,33.75,0,0,0,2,0,0,2,t-1.90 Leftk cn,34.80162,135.770974
8,4.4,34801620,135770974,6,33.75,0,0,0,2,0,0,2,t-1.90 Leftk cn,34.80162,135.770974
8,4.5,34801620,135770974,6,33.75,0,0,0,2,0,0,2,t-1.90 Leftk cn,34.80162,135.770974
8,4.6,34801620,135770974,6,33.75,0,0,0,2,0,0,2,t-1.90 Leftk cn,34.80162,135.770974
8,4.7,34801617,135770973,7,33.75,0,0,0,2,0,0,2,t-1.95 Leftk cn,34.801617,135.770973
8,4.9,34801617,135770973,7,22.5,0,0,0,2,0,0,2,t-1.80 Leftk cn,34.801617,135.770973
8,4.1,34801617,135770973,7,33.75,0,0,0,2,0,0,2,t-1.80 Leftk cn,34.801617,135.770973
8,4.11,34801615,135770973,7,33.75,0,0,0,2,0,0,2,t-1.95 Leftk cn,34.801615,135.770973
8,4.12,34801615,135770973,6,22.5,0,0,0,2,0,0,2,t-1.95 Leftk cn,34.801615,135.770973
8,4.13,34801615,135770973,7,33.75,0,0,0,2,0,0,2,t-1.93 Leftk cn,34.801615,135.770973
8,4.14,34801615,135770973,6,33.75,0,0,0,2,0,0,2,t-1.93 Leftk cn,34.801615,135.770973
8,4.15,34801615,135770973,6,33.75,0,0,0,2,0,0,2,t-1.93 Leftk cn,34.801615,135.770973
8,4.16,34801614,135770973,7,33.75,0,0,0,2,0,0,2,t-1.88 Leftk cn,34.801614,135.770973
8,4.17,34801614,135770973,6,22.5,0,0,0,2,0,0,2,t-1.88 Leftk cn,34.801614,135.770973
8,4.18,34801614,135770973,6,33.75,0,0,0,2,0,0,2,t-1.88 Leftk cn,34.801614,135.770973
8,4.19,34801614,135770973,7,33.75,0,0,0,2,0,0,2,t-1.87 Leftk cn,34.801614,135.770973
8,4.2,34801614,135770973,6,22.5,0,0,0,2,0,0,2,t-1.87 Leftk cn,34.801614,135.770973
8,4.21,34801614,135770973,6,33.75,0,0,0,2,0,0,2,t-1.87 Leftk cn,34.801614,135.770973
8,4.22,34801616,135770958,8,11.25,0,0,0,2,0,0,2,t-1.89 Leftk cn,34.801616,135.770958
8,4.23,34801616,135770958,8,33.75,0,0,0,2,0,0,2,t-1.89 Leftk cn,34.801616,135.770958
8,4.24,34801618,135770968,7,22.5,0,0,0,2,0,0,2,t-1.88 Leftk cn,34.801618,135.770968
8,4.25,34801618,135770968,7,22.5,0,0,0,2,0,0,2,t-1.88 Leftk cn,34.801618,135.770968
8,4.26,34801618,135770968,7,33.75,0,0,0,2,0,0,2,t-1.88 Leftk cn,34.801618,135.770968
8,4.27,34801625,135770966,8,11.25,0,0,0,2,0,0,2,t-1.76 Leftk cn,34.801625,135.770966
8,4.28,34801625,135770966,7,33.75,0,0,0,2,0,0,2,t-1.76 Leftk cn,34.801625,135.770966
8,4.29,34801625,135770966,7,33.75,0,0,0,2,0,0,2,t-1.76 Leftk cn,34.801625,135.770966
8,4.3,34801634,135770958,9,22.5,0,0,0,2,0,0,2,t-1.76 Leftk cn,34.801634,135.770958
8,4.31,34801634,135770958,8,22.5,0,0,0,2,0,0,2,t-1.76 Leftk cn,34.801634,135.770958
8,4.32,34801634,135770958,8,33.75,0,0,0,2,0,0,2,t-1.76 Leftk cn,34.801634,135.770958
8,4.33,34801634,135770958,8,33.75,0,0,0,2,0,0,2,t-1.76 Leftk cn,34.801634,135.770958
8,4.35,34801630,135770956,9,33.75,0,0,0,2,0,0,2,t-1.73 Leftk cn,34.80163,135.770956
8,4.36,34801630,135770955,9,22.5,0,0,0,2,0,0,2,t-1.62 Leftk cn,34.80163,135.770955
8,4.37,34801630,135770955,8,22.5,0,0,0,2,0,0,2,t-1.62 Leftk cn,34.80163,135.770955
8,4.38,34801630,135770955,8,22.5,0,0,0,2,0,0,2,t-1.62 Leftk cn,34.80163,135.770955
8,4.39,34801630,135770955,8,22.5,0,0,0,2,0,0,2,t-1.62 Leftk cn,34.80163,135.770955
8,4.4,34801630,135770955,8,22.5,0,0,0,2,0,0,2,t-1.62 Leftk cn,34.80163,135.770955
8,4.41,34801630,135770955,9,22.5,0,0,0,2,0,0,2,t-1.69 Leftk cn,34.80163,135.770955
8,4.42,34801630,135770955,8,22.5,0,0,0,2,0,0,2,t-1.69 Leftk cn,34.80163,135.770955
8,4.43,34801630,135770955,8,22.5,0,0,0,2,0,0,2,t-1.69 Leftk cn,34.80163,135.770955
8,4.44,34801630,135770955,8,22.5,0,0,0,2,0,0,2,t-1.69 Leftk cn,34.80163,135.770955
8,4.45,34801629,135770953,9,22.5,0,0,0,2,0,0,2,t-1.74 Leftk cn,34.801629,135.770953
8,4.46,34801629,135770953,9,0,0,0,0,2,0,0,2,t-1.64 Leftk cn,34.801629,135.770953
8,4.47,34801629,135770953,9,22.5,0,0,0,2,0,0,2,t-1.64 Leftk cn,34.801629,135.770953
8,4.48,34801629,135770954,9,22.5,0,0,0,2,0,0,2,t-1.73 Leftk cn,34.801629,135.770954
8,4.49,34801629,135770954,8,22.5,0,0,0,2,0,0,2,t-1.73 Leftk cn,34.801629,135.770954
8,4.5,34801629,135770954,8,22.5,0,0,0,2,0,0,2,t-1.73 Leftk cn,34.801629,135.770954
8,4.51,34801629,135770954,8,22.5,0,0,0,2,0,0,2,t-1.73 Leftk cn,34.801629,135.770954
8,4.52,34801628,135770954,9,0,0,0,0,2,0,0,2,t-1.73 Leftk cn,34.801628,135.770954
8,4.53,34801628,135770954,8,22.5,0,0,0,2,0,0,2,t-1.73 Leftk cn,34.801628,135.770954
8,4.54,34801629,135770955,9,22.5,11.2,0,0,2,0,0,2,t-1.75 Leftk cn,34.801629,135.770955
8,4.55,34801629,135770955,8,22.5,0,0,0,2,0,0,2,t-1.75 Leftk cn,34.801629,135.770955
8,4.56,34801629,135770955,8,22.5,0,0,0,2,0,0,2,t-1.75 Leftk cn,34.801629,135.770955
8,4.57,34801629,135770955,8,22.5,0,0,0,2,0,0,2,t-1.75 Leftk cn,34.801629,135.770955
8,4.58,34801629,135770955,8,22.5,0,0,0,2,0,0,2,t-1.75 Leftk cn,34.801629,135.770955
8,4.59,34801629,135770955,8,22.5,0,0,0,2,0,0,2,t-1.75 Leftk cn,34.801629,135.770955
8,5.1,34801630,135770953,9,22.5,0,0,0,2,0,0,2,t-1.66 Leftk cn,34.80163,135.770953
8,5.2,34801630,135770953,9,22.5,0,0,0,2,0,0,2,t-1.59 Leftk cn,34.80163,135.770953
8,5.3,34801630,135770953,9,22.5,0,0,0,2,0,0,2,t-1.59 Leftk cn,34.80163,135.770953
8,5.4,34801630,135770953,8,22.5,0,0,0,2,0,0,2,t-1.59 Leftk cn,34.80163,135.770953
8,5.5,34801630,135770953,8,22.5,0,0,0,2,0,0,2,t-1.59 Leftk cn,34.80163,135.770953
8,5.6,34801630,135770953,8,22.5,0,0,0,2,0,0,2,t-1.59 Leftk cn,34.80163,135.770953
8,5.7,34801630,135770953,8,22.5,0,0,0,2,0,0,2,t-1.59 Leftk cn,34.80163,135.770953
8,5.8,34801630,135770952,9,22.5,0,0,0,2,0,0,2,t-1.57 Leftk cn,34.80163,135.770952
8,5.9,34801631,135770952,9,11.25,0,0,0,2,0,0,2,t-1.50 Leftk cn,34.801631,135.770952
8,5.1,34801631,135770952,9,11.25,0,0,0,2,0,0,2,t-1.50 Leftk cn,34.801631,135.770952
8,5.11,34801631,135770953,9,0,0,0,0,2,0,0,2,t-1.54 Leftk cn,34.801631,135.770953
8,5.12,34801631,135770953,9,22.5,0,0,0,2,0,0,2,t-1.54 Leftk cn,34.801631,135.770953
8,5.13,34801631,135770953,9,11.25,0,0,0,2,0,0,2,t-1.65 Leftk cn,34.801631,135.770953
8,5.14,34801631,135770953,9,22.5,0,0,0,2,0,0,2,t-1.65 Leftk cn,34.801631,135.770953
8,5.15,34801631,135770954,9,0,0,0,0,2,0,0,2,t-1.55 Leftk cn,34.801631,135.770954
8,5.16,34801631,135770954,9,22.5,0,0,0,2,0,0,2,t-1.55 Leftk cn,34.801631,135.770954
8,5.17,34801631,135770954,8,22.5,0,0,0,2,0,0,2,t-1.55 Leftk cn,34.801631,135.770954
8,5.18,34801632,135770954,9,22.5,11.2,0,0,2,0,0,2,t-1.71 Leftk cn,34.801632,135.770954
8,5.19,34801631,135770954,9,0,0,0,0,2,0,0,2,t-1.59 Leftk cn,34.801631,135.770954
8,5.2,34801631,135770954,9,22.5,0,0,0,2,0,0,2,t-1.59 Leftk cn,34.801631,135.770954
8,5.21,34801631,135770954,8,22.5,0,0,0,2,0,0,2,t-1.59 Leftk cn,34.801631,135.770954
8,5.22,34801631,135770954,8,22.5,0,0,0,2,0,0,2,t-1.59 Leftk cn,34.801631,135.770954
8,5.23,34801631,135770954,8,22.5,0,0,0,2,0,0,2,t-1.59 Leftk cn,34.801631,135.770954
8,5.24,34801631,135770954,8,22.5,0,0,0,2,0,0,2,t-1.59 Leftk cn,34.801631,135.770954
8,5.25,34801631,135770953,9,22.5,0,0,0,2,0,0,2,t-1.72 Leftk cn,34.801631,135.770953
8,5.27,34801631,135770953,9,22.5,0,0,0,2,0,0,2,t-1.72 Leftk cn,34.801631,135.770953
8,5.28,34801631,135770953,8,22.5,0,0,0,2,0,0,2,t-1.72 Leftk cn,34.801631,135.770953
8,5.29,34801631,135770953,8,22.5,0,0,0,2,0,0,2,t-1.72 Leftk cn,34.801631,135.770953
8,5.3,34801631,135770954,9,22.5,0,0,0,2,0,0,2,t-1.58 Leftk cn,34.801631,135.770954
8,5.31,34801631,135770954,9,11.25,0,0,0,2,0,0,2,t-1.58 Leftk cn,34.801631,135.770954
8,5.32,34801631,135770954,8,22.5,0,0,0,2,0,0,2,t-1.58 Leftk cn,34.801631,135.770954
8,5.33,34801631,135770954,8,22.5,0,0,0,2,0,0,2,t-1.58 Leftk cn,34.801631,135.770954
8,5.34,34801631,135770954,8,22.5,0,0,0,2,0,0,2,t-1.58 Leftk cn,34.801631,135.770954
8,5.35,34801631,135770954,9,22.5,0,0,0,2,0,0,2,t-1.67 Leftk cn,34.801631,135.770954
8,5.36,34801631,135770954,9,11.25,0,0,0,2,0,0,2,t-1.67 Leftk cn,34.801631,135.770954
8,5.37,34801631,135770954,8,11.25,0,0,0,2,0,0,2,t-1.67 Leftk cn,34.801631,135.770954
8,5.38,34801630,135770954,9,0,0,0,0,2,0,0,2,t-1.52 Leftk cn,34.80163,135.770954
8,5.39,34801630,135770954,9,22.5,0,0,0,2,0,0,2,t-1.52 Leftk cn,34.80163,135.770954
8,5.4,34801630,135770954,8,22.5,0,0,0,2,0,0,2,t-1.52 Leftk cn,34.80163,135.770954
8,5.41,34801629,135770953,9,11.25,0,0,0,2,0,0,2,t-1.69 Leftk cn,34.801629,135.770953
8,5.42,34801628,135770953,9,348.75,0,0,0,2,0,0,2,t-1.53 Leftk cn,34.801628,135.770953
8,5.43,34801628,135770953,9,22.5,0,0,0,2,0,0,2,t-1.53 Leftk cn,34.801628,135.770953
8,5.44,34801628,135770953,8,22.5,0,0,0,2,0,0,2,t-1.53 Leftk cn,34.801628,135.770953
8,5.45,34801628,135770953,8,22.5,0,0,0,2,0,0,2,t-1.53 Leftk cn,34.801628,135.770953
8,5.46,34801628,135770953,8,22.5,0,0,0,2,0,0,2,t-1.53 Leftk cn,34.801628,135.770953
8,5.47,34801628,135770953,8,22.5,0,0,0,2,0,0,2,t-1.53 Leftk cn,34.801628,135.770953
8,5.48,34801628,135770953,8,22.5,0,0,0,2,0,0,2,t-1.53 Leftk cn,34.801628,135.770953
8,5.49,34801628,135770953,8,22.5,0,0,0,2,0,0,2,t-1.53 Leftk cn,34.801628,135.770953
8,5.5,34801621,135770952,9,22.5,0,0,0,2,0,0,2,t-1.78 Leftk cn,34.801621,135.770952
8,5.51,34801621,135770952,9,11.25,0,0,0,2,0,0,2,t-1.62 Leftk cn,34.801621,135.770952
8,5.53,34801621,135770952,8,11.25,0,0,0,2,0,0,2,t-1.62 Leftk cn,34.801621,135.770952
8,5.54,34801621,135770952,8,22.5,0,0,0,2,0,0,2,t-1.62 Leftk cn,34.801621,135.770952
8,5.55,34801621,135770952,8,22.5,0,0,0,2,0,0,2,t-1.62 Leftk cn,34.801621,135.770952
8,5.56,34801621,135770953,9,22.5,0,0,0,2,0,0,2,t-1.78 Leftk cn,34.801621,135.770953
8,5.57,34801621,135770953,9,11.25,0,0,0,2,0,0,2,t-1.61 Leftk cn,34.801621,135.770953
8,5.58,34801621,135770953,8,11.25,0,0,0,2,0,0,2,t-1.61 Leftk cn,34.801621,135.770953
8,5.59,34801621,135770953,8,22.5,0,0,0,2,0,0,2,t-1.61 Leftk cn,34.801621,135.770953
8,6,34801621,135770953,8,22.5,0,0,0,2,0,0,2,t-1.61 Leftk cn,34.801621,135.770953
8,6.1,34801621,135770953,8,22.5,0,0,0,2,0,0,2,t-1.61 Leftk cn,34.801621,135.770953
8,6.2,34801621,135770954,8,22.5,0,0,0,2,0,0,2,t-1.72 Leftk cn,34.801621,135.770954
8,6.3,34801620,135770954,8,11.25,0,0,0,2,0,0,2,t-1.53 Leftk cn,34.80162,135.770954
8,6.4,34801620,135770954,8,11.25,0,0,0,2,0,0,2,t-1.53 Leftk cn,34.80162,135.770954
8,6.5,34801621,135770953,9,11.25,0,0,0,2,0,0,2,t-1.60 Leftk cn,34.801621,135.770953
8,6.6,34801621,135770953,8,11.25,0,0,0,2,0,0,2,t-1.60 Leftk cn,34.801621,135.770953
8,6.7,34801621,135770953,8,11.25,0,0,0,2,0,0,2,t-1.60 Leftk cn,34.801621,135.770953
8,6.8,34801621,135770952,9,0,0,0,0,2,0,0,2,t-1.61 Leftk cn,34.801621,135.770952
8,6.9,34801621,135770952,8,22.5,0,0,0,2,0,0,2,t-1.61 Leftk cn,34.801621,135.770952
8,6.1,34801621,135770952,8,22.5,0,0,0,2,0,0,2,t-1.61 Leftk cn,34.801621,135.770952
8,6.11,34801621,135770952,9,11.25,11.2,0,0,2,0,0,2,t-1.75 Leftk cn,34.801621,135.770952
8,6.12,34801621,135770952,8,11.25,0,0,0,2,0,0,2,t-1.75 Leftk cn,34.801621,135.770952
8,6.13,34801621,135770952,8,11.25,0,0,0,2,0,0,2,t-1.75 Leftk cn,34.801621,135.770952
8,6.14,34801621,135770952,8,22.5,0,0,0,2,0,0,2,t-1.75 Leftk cn,34.801621,135.770952
8,6.15,34801621,135770952,8,22.5,0,0,0,2,0,0,2,t-1.75 Leftk cn,34.801621,135.770952
8,6.16,34801620,135770951,9,0,0,0,0,2,0,0,2,t-1.63 Leftk cn,34.80162,135.770951
8,6.17,34801620,135770951,9,11.25,0,0,0,2,0,0,2,t-1.54 Leftk cn,34.80162,135.770951
8,6.19,34801620,135770951,9,11.25,0,0,0,2,0,0,2,t-1.54 Leftk cn,34.80162,135.770951
8,6.2,34801620,135770951,8,11.25,0,0,0,2,0,0,2,t-1.54 Leftk cn,34.80162,135.770951
8,6.21,34801619,135770951,9,22.5,0,0,0,2,0,0,2,t-1.65 Leftk cn,34.801619,135.770951
8,6.22,34801619,135770951,8,11.25,0,0,0,2,0,0,2,t-1.65 Leftk cn,34.801619,135.770951
8,6.23,34801619,135770951,8,11.25,0,0,0,2,0,0,2,t-1.65 Leftk cn,34.801619,135.770951
8,6.24,34801619,135770951,8,11.25,0,0,0,2,0,0,2,t-1.65 Leftk cn,34.801619,135.770951
8,6.25,34801619,135770951,9,11.25,0,0,0,2,0,0,2,t-1.57 Leftk cn,34.801619,135.770951
8,6.26,34801619,135770951,8,11.25,0,0,0,2,0,0,2,t-1.57 Leftk cn,34.801619,135.770951
8,6.27,34801619,135770951,8,22.5,0,0,0,2,0,0,2,t-1.57 Leftk cn,34.801619,135.770951
8,6.28,34801619,135770951,8,22.5,0,0,0,2,0,0,2,t-1.57 Leftk cn,34.801619,135.770951
8,6.29,34801619,135770951,8,22.5,0,0,0,2,0,0,2,t-1.57 Leftk cn,34.801619,135.770951
8,6.3,34801618,135770951,9,11.25,0,0,0,2,0,0,2,t-1.72 Leftk cn,34.801618,135.770951
8,6.31,34801618,135770951,9,0,0,0,0,2,0,0,2,t-1.57 Leftk cn,34.801618,135.770951
8,6.32,34801618,135770951,8,11.25,0,0,0,2,0,0,2,t-1.57 Leftk cn,34.801618,135.770951
8,6.33,34801618,135770951,8,22.5,0,0,0,2,0,0,2,t-1.57 Leftk cn,34.801618,135.770951
8,6.34,34801618,135770951,8,22.5,0,0,0,2,0,0,2,t-1.57 Leftk cn,34.801618,135.770951
8,6.35,34801618,135770951,9,11.25,0,0,0,2,0,0,2,t-1.71 Leftk cn,34.801618,135.770951
8,6.36,34801618,135770951,8,11.25,0,0,0,2,0,0,2,t-1.71 Leftk cn,34.801618,135.770951
8,6.37,34801618,135770951,8,11.25,0,0,0,2,0,0,2,t-1.71 Leftk cn,34.801618,135.770951
8,6.38,34801618,135770951,8,11.25,0,0,0,2,0,0,2,t-1.71 Leftk cn,34.801618,135.770951
8,6.39,34801618,135770951,8,11.25,0,0,0,2,0,0,2,t-1.71 Leftk cn,34.801618,135.770951
8,6.4,34801618,135770951,8,11.25,0,0,0,2,0,0,2,t-1.71 Leftk cn,34.801618,135.770951
8,6.41,34801617,135770951,9,0,0,0,0,2,0,0,2,t-1.59 Leftk cn,34.801617,135.770951
8,6.42,34801617,135770952,8,11.25,0,0,0,2,0,0,2,t-1.62 Leftk cn,34.801617,135.770952
8,6.43,34801617,135770952,8,11.25,0,0,0,2,0,0,2,t-1.62 Leftk cn,34.801617,135.770952
8,6.45,34801617,135770953,8,11.25,0,0,0,2,0,0,2,t-1.55 Leftk cn,34.801617,135.770953
8,6.46,34801617,135770954,8,11.25,0,0,0,2,0,0,2,t-1.50 Leftk cn,34.801617,135.770954
8,6.47,34801617,135770954,8,11.25,0,0,0,2,0,0,2,t-1.50 Leftk cn,34.801617,135.770954
8,6.48,34801617,135770954,8,11.25,0,0,0,2,0,0,2,t-1.50 Leftk cn,34.801617,135.770954
8,6.49,34801616,135770955,8,11.25,0,0,0,2,0,0,2,t-1.56 Leftk cn,34.801616,135.770955
8,6.5,34801616,135770955,8,11.25,0,0,0,2,0,0,2,t-1.56 Leftk cn,34.801616,135.770955
8,6.51,34801616,135770955,8,22.5,0,0,0,2,0,0,2,t-1.56 Leftk cn,34.801616,135.770955
8,6.52,34801616,135770957,8,22.5,0,0,0,2,0,0,2,t-1.72 Leftk cn,34.801616,135.770957
8,6.53,34801616,135770957,8,11.25,0,0,0,2,0,0,2,t-1.72 Leftk cn,34.801616,135.770957
8,6.54,34801616,135770957,8,11.25,0,0,0,2,0,0,2,t-1.72 Leftk cn,34.801616,135.770957
8,6.55,34801616,135770957,8,11.25,0,0,0,2,0,0,2,t-1.72 Leftk cn,34.801616,135.770957
8,6.56,34801617,135770958,8,11.25,0,0,0,2,0,0,2,t-1.56 Leftk cn,34.801617,135.770958
8,6.57,34801617,135770958,8,0,0,0,0,2,0,0,2,t-1.28 Leftk cn,34.801617,135.770958
8,6.58,34801617,135770958,8,11.25,0,0,0,2,0,0,2,t-1.28 Leftk cn,34.801617,135.770958
8,6.59,34801617,135770958,8,11.25,0,0,0,2,0,0,2,t-1.28 Leftk cn,34.801617,135.770958
8,7,34801617,135770958,8,11.25,0,0,0,2,0,0,2,t-1.28 Leftk cn,34.801617,135.770958
8,7.1,34801616,135770959,8,348.75,0,0,0,2,0,0,2,t-1.54 Leftk cn,34.801616,135.770959
8,7.2,34801616,135770959,8,11.25,0,0,0,2,0,0,2,t-1.54 Leftk cn,34.801616,135.770959
8,7.3,34801613,135770964,7,11.25,0,0,0,2,0,0,2,t-1.60 Leftk cn,34.801613,135.770964
8,7.4,34801613,135770964,7,11.25,0,0,0,2,0,0,2,t-1.60 Leftk cn,34.801613,135.770964
8,7.5,34801613,135770964,7,11.25,0,0,0,2,0,0,2,t-1.60 Leftk cn,34.801613,135.770964
8,7.6,34801613,135770964,7,11.25,0,0,0,2,0,0,2,t-1.60 Leftk cn,34.801613,135.770964
8,7.7,34801612,135770965,7,11.25,0,0,0,2,0,0,2,t-1.53 Leftk cn,34.801612,135.770965
8,7.8,34801612,135770965,7,0,0,0,0,2,0,0,2,t-1.53 Leftk cn,34.801612,135.770965
8,7.9,34801612,135770965,7,11.25,0,0,0,2,0,0,2,t-1.53 Leftk cn,34.801612,135.770965
8,7.11,34801612,135770965,7,11.25,0,0,0,2,0,0,2,t-1.53 Leftk cn,34.801612,135.770965
8,7.12,34801612,135770965,7,11.25,0,0,0,2,0,0,2,t-1.53 Leftk cn,34.801612,135.770965
8,7.13,34801612,135770965,7,11.25,0,0,0,2,0,0,2,t-1.53 Leftk cn,34.801612,135.770965
8,7.14,34801609,135770966,7,11.25,0,0,0,2,0,0,2,t-1.68 Leftk cn,34.801609,135.770966
8,7.15,34801609,135770966,7,0,0,0,0,2,0,0,2,t-1.50 Leftk cn,34.801609,135.770966
8,7.16,34801609,135770966,7,11.25,0,0,0,2,0,0,2,t-1.50 Leftk cn,34.801609,135.770966
8,7.17,34801609,135770966,7,11.25,0,0,0,2,0,0,2,t-1.50 Leftk cn,34.801609,135.770966
8,7.18,34801609,135770966,7,11.25,0,0,0,2,0,0,2,t-1.50 Leftk cn,34.801609,135.770966
8,7.19,34801609,135770966,7,22.5,0,0,0,2,0,0,2,t-1.73 Leftk cn,34.801609,135.770966
8,7.2,34801609,135770966,7,11.25,0,0,0,2,0,0,2,t-1.73 Leftk cn,34.801609,135.770966
8,7.21,34801608,135770965,7,11.25,0,0,0,2,0,0,2,t-1.60 Leftk cn,34.801608,135.770965
8,7.22,34801608,135770965,7,11.25,0,0,0,2,0,0,2,t-1.60 Leftk cn,34.801608,135.770965
8,7.23,34801608,135770965,7,11.25,0,0,0,2,0,0,2,t-1.60 Leftk cn,34.801608,135.770965
8,7.24,34801607,135770964,7,11.25,0,0,0,2,0,0,2,t-1.73 Leftk cn,34.801607,135.770964
8,7.25,34801608,135770964,7,348.75,0,0,0,2,0,0,2,t-1.57 Leftk cn,34.801608,135.770964
8,7.26,34801608,135770964,7,11.25,0,0,0,2,0,0,2,t-1.57 Leftk cn,34.801608,135.770964
8,7.27,34801608,135770965,7,0,0,0,0,2,0,0,2,t-1.65 Leftk cn,34.801608,135.770965
8,7.28,34801608,135770965,7,11.25,0,0,0,2,0,0,2,t-1.65 Leftk cn,34.801608,135.770965
8,7.29,34801608,135770965,7,11.25,0,0,0,2,0,0,2,t-1.65 Leftk cn,34.801608,135.770965
8,7.3,34801609,135770966,7,348.75,0,0,0,2,0,0,2,t-1.52 Leftk cn,34.801609,135.770966
8,7.31,34801609,135770966,7,11.25,0,0,0,2,0,0,2,t-1.52 Leftk cn,34.801609,135.770966
8,7.32,34801609,135770966,7,11.25,0,0,0,2,0,0,2,t-1.52 Leftk cn,34.801609,135.770966
8,7.33,34801609,135770966,7,11.25,0,0,0,2,0,0,2,t-1.52 Leftk cn,34.801609,135.770966
8,7.34,34801609,135770966,7,11.25,0,0,0,2,0,0,2,t-1.52 Leftk cn,34.801609,135.770966
8,7.35,34801609,135770965,7,11.25,0,0,0,2,0,0,2,t-1.69 Leftk cn,34.801609,135.770965
8,7.37,34801609,135770965,7,11.25,0,0,0,2,0,0,2,t-1.69 Leftk cn,34.801609,135.770965
8,7.38,34801610,135770965,7,11.25,0,0,0,2,0,0,2,t-1.60 Leftk cn,34.80161,135.770965
8,7.39,34801610,135770965,7,11.25,0,0,0,2,0,0,2,t-1.60 Leftk cn,34.80161,135.770965
8,7.4,34801610,135770965,7,11.25,0,0,0,2,0,0,2,t-1.60 Leftk cn,34.80161,135.770965
8,7.41,34801610,135770963,7,11.25,0,0,0,2,0,0,2,t-1.70 Leftk cn,34.80161,135.770963
8,7.42,34801610,135770963,7,11.25,0,0,0,2,0,0,2,t-1.70 Leftk cn,34.80161,135.770963
8,7.43,34801610,135770963,7,11.25,0,0,0,2,0,0,2,t-1.70 Leftk cn,34.80161,135.770963
8,7.44,34801610,135770963,7,11.25,0,0,0,2,0,0,2,t-1.70 Leftk cn,34.80161,135.770963
8,7.45,34801610,135770963,7,11.25,0,0,0,2,0,0,2,t-1.70 Leftk cn,34.80161,135.770963
8,7.46,34801610,135770963,7,11.25,0,0,0,2,0,0,2,t-1.70 Leftk cn,34.80161,135.770963
8,7.47,34801610,135770963,7,11.25,0,0,0,2,0,0,2,t-1.70 Leftk cn,34.80161,135.770963
8,7.48,34801611,135770962,7,11.25,0,0,0,2,0,0,2,t-1.61 Leftk cn,34.801611,135.770962
8,7.49,34801611,135770962,7,11.25,0,0,0,2,0,0,2,t-1.61 Leftk cn,34.801611,135.770962
8,7.5,34801611,135770962,7,11.25,0,0,0,2,0,0,2,t-1.61 Leftk cn,34.801611,135.770962
8,7.51,34801612,135770961,8,11.25,0,0,0,2,0,0,2,t-1.64 Leftk cn,34.801612,135.770961
8,7.52,34801612,135770960,8,348.75,0,0,0,2,0,0,2,t-1.53 Leftk cn,34.801612,135.77096
8,7.53,34801612,135770960,7,11.25,0,0,0,2,0,0,2,t-1.53 Leftk cn,34.801612,135.77096
8,7.54,34801612,135770960,8,11.25,0,0,0,2,0,0,2,t-1.61 Leftk cn,34.801612,135.77096
8,7.55,34801612,135770960,7,0,0,0,0,2,0,0,2,t-1.61 Leftk cn,34.801612,135.77096
8,7.56,34801612,135770959,8,348.75,0,0,0,2,0,0,2,t-1.48 Leftk cn,34.801612,135.770959
8,7.57,34801612,135770959,8,0,0,0,0,2,0,0,2,t-1.46 Leftk cn,34.801612,135.770959
8,7.58,34801612,135770959,8,0,0,0,0,2,0,0,2,t-1.46 Leftk cn,34.801612,135.770959
8,7.59,34801612,135770959,7,11.25,0,0,0,2,0,0,2,t-1.46 Leftk cn,34.801612,135.770959
8,8,34801612,135770959,7,11.25,0,0,0,2,0,0,2,t-1.46 Leftk cn,34.801612,135.770959
8,8.1,34801613,135770959,8,11.25,0,0,0,2,0,0,2,t-1.52 Leftk cn,34.801613,135.770959
8,8.3,34801613,135770959,8,0,0,0,0,2,0,0,2,t-1.48 Leftk cn,34.801613,135.770959
8,8.4,34801613,135770959,8,11.25,0,0,0,2,0,0,2,t-1.49 Leftk cn,34.801613,135.770959
8,8.5,34801613,135770959,8,0,0,0,0,2,0,0,2,t-1.49 Leftk cn,34.801613,135.770959
8,8.6,34801613,135770959,8,11.25,0,0,0,2,0,0,2,t-1.58 Leftk cn,34.801613,135.770959
8,8.7,34801613,135770959,8,11.25,0,0,0,2,0,0,2,t-1.58 Leftk cn,34.801613,135.770959
8,8.8,34801614,135770964,7,11.25,0,0,0,2,0,0,2,t-1.50 Leftk cn,34.801614,135.770964
8,8.9,34801614,135770964,7,0,0,0,0,2,0,0,2,t-1.50 Leftk cn,34.801614,135.770964
8,8.1,34801614,135770964,7,11.25,0,0,0,2,0,0,2,t-1.50 Leftk cn,34.801614,135.770964
8,8.11,34801614,135770964,7,11.25,0,0,0,2,0,0,2,t-1.50 Leftk cn,34.801614,135.770964
8,8.12,34801614,135770964,7,11.25,0,0,0,2,0,0,2,t-1.50 Leftk cn,34.801614,135.770964
8,8.13,34801614,135770964,7,11.25,0,0,0,2,0,0,2,t-1.50 Leftk cn,34.801614,135.770964
8,8.14,34801607,135770937,9,0,0,0,0,2,0,0,2,t-1.71 Leftk cn,34.801607,135.770937
8,8.15,34801607,135770937,9,0,0,0,0,2,0,0,2,t-1.71 Leftk cn,34.801607,135.770937
8,8.16,34801607,135770937,10,0,0,0,0,2,0,0,2,t-1.71 Leftk cn,34.801607,135.770937
8,8.17,34801607,135770937,10,0,0,0,0,2,0,0,2,t-1.71 Leftk cn,34.801607,135.770937
8,8.18,34801607,135770937,10,0,0,0,0,2,0,0,2,t-1.71 Leftk cn,34.801607,135.770937
8,8.19,34801607,135770937,10,0,0,0,0,2,0,0,2,t-1.71 Leftk cn,34.801607,135.770937
8,8.2,34801608,135770944,9,348.75,0,0,0,2,0,0,2,t-1.51 Leftk cn,34.801608,135.770944
8,8.21,34801609,135770944,9,0,0,0,0,2,0,0,2,t-1.48 Leftk cn,34.801609,135.770944
8,8.22,34801609,135770944,9,0,0,0,0,2,0,0,2,t-1.48 Leftk cn,34.801609,135.770944
8,8.23,34801609,135770944,9,0,0,0,0,2,0,0,2,t-1.48 Leftk cn,34.801609,135.770944
8,8.24,34801609,135770944,9,0,0,0,0,2,0,0,2,t-1.48 Leftk cn,34.801609,135.770944
8,8.25,34801609,135770944,9,0,0,0,0,2,0,0,2,t-1.48 Leftk cn,34.801609,135.770944
8,8.26,34801609,135770944,9,0,0,0,0,2,0,0,2,t-1.48 Leftk cn,34.801609,135.770944
8,8.27,34801612,135770950,8,0,0,0,0,2,0,0,2,t-1.47 Leftk cn,34.801612,135.77095
8,8.29,34801612,135770950,8,0,0,0,0,2,0,0,2,t-1.47 Leftk cn,34.801612,135.77095
8,8.3,34801611,135770951,8,11.25,0,0,0,2,0,0,2,t-1.60 Leftk cn,34.801611,135.770951
8,8.31,34801611,135770952,8,11.25,0,0,0,2,0,0,2,t-1.53 Leftk cn,34.801611,135.770952
8,8.32,34801611,135770953,8,0,0,0,0,2,0,0,2,t-1.43 Leftk cn,34.801611,135.770953
8,8.33,34801611,135770953,8,0,0,0,0,2,0,0,2,t-1.43 Leftk cn,34.801611,135.770953
8,8.34,34801611,135770953,8,0,0,0,0,2,0,0,2,t-1.43 Leftk cn,34.801611,135.770953
8,8.35,34801611,135770953,8,0,0,0,0,2,0,0,2,t-1.43 Leftk cn,34.801611,135.770953
8,8.36,34801615,135770959,8,0,0,0,0,2,0,0,2,t-1.36 Leftk cn,34.801615,135.770959
8,8.37,34801615,135770961,8,0,0,0,0,2,0,0,2,t-1.37 Leftk cn,34.801615,135.770961
8,8.38,34801615,135770961,7,0,0,0,0,2,0,0,2,t-1.37 Leftk cn,34.801615,135.770961
8,8.39,34801615,135770961,7,0,0,0,0,2,0,0,2,t-1.37 Leftk cn,34.801615,135.770961
8,8.4,34801615,135770961,7,0,0,0,0,2,0,0,2,t-1.37 Leftk cn,34.801615,135.770961
8,8.41,34801615,135770961,8,348.75,0,0,0,2,0,0,2,t-1.42 Leftk cn,34.801615,135.770961
8,8.42,34801615,135770961,7,11.25,0,0,0,2,0,0,2,t-1.42 Leftk cn,34.801615,135.770961
8,8.43,34801616,135770960,8,0,0,0,0,2,0,0,2,t-1.51 Leftk cn,34.801616,135.77096
8,8.44,34801616,135770960,8,11.25,0,0,0,2,0,0,2,t-1.51 Leftk cn,34.801616,135.77096
8,8.45,34801615,135770962,8,348.75,0,0,0,2,0,0,2,t-1.48 Leftk cn,34.801615,135.770962
8,8.46,34801615,135770962,7,11.25,0,0,0,2,0,0,2,t-1.48 Leftk cn,34.801615,135.770962
8,8.47,34801615,135770963,7,11.25,0,0,0,2,0,0,2,t-1.53 Leftk cn,34.801615,135.770963
8,8.48,34801615,135770963,7,11.25,0,0,0,2,0,0,2,t-1.53 Leftk cn,34.801615,135.770963
8,8.49,34801615,135770963,7,0,0,0,0,2,0,0,2,t-1.53 Leftk cn,34.801615,135.770963
8,8.5,34801615,135770963,7,0,0,0,0,2,0,0,2,t-1.53 Leftk cn,34.801615,135.770963
8,8.51,34801612,135770966,7,0,0,0,0,2,0,0,2,t-1.47 Leftk cn,34.801612,135.770966
8,8.52,34801612,135770967,7,0,0,0,0,2,0,0,2,t-1.43 Leftk cn,34.801612,135.770967
8,8.53,34801612,135770967,7,0,0,0,0,2,0,0,2,t-1.43 Leftk cn,34.801612,135.770967
8,8.55,34801612,135770967,7,0,0,0,0,2,0,0,2,t-1.43 Leftk cn,34.801612,135.770967
8,8.56,34801613,135770969,7,0,0,0,0,2,0,0,2,t-1.43 Leftk cn,34.801613,135.770969
8,8.57,34801613,135770969,7,0,0,0,0,2,0,0,2,t-1.43 Leftk cn,34.801613,135.770969
8,8.58,34801614,135770969,7,11.25,0,0,0,2,0,0,2,t-1.52 Leftk cn,34.801614,135.770969
8,8.59,34801614,135770969,7,0,0,0,0,2,0,0,2,t-1.52 Leftk cn,34.801614,135.770969
8,9,34801614,135770969,7,0,0,0,0,2,0,0,2,t-1.52 Leftk cn,34.801614,135.770969
8,9.1,34801614,135770969,7,0,0,0,0,2,0,0,2,t-1.52 Leftk cn,34.801614,135.770969
8,9.2,34801615,135770971,7,0,0,0,0,2,0,0,2,t-1.39 Leftk cn,34.801615,135.770971
8,9.3,34801615,135770971,7,0,0,0,0,2,0,0,2,t-1.39 Leftk cn,34.801615,135.770971
8,9.4,34801614,135770972,7,0,0,0,0,2,0,0,2,t-1.44 Leftk cn,34.801614,135.770972
8,9.5,34801614,135770972,7,0,0,0,0,2,0,0,2,t-1.44 Leftk cn,34.801614,135.770972
8,9.6,34801614,135770972,6,0,0,0,0,2,0,0,2,t-1.44 Leftk cn,34.801614,135.770972
8,9.7,34801614,135770972,6,0,0,0,0,2,0,0,2,t-1.44 Leftk cn,34.801614,135.770972
8,9.8,34801615,135770973,7,348.75,0,0,0,2,0,0,2,t-1.32 Leftk cn,34.801615,135.770973
8,9.9,34801615,135770973,7,0,0,0,0,2,0,0,2,t-1.33 Leftk cn,34.801615,135.770973
8,9.1,34801614,135770973,7,348.75,0,0,0,2,0,0,2,t-1.33 Leftk cn,34.801614,135.770973
8,9.11,34801614,135770973,6,0,0,0,0,2,0,0,2,t-1.33 Leftk cn,34.801614,135.770973
8,9.12,34801614,135770973,6,11.25,0,0,0,2,0,0,2,t-1.33 Leftk cn,34.801614,135.770973
8,9.13,34801614,135770973,7,0,0,0,0,2,0,0,2,t-1.47 Leftk cn,34.801614,135.770973
8,9.14,34801614,135770973,6,0,0,0,0,2,0,0,2,t-1.47 Leftk cn,34.801614,135.770973
8,9.15,34801614,135770973,6,0,0,0,0,2,0,0,2,t-1.47 Leftk cn,34.801614,135.770973
8,9.16,34801614,135770973,6,0,0,0,0,2,0,0,2,t-1.47 Leftk cn,34.801614,135.770973
8,9.17,34801614,135770973,6,0,0,0,0,2,0,0,2,t-1.47 Leftk cn,34.801614,135.770973
8,9.18,34801614,135770973,6,0,0,0,0,2,0,0,2,t-1.47 Leftk cn,34.801614,135.770973
8,9.19,34801614,135770973,6,0,0,0,0,2,0,0,2,t-1.47 Leftk cn,34.801614,135.770973
8,9.21,34801612,135770974,6,0,0,0,0,2,0,0,2,t-1.42 Leftk cn,34.801612,135.770974
8,9.22,34801612,135770974,6,0,0,0,0,2,0,0,2,t-1.42 Leftk cn,34.801612,135.770974
8,9.23,34801612,135770974,6,11.25,0,0,0,2,0,0,2,t-1.42 Leftk cn,34.801612,135.770974
8,9.24,34801612,135770974,6,11.25,0,0,0,2,0,0,2,t-1.42 Leftk cn,34.801612,135.770974
8,9.25,34801612,135770972,7,11.25,0,0,0,2,0,0,2,t-1.58 Leftk cn,34.801612,135.770972
8,9.26,34801612,135770972,7,0,0,0,0,2,0,0,2,t-1.46 Leftk cn,34.801612,135.770972
8,9.27,34801612,135770972,6,0,0,0,0,2,0,0,2,t-1.46 Leftk cn,34.801612,135.770972
8,9.28,34801612,135770972,6,11.25,0,0,0,2,0,0,2,t-1.46 Leftk cn,34.801612,135.770972
8,9.29,34801612,135770972,6,11.25,0,0,0,2,0,0,2,t-1.46 Leftk cn,34.801612,135.770972
8,9.3,34801612,135770972,6,11.25,0,0,0,2,0,0,2,t-1.46 Leftk cn,34.801612,135.770972
8,9.31,34801612,135770972,6,11.25,0,0,0,2,0,0,2,t-1.46 Leftk cn,34.801612,135.770972
8,9.32,34801612,135770972,6,11.25,0,0,0,2,0,0,2,t-1.46 Leftk cn,34.801612,135.770972
8,9.33,34801611,135770970,7,0,0,0,0,2,0,0,2,t-1.58 Leftk cn,34.801611,135.77097
8,9.34,34801611,135770970,7,0,0,0,0,2,0,0,2,t-1.58 Leftk cn,34.801611,135.77097
8,9.35,34801611,135770970,7,348.75,0,0,0,2,0,0,2,t-1.43 Leftk cn,34.801611,135.77097
8,9.36,34801611,135770970,7,0,0,0,0,2,0,0,2,t-1.39 Leftk cn,34.801611,135.77097
8,9.37,34801610,135770969,7,348.75,0,0,0,2,0,0,2,t-1.39 Leftk cn,34.80161,135.770969
8,9.38,34801610,135770969,7,0,0,0,0,2,0,0,2,t-1.39 Leftk cn,34.80161,135.770969
8,9.39,34801610,135770969,7,0,0,0,0,2,0,0,2,t-1.49 Leftk cn,34.80161,135.770969
8,9.4,34801610,135770969,7,0,0,0,0,2,0,0,2,t-1.49 Leftk cn,34.80161,135.770969
8,9.41,34801610,135770969,7,0,0,0,0,2,0,0,2,t-1.49 Leftk cn,34.80161,135.770969
8,9.42,34801610,135770969,7,0,0,0,0,2,0,0,2,t-1.49 Leftk cn,34.80161,135.770969
8,9.43,34801610,135770969,6,0,0,0,0,2,0,0,2,t-1.49 Leftk cn,34.80161,135.770969
8,9.44,34801610,135770968,7,0,0,0,0,2,0,0,2,t-1.45 Leftk cn,34.80161,135.770968
8,9.45,34801609,135770968,7,0,0,0,0,2,0,0,2,t-1.41 Leftk cn,34.801609,135.770968
8,9.47,34801609,135770968,7,0,0,0,0,2,0,0,2,t-1.42 Leftk cn,34.801609,135.770968
8,9.48,34801609,135770968,7,0,0,0,0,2,0,0,2,t-1.42 Leftk cn,34.801609,135.770968
8,9.49,34801609,135770968,7,11.25,0,0,0,2,0,0,2,t-1.54 Leftk cn,34.801609,135.770968
8,9.5,34801609,135770968,7,0,0,0,0,2,0,0,2,t-1.54 Leftk cn,34.801609,135.770968
8,9.51,34801609,135770968,7,0,0,0,0,2,0,0,2,t-1.54 Leftk cn,34.801609,135.770968
8,9.52,34801609,135770968,7,0,0,0,0,2,0,0,2,t-1.54 Leftk cn,34.801609,135.770968
8,9.53,34801609,135770968,7,0,0,0,0,2,0,0,2,t-1.39 Leftk cn,34.801609,135.770968
8,9.54,34801609,135770968,7,0,0,0,0,2,0,0,2,t-1.39 Leftk cn,34.801609,135.770968
8,9.55,34801609,135770968,7,0,0,0,0,2,0,0,2,t-1.39 Leftk cn,34.801609,135.770968
8,9.56,34801608,135770968,7,11.25,0,0,0,2,0,0,2,t-1.55 Leftk cn,34.801608,135.770968
8,9.57,34801608,135770968,7,0,0,0,0,2,0,0,2,t-1.55 Leftk cn,34.801608,135.770968
8,9.58,34801608,135770968,7,348.75,0,0,0,2,0,0,2,t-1.44 Leftk cn,34.801608,135.770968
8,9.59,34801608,135770968,7,0,0,0,0,2,0,0,2,t-1.40 Leftk cn,34.801608,135.770968
8,10,34801608,135770968,7,0,0,0,0,2,0,0,2,t-1.40 Leftk cn,34.801608,135.770968
8,10.1,34801608,135770968,7,348.75,0,0,0,2,0,0,2,t-1.43 Leftk cn,34.801608,135.770968
8,10.2,34801608,135770968,7,0,0,0,0,2,0,0,2,t-1.43 Leftk cn,34.801608,135.770968
8,10.3,34801608,135770968,7,11.25,0,0,0,2,0,0,2,t-1.43 Leftk cn,34.801608,135.770968
8,10.4,34801608,135770967,7,0,0,0,0,2,0,0,2,t-1.60 Leftk cn,34.801608,135.770967
8,10.5,34801608,135770967,7,348.75,0,0,0,2,0,0,2,t-1.48 Leftk cn,34.801608,135.770967
8,10.6,34801608,135770967,7,0,0,0,0,2,0,0,2,t-1.48 Leftk cn,34.801608,135.770967
8,10.7,34801609,135770966,7,11.25,0,0,0,2,0,0,2,t-1.53 Leftk cn,34.801609,135.770966
8,10.8,34801609,135770966,7,0,0,0,0,2,0,0,2,t-1.46 Leftk cn,34.801609,135.770966
8,10.9,34801609,135770965,7,0,0,0,0,2,0,0,2,t-1.40 Leftk cn,34.801609,135.770965
8,10.1,34801609,135770965,7,0,0,0,0,2,0,0,2,t-1.40 Leftk cn,34.801609,135.770965
8,10.11,34801609,135770965,7,0,0,0,0,2,0,0,2,t-1.40 Leftk cn,34.801609,135.770965
8,10.13,34801609,135770965,7,0,0,0,0,2,0,0,2,t-1.40 Leftk cn,34.801609,135.770965
8,10.14,34801609,135770965,7,0,0,0,0,2,0,0,2,t-1.40 Leftk cn,34.801609,135.770965
8,10.15,34801609,135770964,7,0,0,0,0,2,0,0,2,t-1.37 Leftk cn,34.801609,135.770964
8,10.16,34801609,135770964,7,0,0,0,0,2,0,0,2,t-1.33 Leftk cn,34.801609,135.770964
8,10.17,34801609,135770964,7,0,0,0,0,2,0,0,2,t-1.33 Leftk cn,34.801609,135.770964
8,10.18,34801609,135770964,7,0,0,0,0,2,0,0,2,t-1.33 Leftk cn,34.801609,135.770964
8,10.19,34801608,135770964,7,0,0,0,0,2,0,0,2,t-1.42 Leftk cn,34.801608,135.770964
8,10.2,34801608,135770964,7,0,0,0,0,2,0,0,2,t-1.38 Leftk cn,34.801608,135.770964
8,10.21,34801608,135770964,7,0,0,0,0,2,0,0,2,t-1.40 Leftk cn,34.801608,135.770964
8,10.22,34801608,135770964,7,0,0,0,0,2,0,0,2,t-1.40 Leftk cn,34.801608,135.770964
8,10.23,34801608,135770964,7,0,0,0,0,2,0,0,2,t-1.40 Leftk cn,34.801608,135.770964
8,10.24,34801608,135770964,7,11.25,0,0,0,2,0,0,2,t-1.54 Leftk cn,34.801608,135.770964
8,10.25,34801608,135770964,7,0,0,0,0,2,0,0,2,t-1.54 Leftk cn,34.801608,135.770964
8,10.26,34801608,135770965,7,348.75,0,0,0,2,0,0,2,t-1.43 Leftk cn,34.801608,135.770965
8,10.27,34801608,135770965,7,0,0,0,0,2,0,0,2,t-1.43 Leftk cn,34.801608,135.770965
8,10.28,34801608,135770965,7,0,0,0,0,2,0,0,2,t-1.43 Leftk cn,34.801608,135.770965
8,10.29,34801608,135770965,7,0,0,0,0,2,0,0,2,t-1.43 Leftk cn,34.801608,135.770965
8,10.3,34801608,135770965,7,0,0,0,0,2,0,0,2,t-1.43 Leftk cn,34.801608,135.770965
8,10.31,34801610,135770965,7,0,0,0,0,2,0,0,2,t-1.51 Leftk cn,34.80161,135.770965
8,10.32,34801610,135770965,7,0,0,0,0,2,0,0,2,t-1.51 Leftk cn,34.80161,135.770965
8,10.33,34801610,135770965,7,0,0,0,0,2,0,0,2,t-1.51 Leftk cn,34.80161,135.770965
8,10.34,34801611,135770965,7,348.75,0,0,0,2,0,0,2,t-1.39 Leftk cn,34.801611,135.770965
8,10.35,34801611,135770965,7,0,0,0,0,2,0,0,2,t-1.39 Leftk cn,34.801611,135.770965
8,10.36,34801611,135770965,7,11.25,0,0,0,2,0,0,2,t-1.52 Leftk cn,34.801611,135.770965
8,10.37,34801611,135770965,7,0,0,0,0,2,0,0,2,t-1.52 Leftk cn,34.801611,135.770965
8,10.39,34801611,135770965,7,0,0,0,0,2,0,0,2,t-1.52 Leftk cn,34.801611,135.770965
8,10.4,34801611,135770965,7,0,0,0,0,2,0,0,2,t-1.52 Leftk cn,34.801611,135.770965
8,10.41,34801611,135770965,7,0,0,0,0,2,0,0,2,t-1.52 Leftk cn,34.801611,135.770965
8,10.42,34801612,135770965,7,0,0,0,0,2,0,0,2,t-1.40 Leftk cn,34.801612,135.770965
8,10.43,34801612,135770965,7,0,0,0,0,2,0,0,2,t-1.40 Leftk cn,34.801612,135.770965
8,10.44,34801612,135770965,7,0,0,0,0,2,0,0,2,t-1.40 Leftk cn,34.801612,135.770965
8,10.45,34801612,135770965,7,11.25,0,0,0,2,0,0,2,t-1.50 Leftk cn,34.801612,135.770965
8,10.46,34801612,135770965,7,0,0,0,0,2,0,0,2,t-1.50 Leftk cn,34.801612,135.770965
8,10.47,34801612,135770965,7,0,0,0,0,2,0,0,2,t-1.50 Leftk cn,34.801612,135.770965
8,10.48,34801612,135770965,7,0,0,0,0,2,0,0,2,t-1.38 Leftk cn,34.801612,135.770965
8,10.49,34801612,135770965,7,0,0,0,0,2,0,0,2,t-1.38 Leftk cn,34.801612,135.770965
8,10.5,34801624,135770977,7,0,0,0,0,2,0,0,2,t-1.26 Leftk cn,34.801624,135.770977
8,10.51,34801624,135770977,6,0,0,0,0,2,0,0,2,t-1.26 Leftk cn,34.801624,135.770977
8,10.52,34801624,135770977,6,0,0,0,0,2,0,0,2,t-1.26 Leftk cn,34.801624,135.770977
8,10.53,34801630,135770985,6,348.75,0,0,0,2,0,0,2,t-1.09 Leftk cn,34.80163,135.770985
8,10.54,34801630,135770985,6,0,0,0,0,2,0,0,2,t-1.09 Leftk cn,34.80163,135.770985
8,10.55,34801630,135770985,6,0,0,0,0,2,0,0,2,t-1.09 Leftk cn,34.80163,135.770985
8,10.56,34801630,135770985,6,0,0,0,0,2,0,0,2,t-1.09 Leftk cn,34.80163,135.770985
8,10.57,34801630,135770985,5,0,0,0,0,2,0,0,2,t-1.09 Leftk cn,34.80163,135.770985
8,10.58,34801630,135770985,5,11.25,0,0,0,2,0,0,2,t-1.09 Leftk cn,34.80163,135.770985
8,10.59,34801628,135770981,6,0,0,0,0,2,0,0,2,t-1.24 Leftk cn,34.801628,135.770981
8,11,34801628,135770981,6,0,0,0,0,2,0,0,2,t-1.24 Leftk cn,34.801628,135.770981
8,11.1,34801628,135770981,6,0,0,0,0,2,0,0,2,t-1.24 Leftk cn,34.801628,135.770981
8,11.2,34801628,135770981,6,0,0,0,0,2,0,0,2,t-1.24 Leftk cn,34.801628,135.770981
8,11.3,34801626,135770980,6,0,0,0,0,2,0,0,2,t-1.16 Leftk cn,34.801626,135.77098
8,11.5,34801626,135770979,6,0,0,0,0,2,0,0,2,t-1.13 Leftk cn,34.801626,135.770979
8,11.6,34801626,135770979,6,0,0,0,0,2,0,0,2,t-1.13 Leftk cn,34.801626,135.770979
8,11.7,34801626,135770979,6,0,0,0,0,2,0,0,2,t-1.13 Leftk cn,34.801626,135.770979
8,11.8,34801626,135770979,6,0,0,0,0,2,0,0,2,t-1.13 Leftk cn,34.801626,135.770979
8,11.9,34801626,135770979,6,0,0,0,0,2,0,0,2,t-1.13 Leftk cn,34.801626,135.770979
8,11.1,34801625,135770978,7,0,0,0,0,2,0,0,2,t-1.19 Leftk cn,34.801625,135.770978
8,11.11,34801625,135770977,7,0,0,0,0,2,0,0,2,t-1.13 Leftk cn,34.801625,135.770977
8,11.12,34801625,135770977,6,0,0,0,0,2,0,0,2,t-1.13 Leftk cn,34.801625,135.770977
8,11.13,34801625,135770977,6,0,0,0,0,2,0,0,2,t-1.13 Leftk cn,34.801625,135.770977
8,11.14,34801625,135770977,6,0,0,0,0,2,0,0,2,t-1.13 Leftk cn,34.801625,135.770977
8,11.15,34801625,135770977,6,0,0,0,0,2,0,0,2,t-1.13 Leftk cn,34.801625,135.770977
8,11.16,34801625,135770977,6,0,0,0,0,2,0,0,2,t-1.13 Leftk cn,34.801625,135.770977
8,11.17,34801625,135770977,6,0,0,0,0,2,0,0,2,t-1.13 Leftk cn,34.801625,135.770977
8,11.18,34801625,135770977,6,0,0,0,0,2,0,0,2,t-1.13 Leftk cn,34.801625,135.770977
8,11.19,34801625,135770977,6,0,0,0,0,2,0,0,2,t-1.13 Leftk cn,34.801625,135.770977
8,11.2,34801625,135770977,6,0,0,0,0,2,0,0,2,t-1.13 Leftk cn,34.801625,135.770977
8,11.21,34801623,135770973,7,348.75,0,0,0,2,0,0,2,t-1.18 Leftk cn,34.801623,135.770973
8,11.22,34801622,135770972,7,0,0,0,0,2,0,0,2,t-1.17 Leftk cn,34.801622,135.770972
8,11.23,34801622,135770972,7,0,0,0,0,2,0,0,2,t-1.17 Leftk cn,34.801622,135.770972
8,11.24,34801622,135770971,7,348.75,0,0,0,2,0,0,2,t-1.19 Leftk cn,34.801622,135.770971
8,11.25,34801622,135770971,7,0,0,0,0,2,0,0,2,t-1.19 Leftk cn,34.801622,135.770971
8,11.26,34801621,135770970,7,0,0,0,0,2,0,0,2,t-1.32 Leftk cn,34.801621,135.77097
8,11.27,34801621,135770970,7,0,0,0,0,2,0,0,2,t-1.32 Leftk cn,34.801621,135.77097
8,11.28,34801621,135770970,7,0,0,0,0,2,0,0,2,t-1.32 Leftk cn,34.801621,135.77097
8,11.29,34801621,135770970,7,0,0,0,0,2,0,0,2,t-1.32 Leftk cn,34.801621,135.77097
8,11.31,34801620,135770969,7,0,0,0,0,2,0,0,2,t-1.25 Leftk cn,34.80162,135.770969
8,11.32,34801620,135770969,7,0,0,0,0,2,0,0,2,t-1.21 Leftk cn,34.80162,135.770969
8,11.33,34801620,135770969,7,0,0,0,0,2,0,0,2,t-1.26 Leftk cn,34.80162,135.770969
8,11.34,34801620,135770969,7,0,0,0,0,2,0,0,2,t-1.26 Leftk cn,34.80162,135.770969
8,11.35,34801620,135770969,7,0,0,0,0,2,0,0,2,t-1.26 Leftk cn,34.80162,135.770969
8,11.36,34801620,135770969,7,0,0,0,0,2,0,0,2,t-1.26 Leftk cn,34.80162,135.770969
8,11.37,34801620,135770968,7,0,0,0,0,2,0,0,2,t-1.38 Leftk cn,34.80162,135.770968
8,11.38,34801620,135770968,7,0,0,0,0,2,0,0,2,t-1.38 Leftk cn,34.80162,135.770968
8,11.39,34801620,135770968,7,0,0,0,0,2,0,0,2,t-1.38 Leftk cn,34.80162,135.770968
8,11.4,34801620,135770968,7,0,0,0,0,2,0,0,2,t-1.38 Leftk cn,34.80162,135.770968
8,11.41,34801620,135770968,7,0,0,0,0,2,0,0,2,t-1.38 Leftk cn,34.80162,135.770968
8,11.42,34801620,135770968,7,0,0,0,0,2,0,0,2,t-1.38 Leftk cn,34.80162,135.770968
8,11.43,34801619,135770968,7,348.75,0,0,0,2,0,0,2,t-1.28 Leftk cn,34.801619,135.770968
8,11.44,34801619,135770968,7,0,0,0,0,2,0,0,2,t-1.28 Leftk cn,34.801619,135.770968
8,11.45,34801619,135770968,7,0,0,0,0,2,0,0,2,t-1.28 Leftk cn,34.801619,135.770968
8,11.46,34801619,135770968,7,0,0,0,0,2,0,0,2,t-1.28 Leftk cn,34.801619,135.770968
8,11.47,34801618,135770968,7,0,0,0,0,2,0,0,2,t-1.33 Leftk cn,34.801618,135.770968
8,11.48,34801618,135770968,7,348.75,0,0,0,2,0,0,2,t-1.30 Leftk cn,34.801618,135.770968
8,11.49,34801618,135770968,7,0,0,0,0,2,0,0,2,t-1.30 Leftk cn,34.801618,135.770968
8,11.5,34801618,135770968,7,0,0,0,0,2,0,0,2,t-1.30 Leftk cn,34.801618,135.770968
8,11.51,34801618,135770968,7,0,0,0,0,2,0,0,2,t-1.30 Leftk cn,34.801618,135.770968
8,11.52,34801618,135770968,7,0,0,0,0,2,0,0,2,t-1.30 Leftk cn,34.801618,135.770968
8,11.53,34801618,135770968,7,0,0,0,0,2,0,0,2,t-1.30 Leftk cn,34.801618,135.770968
8,11.54,34801618,135770968,7,0,0,0,0,2,0,0,2,t-1.30 Leftk cn,34.801618,135.770968
8,11.55,34801618,135770968,7,0,0,0,0,2,0,0,2,t-1.40 Leftk cn,34.801618,135.770968
8,11.57,34801618,135770968,7,0,0,0,0,2,0,0,2,t-1.40 Leftk cn,34.801618,135.770968
8,11.58,34801618,135770968,7,0,0,0,0,2,0,0,2,t-1.28 Leftk cn,34.801618,135.770968
8,11.59,34801618,135770968,7,0,0,0,0,2,0,0,2,t-1.23 Leftk cn,34.801618,135.770968
8,12,34801618,135770968,7,0,0,0,0,2,0,0,2,t-1.23 Leftk cn,34.801618,135.770968
8,12.1,34801618,135770968,7,0,0,0,0,2,0,0,2,t-1.23 Leftk cn,34.801618,135.770968
8,12.2,34801618,135770968,7,0,0,0,0,2,0,0,2,t-1.25 Leftk cn,34.801618,135.770968
8,12.3,34801618,135770968,7,348.75,0,0,0,2,0,0,2,t-1.25 Leftk cn,34.801618,135.770968
8,12.4,34801618,135770968,7,0,0,0,0,2,0,0,2,t-1.32 Leftk cn,34.801618,135.770968
8,12.5,34801618,135770968,7,0,0,0,0,2,0,0,2,t-1.32 Leftk cn,34.801618,135.770968
8,12.6,34801618,135770968,7,0,0,0,0,2,0,0,2,t-1.32 Leftk cn,34.801618,135.770968
8,12.7,34801618,135770968,7,348.75,0,0,0,2,0,0,2,t-1.25 Leftk cn,34.801618,135.770968
8,12.8,34801618,135770968,7,0,0,0,0,2,0,0,2,t-1.25 Leftk cn,34.801618,135.770968
8,12.9,34801618,135770968,7,0,0,0,0,2,0,0,2,t-1.25 Leftk cn,34.801618,135.770968
8,12.1,34801617,135770968,7,0,0,0,0,2,0,0,2,t-1.34 Leftk cn,34.801617,135.770968
8,12.11,34801617,135770968,7,0,0,0,0,2,0,0,2,t-1.34 Leftk cn,34.801617,135.770968
8,12.12,34801617,135770968,7,0,0,0,0,2,0,0,2,t-1.34 Leftk cn,34.801617,135.770968
8,12.13,34801617,135770968,7,0,0,0,0,2,0,0,2,t-1.34 Leftk cn,34.801617,135.770968
8,12.14,34801617,135770968,7,0,0,0,0,2,0,0,2,t-1.34 Leftk cn,34.801617,135.770968
8,12.15,34801617,135770968,7,0,0,0,0,2,0,0,2,t-1.34 Leftk cn,34.801617,135.770968
8,12.16,34801617,135770968,7,0,0,0,0,2,0,0,2,t-1.34 Leftk cn,34.801617,135.770968
8,12.17,34801617,135770968,7,0,0,0,0,2,0,0,2,t-1.34 Leftk cn,34.801617,135.770968
8,12.18,34801617,135770968,7,0,0,0,0,2,0,0,2,t-1.34 Leftk cn,34.801617,135.770968
8,12.19,34801617,135770968,7,0,0,0,0,2,0,0,2,t-1.34 Leftk cn,34.801617,135.770968
8,12.2,34801617,135770968,7,0,0,0,0,2,0,0,2,t-1.27 Leftk cn,34.801617,135.770968
8,12.21,34801617,135770968,7,0,0,0,0,2,0,0,2,t-1.24 Leftk cn,34.801617,135.770968
8,12.23,34801617,135770968,7,0,0,0,0,2,0,0,2,t-1.24 Leftk cn,34.801617,135.770968
8,12.24,34801617,135770968,7,0,0,0,0,2,0,0,2,t-1.24 Leftk cn,34.801617,135.770968
8,12.25,34801617,135770968,7,0,0,0,0,2,0,0,2,t-1.23 Leftk cn,34.801617,135.770968
8,12.26,34801617,135770968,7,348.75,0,0,0,2,0,0,2,t-1.23 Leftk cn,34.801617,135.770968
8,12.27,34801617,135770968,7,0,0,0,0,2,0,0,2,t-1.34 Leftk cn,34.801617,135.770968
8,12.28,34801617,135770968,7,0,0,0,0,2,0,0,2,t-1.34 Leftk cn,34.801617,135.770968
8,12.29,34801617,135770968,7,348.75,0,0,0,2,0,0,2,t-1.34 Leftk cn,34.801617,135.770968
8,12.3,34801617,135770968,7,348.75,0,0,0,2,0,0,2,t-1.34 Leftk cn,34.801617,135.770968
8,12.31,34801616,135770967,7,348.75,0,0,0,2,0,0,2,t-1.21 Leftk cn,34.801616,135.770967
8,12.32,34801616,135770967,7,348.75,0,0,0,2,0,0,2,t-1.04 Leftk cn,34.801616,135.770967
8,12.33,34801616,135770967,7,0,0,0,0,2,0,0,2,t-1.04 Leftk cn,34.801616,135.770967
8,12.34,34801616,135770967,7,0,0,0,0,2,0,0,2,t-1.04 Leftk cn,34.801616,135.770967
8,12.35,34801616,135770967,7,0,0,0,0,2,0,0,2,t-1.04 Leftk cn,34.801616,135.770967
8,12.36,34801615,135770967,7,348.75,0,0,0,2,0,0,2,t-1.26 Leftk cn,34.801615,135.770967
8,12.37,34801615,135770967,7,0,0,0,0,2,0,0,2,t-1.26 Leftk cn,34.801615,135.770967
8,12.38,34801615,135770967,7,0,0,0,0,2,0,0,2,t-1.31 Leftk cn,34.801615,135.770967
8,12.39,34801615,135770967,7,0,0,0,0,2,0,0,2,t-1.31 Leftk cn,34.801615,135.770967
8,12.4,34801615,135770967,7,337.5,0,0,0,2,0,0,2,t-1.29 Leftk cn,34.801615,135.770967
8,12.41,34801615,135770967,7,0,0,0,0,2,0,0,2,t-1.29 Leftk cn,34.801615,135.770967
8,12.42,34801615,135770967,7,0,0,0,0,2,0,0,2,t-1.29 Leftk cn,34.801615,135.770967
8,12.43,34801615,135770967,7,0,0,0,0,2,0,0,2,t-1.29 Leftk cn,34.801615,135.770967
