code,min.sec,lat,lon,dist,yaw,roll,pitch,yaw_to_goal,motor_left,motor_right,stack,seq,data,latitude,longitude
1,0.4,0,0,244,90,0,0,0,0,0,0,1,154.2 altNRdy,0,0
1,0.5,0,0,15,78.75,0,0,0,0,0,0,1,154.2 altNRdy,0,0
1,0.6,0,0,3,78.75,0,0,0,0,0,0,1,154.3 altNRdy,0,0
1,0.7,0,0,21,78.75,0,0,0,0,0,0,1,154.3 altNRdy,0,0
1,0.8,34801589,135771036,1,78.75,0,0,0,0,0,0,1,154.3 altNRdy,34.801589,135.771036
1,0.9,34801588,135771035,1,78.75,0,0,0,0,0,0,1,154.3 altNRdy,34.801588,135.771035
1,0.1,34801588,135771034,1,146.25,0,0,0,0,0,0,1,154.3 altNRdy,34.801588,135.771034
1,0.11,34801588,135771034,1,157.5,11.2,0,0,0,0,0,1,154.3 altNRdy,34.801588,135.771034
1,0.12,34801588,135771034,1,157.5,0,0,0,0,0,0,1,154.3 altNRdy,34.801588,135.771034
1,0.13,34801587,135771029,2,168.75,0,0,0,0,0,0,1,154.3 altNRdy,34.801587,135.771029
1,0.15,34801587,135771029,2,146.25,0,0,0,0,0,0,1,154.3 altNRdy,34.801587,135.771029
1,0.16,34801587,135771029,1,135,0,0,0,0,0,0,1,154.3 altNRdy,34.801587,135.771029
1,0.17,34801586,135771029,2,112.5,0,0,0,0,0,0,1,154.3 altNRdy,34.801586,135.771029
1,0.18,34801586,135771029,2,112.5,0,0,0,0,0,0,1,154.3 altNRdy,34.801586,135.771029
1,0.19,34801586,135771029,1,112.5,0,0,0,0,0,0,1,154.3 altNRdy,34.801586,135.771029
1,0.2,34801587,135771028,2,112.5,0,0,0,0,0,0,1,154.3 altNRdy,34.801587,135.771028
1,0.21,34801587,135771027,2,112.5,0,0,0,0,0,0,1,154.3 altNRdy,34.801587,135.771027
1,0.22,34801586,135771027,2,112.5,0,0,0,0,0,0,1,154.3 altNRdy,34.801586,135.771027
1,0.23,34801586,135771026,2,112.5,0,0,0,0,0,0,1,154.3 altNRdy,34.801586,135.771026
1,0.24,34801586,135771026,2,112.5,0,0,0,0,0,0,1,154.3 altNRdy,34.801586,135.771026
1,0.25,34801585,135771026,2,112.5,0,0,0,0,0,0,1,154.3 altNRdy,34.801585,135.771026
1,0.26,34801585,135771025,2,112.5,0,0,0,0,0,0,1,154.3 altNRdy,34.801585,135.771025
1,0.27,34801585,135771025,2,112.5,0,0,0,0,0,0,1,154.3 altNRdy,34.801585,135.771025
1,0.28,34801585,135771025,2,112.5,0,0,0,0,0,0,1,154.3 altNRdy,34.801585,135.771025
1,0.29,34801584,135771024,2,112.5,0,0,0,0,0,0,1,154.3 altNRdy,34.801584,135.771024
1,0.3,34801584,135771024,2,112.5,0,0,0,0,0,0,1,154.3 altNRdy,34.801584,135.771024
1,0.31,34801584,135771024,2,112.5,0,0,0,0,0,0,1,154.3 altNRdy,34.801584,135.771024
1,0.32,34801584,135771024,2,112.5,0,0,0,0,0,0,1,154.3 altNRdy,34.801584,135.771024
1,0.33,34801584,135771024,2,112.5,0,0,0,0,0,0,1,154.3 altNRdy,34.801584,135.771024
1,0.34,34801583,135771023,2,112.5,0,0,0,0,0,0,1,154.3 altNRdy,34.801583,135.771023
1,0.35,34801583,135771022,2,112.5,0,0,0,0,0,0,1,154.3 altNRdy,34.801583,135.771022
1,0.36,34801582,135771022,2,112.5,0,0,0,0,0,0,1,154.3 altNRdy,34.801582,135.771022
1,0.37,34801582,135771022,2,112.5,0,0,0,0,0,0,1,154.3 altNRdy,34.801582,135.771022
1,0.38,34801582,135771022,2,112.5,0,0,0,0,0,0,1,154.3 altNRdy,34.801582,135.771022
1,0.39,34801582,135771021,2,112.5,0,0,0,0,0,0,1,154.3 altNRdy,34.801582,135.771021
1,0.41,34801582,135771021,2,112.5,0,0,0,0,0,0,1,154.3 altNRdy,34.801582,135.771021
1,0.42,34801582,135771021,2,112.5,0,0,0,0,0,0,1,154.3 altNRdy,34.801582,135.771021
1,0.43,34801582,135771020,3,112.5,0,0,0,0,0,0,1,154.3 altNRdy,34.801582,135.77102
1,0.44,34801582,135771020,3,112.5,0,0,0,0,0,0,1,154.3 altNRdy,34.801582,135.77102
1,0.45,34801582,135771020,2,112.5,0,0,0,0,0,0,1,154.3 altNRdy,34.801582,135.77102
1,0.46,34801582,135771020,2,112.5,0,0,0,0,0,0,1,154.3 altNRdy,34.801582,135.77102
1,0.47,34801583,135771020,3,112.5,0,0,0,0,0,0,1,154.3 altNRdy,34.801583,135.77102
1,0.48,34801583,135771020,3,112.5,0,0,0,0,0,0,1,154.3 altNRdy,34.801583,135.77102
1,0.49,34801583,135771021,2,112.5,0,0,0,0,0,0,1,154.3 altNRdy,34.801583,135.771021
1,0.5,34801584,135771021,2,112.5,0,0,0,0,0,0,1,154.3 altNRdy,34.801584,135.771021
1,0.51,34801584,135771021,2,112.5,0,0,0,0,0,0,1,154.3 altNRdy,34.801584,135.771021
1,0.52,34801584,135771021,2,112.5,0,0,0,0,0,0,1,154.3 altNRdy,34.801584,135.771021
1,0.53,34801584,135771022,2,112.5,0,0,0,0,0,0,1,154.3 altNRdy,34.801584,135.771022
1,0.54,34801584,135771022,2,112.5,0,0,0,0,0,0,1,154.3 altNRdy,34.801584,135.771022
1,0.55,34801584,135771022,2,112.5,0,0,0,0,0,0,1,154.3 altNRdy,34.801584,135.771022
1,0.56,34801584,135771022,2,112.5,0,0,0,0,0,0,1,154.3 altNRdy,34.801584,135.771022
1,0.57,34801584,135771022,2,112.5,0,0,0,0,0,0,1,154.3 altNRdy,34.801584,135.771022
1,0.58,34801584,135771022,2,112.5,0,0,0,0,0,0,1,154.3 altNRdy,34.801584,135.771022
1,0.59,34801584,135771022,2,112.5,0,0,0,0,0,0,1,154.3 altNRdy,34.801584,135.771022
1,1,34801585,135771022,2,112.5,0,0,0,0,0,0,1,154.3 altNRdy,34.801585,135.771022
1,1.1,34801585,135771022,2,112.5,0,0,0,0,0,0,1,154.3 altNRdy,34.801585,135.771022
1,1.2,34801585,135771022,2,112.5,0,0,0,0,0,0,1,154.3 altNRdy,34.801585,135.771022
1,1.3,34801585,135771021,2,112.5,0,0,0,0,0,0,1,154.3 altNRdy,34.801585,135.771021
1,1.4,34801585,135771021,2,112.5,0,0,0,0,0,0,1,154.3 altNRdy,34.801585,135.771021
1,1.5,34801586,135771021,2,112.5,0,0,0,0,0,0,1,154.3 altNRdy,34.801586,135.771021
1,1.7,34801586,135771021,2,112.5,0,0,0,0,0,0,1,154.3 altNRdy,34.801586,135.771021
1,1.8,34801586,135771021,2,112.5,0,0,0,0,0,0,1,154.3 altNRdy,34.801586,135.771021
1,1.9,34801586,135771022,2,112.5,0,0,0,0,0,0,1,154.3 altNRdy,34.801586,135.771022
1,1.1,34801586,135771022,2,112.5,0,0,0,0,0,0,1,154.3 altNRdy,34.801586,135.771022
1,1.11,34801586,135771022,2,112.5,0,0,0,0,0,0,1,154.3 altNRdy,34.801586,135.771022
1,1.12,34801586,135771022,2,112.5,0,0,0,0,0,0,1,154.3 altNRdy,34.801586,135.771022
1,1.13,34801586,135771022,2,112.5,0,0,0,0,0,0,1,154.3 altNRdy,34.801586,135.771022
1,1.14,34801586,135771023,2,112.5,0,0,0,0,0,0,1,154.3 altNRdy,34.801586,135.771023
1,1.15,34801586,135771023,2,112.5,0,0,0,0,0,0,1,154.3 altNRdy,34.801586,135.771023
1,1.16,34801586,135771023,2,112.5,0,0,0,0,0,0,1,154.3 altNRdy,34.801586,135.771023
1,1.17,34801586,135771023,2,112.5,0,0,0,0,0,0,1,154.3 altNRdy,34.801586,135.771023
1,1.18,34801586,135771023,2,112.5,0,0,0,0,0,0,1,154.3 altNRdy,34.801586,135.771023
1,1.19,34801586,135771023,2,112.5,0,0,0,0,0,0,1,154.3 altNRdy,34.801586,135.771023
1,1.2,34801586,135771023,2,112.5,0,0,0,0,0,0,1,154.3 altNRdy,34.801586,135.771023
1,1.21,34801586,135771023,2,112.5,0,0,0,0,0,0,1,154.3 altNRdy,34.801586,135.771023
1,1.22,34801586,135771023,2,112.5,0,0,0,0,0,0,1,154.3 altNRdy,34.801586,135.771023
1,1.23,34801586,135771023,2,112.5,0,0,0,0,0,0,1,154.3 altNRdy,34.801586,135.771023
1,1.24,34801586,135771023,2,112.5,0,0,0,0,0,0,1,154.3 altNRdy,34.801586,135.771023
1,1.25,34801586,135771023,2,112.5,0,0,0,0,0,0,1,154.3 altNRdy,34.801586,135.771023
1,1.26,34801586,135771023,2,112.5,0,0,0,0,0,0,1,154.3 altNRdy,34.801586,135.771023
1,1.27,34801585,135771023,2,112.5,0,0,0,0,0,0,1,154.3 altNRdy,34.801585,135.771023
1,0.4,34801562,135771034,2,101.25,0,0,0,0,0,0,1,154.6 altNRdy,34.801562,135.771034
1,0.5,34801562,135771034,2,90,0,0,0,0,0,0,1,154.6 altNRdy,34.801562,135.771034
1,0.6,34801568,135771034,2,90,0,0,0,0,0,0,1,154.6 altNRdy,34.801568,135.771034
1,0.7,34801568,135771034,1,90,0,0,0,0,0,0,1,154.7 altNRdy,34.801568,135.771034
1,0.4,34801623,135770959,7,90,0,56.2,0,0,0,0,1,153.4 altNRdy,34.801623,135.770959
1,0.5,34801623,135770959,6,326.25,0,0,0,0,0,0,1,153.1 altNRdy,34.801623,135.770959
1,0.6,34801623,135770959,6,11.25,135,0,0,0,0,0,1,153.3 altNRdy,34.801623,135.770959
1,0.7,34801623,135770959,6,0,0,0,0,0,0,0,1,154.0 altNRdy,34.801623,135.770959
1,0.8,34801623,135770959,6,56.25,0,33.8,0,0,0,0,1,154.2 c7 Rise,34.801623,135.770959
1,0.9,34801628,135770954,7,157.5,0,33.8,0,0,0,0,1,154.2 c7 Rise,34.801628,135.770954
1,0.1,34801634,135770955,7,157.5,0,22.5,0,0,0,0,1,154.2 c7 Rise,34.801634,135.770955
1,0.11,34801636,135770955,7,168.75,0,22.5,0,0,0,0,1,154.2 c7 Rise,34.801636,135.770955
1,0.12,34801636,135770955,7,180,0,22.5,0,0,0,0,1,154.2 c7 Rise,34.801636,135.770955
1,0.13,34801632,135770954,7,180,0,11.2,0,0,0,0,1,153.1 c5 Fall,34.801632,135.770954
1,0.15,34801628,135770954,7,157.5,0,0,0,0,0,0,1,153.1 c5 Fall,34.801628,135.770954
1,0.16,34801628,135770954,7,157.5,0,0,0,0,0,0,1,153.1 c5 Fall,34.801628,135.770954
1,0.17,34801638,135770952,8,157.5,0,0,0,0,0,0,1,153.1 c5 Fall,34.801638,135.770952
1,0.18,34801637,135770952,8,157.5,0,0,0,0,0,0,6,0.1 s0.04 a -0 L,34.801637,135.770952
1,0.19,34801637,135770952,7,78.75,0,11.2,0,0,0,0,6,NC 1 Heata -0 L,34.801637,135.770952
1,0.2,34801637,135770952,7,11.25,0,0,0,0,0,0,6,NC 3 Heata -0 L,34.801637,135.770952
1,0.21,34801635,135770952,8,337.5,0,11.2,0,0,0,0,6,NC 5 Heata -0 L,34.801635,135.770952
1,0.22,34801635,135770952,7,348.75,0,11.2,0,0,0,0,2,NC 0 Donea -0 L,34.801635,135.770952
1,0.23,34801633,135770951,7,292.5,0,11.2,0,0,0,0,2,t0.07 Forward L,34.801633,135.770951
1,0.24,34801633,135770951,7,236.25,0,0,0,0,0,0,2,t0.07 Forward L,34.801633,135.770951
1,0.25,34801634,135770952,7,180,0,0,0,0,2,0,2,t2.08 Rightd L,34.801634,135.770952
1,0.26,34801634,135770952,7,202.5,0,0,0,0,2,0,2,t2.08 Rightd L,34.801634,135.770952
1,0.27,34801634,135770952,7,202.5,0,0,0,0,2,0,2,t1.79 Rightd L,34.801634,135.770952
1,0.28,34801635,135770952,7,202.5,0,0,0,0,2,0,2,t1.69 Rightd L,34.801635,135.770952
1,0.29,34801635,135770953,7,213.75,0,0,0,0,2,0,2,t1.52 Rightd L,34.801635,135.770953
1,0.3,34801635,135770953,7,213.75,0,0,0,0,2,0,2,t1.52 Rightd L,34.801635,135.770953
1,0.31,34801637,135770955,7,213.75,0,0,0,0,2,0,2,t1.68 Rightd L,34.801637,135.770955
1,0.32,34801638,135770956,7,213.75,0,0,0,0,2,0,2,t1.56 Rightd L,34.801638,135.770956
1,0.33,34801638,135770956,7,213.75,0,0,0,0,2,0,2,t1.56 Rightd L,34.801638,135.770956
1,0.34,34801639,135770957,7,213.75,0,0,0,0,2,0,2,t1.55 Rightd L,34.801639,135.770957
1,0.35,34801639,135770957,7,247.5,0,0,0,0,2,0,2,t1.48 Rightd L,34.801639,135.770957
1,0.36,34801639,135770958,7,247.5,0,0,0,0,2,0,2,t1.41 Rightd L,34.801639,135.770958
1,0.37,34801639,135770958,7,247.5,0,0,0,0,2,0,2,t1.23 Rightd L,34.801639,135.770958
1,0.38,34801639,135770957,7,258.75,0,0,0,0,2,0,2,t1.30 Rightd L,34.801639,135.770957
1,0.39,34801639,135770957,7,247.5,0,0,0,0,2,0,2,t1.30 Rightd L,34.801639,135.770957
1,0.41,34801639,135770957,6,247.5,0,0,0,0,2,0,2,t1.30 Rightd L,34.801639,135.770957
1,0.42,34801639,135770957,6,247.5,0,0,0,0,2,0,2,t1.30 Rightd L,34.801639,135.770957
1,0.43,34801641,135770957,7,281.25,0,0,0,0,2,0,2,t1.06 Rightd L,34.801641,135.770957
1,0.44,34801641,135770956,7,258.75,0,0,0,0,2,0,2,t1.07 Rightd L,34.801641,135.770956
1,0.45,34801641,135770956,7,247.5,0,0,0,0,2,0,2,t1.07 Rightd L,34.801641,135.770956
1,0.46,34801641,135770956,6,247.5,0,0,0,0,2,0,2,t1.07 Rightd L,34.801641,135.770956
1,0.47,34801641,135770956,6,247.5,0,0,0,0,2,0,2,t1.07 Rightd L,34.801641,135.770956
1,0.48,34801641,135770956,6,247.5,0,0,0,0,2,0,2,t1.07 Rightd L,34.801641,135.770956
1,0.49,34801642,135770957,7,247.5,0,0,0,0,2,0,2,t1.13 Rightd L,34.801642,135.770957
1,0.5,34801642,135770958,7,247.5,0,0,0,0,2,0,2,t1.01 Rightd L,34.801642,135.770958
1,0.51,34801642,135770958,7,270,0,0,0,0,2,0,2,t1.01 Rightd L,34.801642,135.770958
1,0.52,34801642,135770958,6,258.75,0,0,0,0,2,0,2,t1.01 Rightd L,34.801642,135.770958
1,0.53,34801642,135770958,6,258.75,0,0,0,0,2,0,2,t1.01 Rightd L,34.801642,135.770958
1,0.54,34801642,135770958,6,258.75,0,0,0,0,2,0,2,t1.01 Rightd L,34.801642,135.770958
1,0.55,34801642,135770958,6,258.75,0,0,0,0,2,0,2,t1.01 Rightd L,34.801642,135.770958
1,0.56,34801643,135770960,7,258.75,0,0,0,0,2,0,2,t0.89 Rightd L,34.801643,135.77096
1,0.57,34801643,135770961,7,258.75,0,0,0,0,2,0,2,t0.82 Rightd L,34.801643,135.770961
1,0.58,34801643,135770961,6,270,0,0,0,0,2,0,2,t0.82 Rightd L,34.801643,135.770961
1,0.59,34801643,135770961,6,258.75,0,0,0,0,2,0,2,t0.82 Rightd L,34.801643,135.770961
1,1,34801643,135770961,6,258.75,0,0,0,0,2,0,2,t0.82 Rightd L,34.801643,135.770961
1,1.1,34801643,135770961,6,258.75,0,0,0,0,2,0,2,t0.82 Rightd L,34.801643,135.770961
1,1.2,34801643,135770961,7,270,0,0,0,0,2,0,2,t0.95 Rightd L,34.801643,135.770961
1,1.3,34801643,135770962,7,292.5,0,0,0,0,2,0,2,t0.70 Rightd L,34.801643,135.770962
1,1.4,34801643,135770962,6,270,0,0,0,0,2,0,2,t0.70 Rightd L,34.801643,135.770962
1,1.5,34801643,135770962,7,270,0,0,0,0,2,0,2,t0.77 Rightd L,34.801643,135.770962
1,1.7,34801643,135770962,6,270,0,0,0,0,2,0,2,t0.77 Rightd L,34.801643,135.770962
1,1.8,34801644,135770962,8,281.25,0,0,0,0,0,1,2,stack leftd L,34.801644,135.770962
1,1.9,34801644,135770962,7,281.25,0,0,0,0,0,1,2,stack leftd L,34.801644,135.770962
1,1.1,34801644,135770962,8,270,0,0,0,0,0,1,2,stack rightd L,34.801644,135.770962
1,1.11,34801644,135770962,7,258.75,0,0,0,0,0,1,2,stack rightd L,34.801644,135.770962
1,1.12,34801644,135770962,6,258.75,0,0,0,0,0,1,2,stack rightd L,34.801644,135.770962
1,1.13,34801644,135770962,6,258.75,0,0,0,0,0,1,2,stack rightd L,34.801644,135.770962
1,1.14,34801644,135770962,6,258.75,0,0,0,0,0,1,2,stack rightd L,34.801644,135.770962
1,1.15,34801643,135770962,7,258.75,0,0,0,0,0,1,2,stack leftd L,34.801643,135.770962
1,1.16,34801643,135770962,7,258.75,0,0,0,0,0,1,2,stack rightd L,34.801643,135.770962
1,1.17,34801643,135770962,7,303.75,0,33.8,0,0,0,1,2,stack leftd L,34.801643,135.770962
1,1.18,34801643,135770962,7,315,0,22.5,0,0,0,1,2,stack rightd L,34.801643,135.770962
1,1.19,34801643,135770963,7,315,0,56.2,0,0,0,1,2,stack leftd L,34.801643,135.770963
1,1.2,34801643,135770963,7,315,0,56.2,0,0,0,1,2,stack leftd L,34.801643,135.770963
1,1.21,34801643,135770963,6,315,0,56.2,0,0,0,1,2,stack leftd L,34.801643,135.770963
1,1.22,34801643,135770963,6,326.25,0,56.2,0,0,0,1,2,stack leftd L,34.801643,135.770963
1,1.23,34801643,135770963,6,326.25,0,56.2,0,0,0,1,2,stack leftd L,34.801643,135.770963
1,1.24,34801643,135770963,7,326.25,0,56.2,0,0,0,1,2,stack leftd L,34.801643,135.770963
1,1.25,34801643,135770963,7,326.25,0,56.2,0,0,0,1,2,stack leftd L,34.801643,135.770963
1,1.26,34801643,135770963,7,326.25,0,56.2,0,0,0,1,2,stack leftd L,34.801643,135.770963
1,1.27,34801643,135770964,7,315,0,56.2,0,0,0,1,2,stack rightd L,34.801643,135.770964
1,1.28,34801643,135770964,6,315,0,56.2,0,0,0,0,2,t-0.10 Forwardn,34.801643,135.770964
1,1.29,34801643,135770964,6,326.25,0,22.5,0,0,0,0,2,t-0.11 Forwardn,34.801643,135.770964
1,1.3,34801643,135770964,6,315,0,0,0,0,0,0,2,t-0.11 Forwardn,34.801643,135.770964
1,1.31,34801643,135770964,6,337.5,0,0,0,0,0,0,2,t-0.06 Forwardn,34.801643,135.770964
1,1.33,34801643,135770964,6,315,0,0,0,0,0,0,2,t-0.06 Forwardn,34.801643,135.770964
1,1.34,34801643,135770964,6,315,0,0,0,0,0,0,2,t-0.06 Forwardn,34.801643,135.770964
1,1.35,34801643,135770964,6,315,0,0,0,0,0,0,2,t-0.06 Forwardn,34.801643,135.770964
1,1.36,34801643,135770965,6,326.25,0,0,0,0,0,0,2,t0.02 Forwardcn,34.801643,135.770965
1,1.37,34801643,135770965,6,315,0,0,0,0,0,0,2,t0.02 Forwardcn,34.801643,135.770965
1,1.38,34801643,135770965,6,315,0,0,0,0,0,0,2,t0.02 Forwardcn,34.801643,135.770965
1,1.39,34801643,135770965,5,315,0,0,0,0,0,0,2,t0.02 Forwardcn,34.801643,135.770965
1,1.4,34801643,135770965,5,315,0,0,0,0,0,0,2,t0.02 Forwardcn,34.801643,135.770965
1,1.41,34801644,135770965,6,315,0,0,0,0,0,0,2,t0.03 Forwardcn,34.801644,135.770965
1,1.42,34801644,135770965,6,315,0,0,0,0,0,0,2,t0.03 Forwardcn,34.801644,135.770965
1,1.43,34801644,135770965,6,315,0,0,0,0,0,0,2,t0.03 Forwardcn,34.801644,135.770965
1,1.44,34801644,135770965,5,315,0,0,0,0,0,0,2,t0.03 Forwardcn,34.801644,135.770965
1,1.45,34801644,135770965,5,315,0,0,0,0,0,0,2,t0.03 Forwardcn,34.801644,135.770965
1,1.46,34801644,135770965,5,315,0,0,0,0,0,0,2,t0.03 Forwardcn,34.801644,135.770965
1,1.47,34801644,135770965,6,315,0,0,0,0,0,0,2,t0.04 Forwardcn,34.801644,135.770965
1,1.48,34801644,135770965,6,315,0,0,0,0,0,0,2,t0.04 Forwardcn,34.801644,135.770965
1,1.49,34801644,135770965,6,315,0,0,0,0,0,0,2,t0.04 Forwardcn,34.801644,135.770965
1,1.5,34801644,135770965,5,315,0,0,0,0,0,0,2,t0.04 Forwardcn,34.801644,135.770965
1,1.51,34801644,135770965,5,315,0,0,0,0,0,0,2,t0.04 Forwardcn,34.801644,135.770965
1,1.52,34801644,135770965,5,315,0,0,0,0,0,0,2,t0.04 Forwardcn,34.801644,135.770965
1,1.53,34801644,135770966,6,337.5,0,0,0,0,0,0,2,t-0.02 Forwardn,34.801644,135.770966
1,1.54,34801644,135770966,6,337.5,0,0,0,0,0,0,2,t-0.14 Forwardn,34.801644,135.770966
1,1.55,34801644,135770966,6,315,0,0,0,0,0,0,2,t-0.14 Forwardn,34.801644,135.770966
1,1.56,34801644,135770966,6,303.75,0,0,0,0,0,0,2,t-0.14 Forwardn,34.801644,135.770966
1,1.57,34801644,135770966,5,303.75,0,0,0,0,0,0,2,t-0.14 Forwardn,34.801644,135.770966
1,1.59,34801644,135770966,5,303.75,0,0,0,0,0,0,2,t-0.14 Forwardn,34.801644,135.770966
1,2,34801644,135770966,5,303.75,0,0,0,0,0,0,2,t-0.14 Forwardn,34.801644,135.770966
1,2.1,34801644,135770966,5,303.75,0,0,0,0,0,0,2,t-0.14 Forwardn,34.801644,135.770966
1,2.2,34801644,135770967,6,315,0,0,0,0,0,0,2,t0.16 Forwardn,34.801644,135.770967
1,2.3,34801644,135770967,6,315,0,0,0,0,0,0,2,t0.16 Forwardn,34.801644,135.770967
1,2.4,34801644,135770967,6,315,0,0,0,0,0,0,2,t0.16 Forwardn,34.801644,135.770967
1,2.5,34801644,135770967,5,315,0,0,0,0,0,0,2,t0.16 Forwardn,34.801644,135.770967
1,2.6,34801644,135770967,5,315,0,0,0,0,0,0,2,t0.16 Forwardn,34.801644,135.770967
1,2.7,34801644,135770968,6,315,0,0,0,0,0,0,2,t0.02 Forwardn,34.801644,135.770968
1,2.8,34801644,135770968,6,315,0,0,0,0,0,0,2,t0.02 Forwardn,34.801644,135.770968
1,2.9,34801644,135770968,5,315,0,0,0,0,0,0,2,t0.02 Forwardn,34.801644,135.770968
1,2.1,34801644,135770968,6,315,0,0,0,0,0,0,2,t0.08 Forwardcn,34.801644,135.770968
1,2.11,34801644,135770968,6,315,0,0,0,0,0,0,2,t-0.00 Forwardn,34.801644,135.770968
1,2.12,34801644,135770968,6,315,0,0,0,0,0,0,2,t-0.00 Forwardn,34.801644,135.770968
1,2.13,34801644,135770968,5,315,0,0,0,0,0,0,2,t-0.00 Forwardn,34.801644,135.770968
1,2.14,34801644,135770968,6,315,0,0,0,0,0,0,2,t0.08 Forwardcn,34.801644,135.770968
1,2.15,34801644,135770968,6,315,0,0,0,0,0,0,2,t0.08 Forwardcn,34.801644,135.770968
1,2.16,34801644,135770968,5,315,0,0,0,0,0,0,2,t0.08 Forwardcn,34.801644,135.770968
1,2.17,34801644,135770969,6,315,0,0,0,0,0,0,2,t-0.02 Forwardn,34.801644,135.770969
1,2.18,34801644,135770969,6,326.25,0,0,0,0,0,0,2,t-0.13 Forwardn,34.801644,135.770969
1,2.19,34801644,135770969,6,315,0,0,0,0,0,0,2,t-0.13 Forwardn,34.801644,135.770969
1,2.2,34801644,135770969,5,326.25,0,0,0,0,0,0,2,t-0.13 Forwardn,34.801644,135.770969
1,2.21,34801644,135770969,5,326.25,0,0,0,0,0,0,2,t-0.13 Forwardn,34.801644,135.770969
1,2.22,34801644,135770969,5,326.25,0,0,0,0,0,0,2,t-0.13 Forwardn,34.801644,135.770969
1,2.23,34801644,135770969,6,337.5,0,0,0,0,0,0,2,t-0.21 Forwardn,34.801644,135.770969
1,2.25,34801644,135770969,6,337.5,0,0,0,0,0,0,2,t-0.21 Forwardn,34.801644,135.770969
1,2.26,34801644,135770969,5,348.75,0,0,0,0,0,0,2,t-0.21 Forwardn,34.801644,135.770969
1,2.27,34801644,135770969,5,348.75,0,0,0,0,0,0,2,t-0.21 Forwardn,34.801644,135.770969
1,2.28,34801644,135770969,5,348.75,0,0,0,0,0,0,2,t-0.21 Forwardn,34.801644,135.770969
1,2.29,34801644,135770969,5,348.75,0,0,0,0,0,0,2,t-0.21 Forwardn,34.801644,135.770969
1,2.3,34801644,135770969,5,348.75,0,0,0,0,0,0,2,t-0.21 Forwardn,34.801644,135.770969
1,2.31,34801644,135770969,4,348.75,0,0,0,0,0,0,2,t-0.21 Forwardn,34.801644,135.770969
1,2.32,34801644,135770969,4,348.75,0,0,0,0,0,0,2,t-0.21 Forwardn,34.801644,135.770969
1,2.33,34801644,135770970,6,348.75,0,0,0,2,0,0,2,t-0.54 Leftk cn,34.801644,135.77097
1,2.34,34801644,135770970,6,348.75,0,0,0,2,0,0,2,t-0.53 Leftk cn,34.801644,135.77097
1,2.35,34801644,135770970,6,348.75,11.2,0,0,2,0,0,2,t-0.53 Leftk cn,34.801644,135.77097
1,2.36,34801644,135770971,6,337.5,11.2,0,0,2,0,0,2,t-0.39 Leftk cn,34.801644,135.770971
1,2.37,34801644,135770971,6,337.5,0,0,0,2,0,0,2,t-0.39 Leftk cn,34.801644,135.770971
1,2.38,34801644,135770971,5,337.5,0,0,0,2,0,0,2,t-0.39 Leftk cn,34.801644,135.770971
1,2.39,34801644,135770971,6,326.25,0,0,0,0,0,0,2,t-0.25 Forwardn,34.801644,135.770971
1,2.4,34801644,135770971,6,337.5,0,0,0,0,0,0,2,t-0.25 Forwardn,34.801644,135.770971
1,2.41,34801644,135770971,5,337.5,0,0,0,0,0,0,2,t-0.25 Forwardn,34.801644,135.770971
1,2.42,34801644,135770971,5,337.5,0,0,0,0,0,0,2,t-0.25 Forwardn,34.801644,135.770971
1,2.43,34801644,135770971,5,337.5,0,0,0,0,0,0,2,t-0.25 Forwardn,34.801644,135.770971
1,2.44,34801644,135770971,5,337.5,0,0,0,0,0,0,2,t-0.25 Forwardn,34.801644,135.770971
1,2.45,34801644,135770971,6,337.5,0,0,0,0,0,0,2,t-0.31 Forwardn,34.801644,135.770971
1,2.46,34801644,135770971,6,337.5,0,0,0,0,0,0,2,t-0.31 Forwardn,34.801644,135.770971
1,2.47,34801644,135770971,5,337.5,0,0,0,0,0,0,2,t-0.31 Forwardn,34.801644,135.770971
1,2.48,34801644,135770971,5,337.5,0,0,0,0,0,0,2,t-0.31 Forwardn,34.801644,135.770971
1,2.49,34801644,135770971,5,337.5,0,0,0,0,0,0,2,t-0.31 Forwardn,34.801644,135.770971
1,2.51,34801644,135770971,5,337.5,0,0,0,0,0,0,2,t-0.31 Forwardn,34.801644,135.770971
1,2.52,34801643,135770971,6,348.75,0,0,0,0,0,0,2,t-0.39 Forwardn,34.801643,135.770971
1,2.53,34801643,135770971,5,337.5,0,0,0,0,0,0,2,t-0.39 Forwardn,34.801643,135.770971
1,2.54,34801643,135770971,5,326.25,0,0,0,0,0,0,2,t-0.39 Forwardn,34.801643,135.770971
1,2.55,34801643,135770971,5,326.25,0,0,0,0,0,0,2,t-0.39 Forwardn,34.801643,135.770971
1,2.56,34801643,135770971,5,326.25,0,0,0,0,0,0,2,t-0.39 Forwardn,34.801643,135.770971
1,2.57,34801643,135770971,5,326.25,0,0,0,0,0,0,2,t-0.39 Forwardn,34.801643,135.770971
1,2.58,34801643,135770971,4,326.25,0,0,0,0,0,0,2,t-0.39 Forwardn,34.801643,135.770971
1,2.59,34801643,135770971,4,326.25,0,0,0,0,0,0,2,t-0.39 Forwardn,34.801643,135.770971
1,3,34801643,135770971,4,326.25,0,0,0,0,0,0,2,t-0.39 Forwardn,34.801643,135.770971
1,3.1,34801643,135770971,4,326.25,0,0,0,0,0,0,2,t-0.39 Forwardn,34.801643,135.770971
1,3.2,34801643,135770973,6,326.25,0,0,0,0,0,0,2,t-0.16 Forwardn,34.801643,135.770973
1,3.3,34801643,135770973,6,337.5,0,0,0,0,0,0,2,t-0.34 Forwardn,34.801643,135.770973
1,3.4,34801643,135770973,5,348.75,0,0,0,0,0,0,2,t-0.34 Forwardn,34.801643,135.770973
1,3.5,34801643,135770973,5,348.75,0,0,0,0,0,0,2,t-0.34 Forwardn,34.801643,135.770973
1,3.6,34801643,135770973,5,348.75,0,0,0,0,0,0,2,t-0.34 Forwardn,34.801643,135.770973
1,3.7,34801643,135770973,5,348.75,0,0,0,0,0,0,2,t-0.34 Forwardn,34.801643,135.770973
1,3.8,34801642,135770974,6,348.75,0,0,0,2,0,0,2,t-0.49 Leftrdn,34.801642,135.770974
1,3.9,34801642,135770974,5,348.75,0,0,0,2,0,0,2,t-0.49 Leftrdn,34.801642,135.770974
1,3.1,34801642,135770974,5,337.5,0,0,0,2,0,0,2,t-0.49 Leftrdn,34.801642,135.770974
1,3.11,34801642,135770974,5,337.5,0,0,0,2,0,0,2,t-0.49 Leftrdn,34.801642,135.770974
1,3.12,34801642,135770974,4,337.5,0,0,0,2,0,0,2,t-0.49 Leftrdn,34.801642,135.770974
1,3.13,34801642,135770974,4,337.5,0,0,0,2,0,0,2,t-0.49 Leftrdn,34.801642,135.770974
1,3.14,34801642,135770974,6,348.75,0,0,0,2,0,0,2,t-0.39 Leftrdn,34.801642,135.770974
1,3.15,34801642,135770974,6,348.75,0,0,0,2,0,0,2,t-0.43 Leftrdn,34.801642,135.770974
1,3.17,34801642,135770974,5,348.75,0,0,0,2,0,0,2,t-0.43 Leftrdn,34.801642,135.770974
1,3.18,34801642,135770974,6,348.75,0,0,0,2,0,0,2,t-0.52 Leftrdn,34.801642,135.770974
1,3.19,34801642,135770974,5,337.5,11.2,0,0,2,0,0,2,t-0.52 Leftrdn,34.801642,135.770974
1,3.2,34801642,135770974,5,337.5,11.2,0,0,2,0,0,2,t-0.52 Leftrdn,34.801642,135.770974
1,3.21,34801642,135770975,6,348.75,0,0,0,0,0,0,2,t-0.38 Forwardn,34.801642,135.770975
1,3.22,34801642,135770975,5,337.5,0,0,0,0,0,0,2,t-0.38 Forwardn,34.801642,135.770975
1,3.23,34801642,135770975,5,337.5,0,0,0,0,0,0,2,t-0.38 Forwardn,34.801642,135.770975
1,3.24,34801642,135770975,5,337.5,0,0,0,0,0,0,2,t-0.38 Forwardn,34.801642,135.770975
1,3.25,34801642,135770975,4,337.5,0,0,0,0,0,0,2,t-0.38 Forwardn,34.801642,135.770975
1,3.26,34801641,135770975,6,337.5,0,0,0,0,0,0,2,t-0.32 Forwardn,34.801641,135.770975
1,3.27,34801641,135770975,5,337.5,0,0,0,0,0,0,2,t-0.32 Forwardn,34.801641,135.770975
1,3.28,34801641,135770975,6,337.5,0,0,0,2,0,0,2,t-0.42 Leftrdn,34.801641,135.770975
1,3.29,34801641,135770975,6,337.5,0,0,0,2,0,0,2,t-0.45 Leftrdn,34.801641,135.770975
1,3.3,34801641,135770975,5,337.5,0,0,0,2,0,0,2,t-0.45 Leftrdn,34.801641,135.770975
1,3.31,34801641,135770975,5,326.25,0,0,0,2,0,0,2,t-0.45 Leftrdn,34.801641,135.770975
1,3.32,34801641,135770975,5,326.25,0,0,0,2,0,0,2,t-0.45 Leftrdn,34.801641,135.770975
1,3.33,34801641,135770975,4,326.25,0,0,0,2,0,0,2,t-0.45 Leftrdn,34.801641,135.770975
1,3.34,34801641,135770975,4,326.25,0,0,0,2,0,0,2,t-0.45 Leftrdn,34.801641,135.770975
1,3.35,34801641,135770975,6,326.25,0,0,0,0,0,0,2,t-0.17 Forwardn,34.801641,135.770975
1,3.36,34801641,135770975,5,337.5,0,0,0,0,0,0,2,t-0.17 Forwardn,34.801641,135.770975
1,3.37,34801641,135770975,5,326.25,0,0,0,0,0,0,2,t-0.17 Forwardn,34.801641,135.770975
1,3.38,34801641,135770975,5,326.25,0,0,0,0,0,0,2,t-0.17 Forwardn,34.801641,135.770975
1,3.39,34801641,135770975,4,326.25,0,0,0,0,0,0,2,t-0.17 Forwardn,34.801641,135.770975
1,3.4,34801641,135770975,4,326.25,0,0,0,0,0,0,2,t-0.17 Forwardn,34.801641,135.770975
1,3.41,34801641,135770976,6,337.5,0,0,0,0,0,0,2,t-0.21 Forwardn,34.801641,135.770976
1,3.43,34801641,135770976,6,348.75,0,0,0,0,0,0,2,t-0.37 Forwardn,34.801641,135.770976
1,3.44,34801641,135770976,6,337.5,0,0,0,0,0,0,2,t-0.34 Forwardn,34.801641,135.770976
1,3.45,34801641,135770976,5,326.25,0,0,0,0,0,0,2,t-0.34 Forwardn,34.801641,135.770976
1,3.46,34801641,135770976,5,326.25,0,0,0,0,0,0,2,t-0.34 Forwardn,34.801641,135.770976
1,3.47,34801641,135770976,4,337.5,11.2,0,0,0,0,0,2,t-0.34 Forwardn,34.801641,135.770976
1,3.48,34801641,135770976,4,326.25,0,0,0,0,0,0,2,t-0.34 Forwardn,34.801641,135.770976
1,3.49,34801641,135770976,4,326.25,0,0,0,0,0,0,2,t-0.34 Forwardn,34.801641,135.770976
1,3.5,34801641,135770976,4,326.25,0,0,0,0,0,0,2,t-0.34 Forwardn,34.801641,135.770976
1,3.51,34801641,135770976,4,326.25,0,0,0,0,0,0,2,t-0.34 Forwardn,34.801641,135.770976
1,3.52,34801641,135770976,4,326.25,0,0,0,0,0,0,2,t-0.34 Forwardn,34.801641,135.770976
1,3.53,34801640,135770976,6,326.25,0,0,0,0,0,0,2,t-0.17 Forwardn,34.80164,135.770976
1,3.54,34801640,135770976,6,326.25,0,0,0,0,0,0,2,t-0.24 Forwardn,34.80164,135.770976
1,3.55,34801640,135770976,5,326.25,0,0,0,0,0,0,2,t-0.24 Forwardn,34.80164,135.770976
1,3.56,34801640,135770976,5,326.25,0,0,0,0,0,0,2,t-0.24 Forwardn,34.80164,135.770976
1,3.57,34801640,135770976,4,326.25,0,0,0,0,0,0,2,t-0.24 Forwardn,34.80164,135.770976
1,3.58,34801640,135770976,4,326.25,0,0,0,0,0,0,2,t-0.24 Forwardn,34.80164,135.770976
1,3.59,34801640,135770976,4,326.25,0,0,0,0,0,0,2,t-0.24 Forwardn,34.80164,135.770976
1,4,34801639,135770976,5,326.25,0,0,0,0,0,0,2,t-0.17 Forwardn,34.801639,135.770976
1,4.1,34801639,135770976,5,326.25,0,0,0,0,0,0,2,t-0.17 Forwardn,34.801639,135.770976
1,4.2,34801639,135770976,5,326.25,0,0,0,0,0,0,2,t-0.17 Forwardn,34.801639,135.770976
1,4.3,34801639,135770976,5,337.5,0,0,0,0,0,0,2,t-0.14 Forwardn,34.801639,135.770976
1,4.4,34801638,135770977,5,326.25,0,0,0,0,0,0,2,t-0.22 Forwardn,34.801638,135.770977
1,4.5,34801638,135770977,5,326.25,0,0,0,0,0,0,2,t-0.22 Forwardn,34.801638,135.770977
1,4.6,34801638,135770977,5,326.25,0,0,0,0,0,0,2,t-0.22 Forwardn,34.801638,135.770977
1,4.7,34801638,135770977,5,337.5,0,0,0,0,0,0,2,t-0.06 Forwardn,34.801638,135.770977
1,4.9,34801638,135770977,5,337.5,0,0,0,0,0,0,2,t-0.21 Forwardn,34.801638,135.770977
1,4.1,34801638,135770977,5,337.5,0,0,0,0,0,0,2,t-0.21 Forwardn,34.801638,135.770977
1,4.11,34801638,135770977,5,326.25,0,0,0,0,0,0,2,t-0.21 Forwardn,34.801638,135.770977
1,4.12,34801638,135770977,5,326.25,11.2,0,0,0,0,0,2,t-0.12 Forwardn,34.801638,135.770977
1,4.13,34801638,135770977,5,315,0,0,0,0,0,0,2,t-0.12 Forwardn,34.801638,135.770977
1,4.14,34801638,135770977,5,315,0,0,0,0,0,0,2,t-0.12 Forwardn,34.801638,135.770977
1,4.15,34801638,135770977,4,315,0,0,0,0,0,0,2,t-0.12 Forwardn,34.801638,135.770977
1,4.16,34801638,135770977,4,315,0,0,0,0,0,0,2,t-0.12 Forwardn,34.801638,135.770977
1,4.17,34801637,135770977,5,315,0,0,0,0,0,0,2,t0.02 Forwardn,34.801637,135.770977
1,4.18,34801637,135770977,5,315,0,0,0,0,0,0,2,t0.02 Forwardn,34.801637,135.770977
1,4.19,34801637,135770977,5,326.25,0,0,0,0,0,0,2,t0.02 Forwardn,34.801637,135.770977
1,4.2,34801637,135770978,5,326.25,0,0,0,0,0,0,2,t-0.09 Forwardn,34.801637,135.770978
1,4.21,34801637,135770978,5,326.25,0,0,0,0,0,0,2,t-0.09 Forwardn,34.801637,135.770978
1,4.22,34801637,135770978,5,315,0,0,0,0,0,0,2,t-0.06 Forwardn,34.801637,135.770978
1,4.23,34801637,135770978,5,326.25,0,0,0,0,0,0,2,t-0.06 Forwardn,34.801637,135.770978
1,4.24,34801636,135770978,5,326.25,0,0,0,0,0,0,2,t-0.08 Forwardn,34.801636,135.770978
1,4.25,34801636,135770978,5,326.25,0,0,0,0,0,0,2,t-0.08 Forwardn,34.801636,135.770978
1,4.26,34801636,135770978,5,326.25,0,0,0,0,0,0,2,t-0.08 Forwardn,34.801636,135.770978
1,4.27,34801636,135770978,5,326.25,0,0,0,0,0,0,2,t-0.21 Forwardn,34.801636,135.770978
1,4.28,34801636,135770978,5,326.25,0,0,0,0,0,0,2,t-0.21 Forwardn,34.801636,135.770978
1,4.29,34801636,135770978,4,326.25,0,0,0,0,0,0,2,t-0.21 Forwardn,34.801636,135.770978
1,4.3,34801636,135770978,4,326.25,0,0,0,0,0,0,2,t-0.21 Forwardn,34.801636,135.770978
1,4.31,34801636,135770978,4,326.25,0,0,0,0,0,0,2,t-0.21 Forwardn,34.801636,135.770978
1,4.32,34801636,135770978,4,326.25,0,0,0,0,0,0,2,t-0.21 Forwardn,34.801636,135.770978
1,4.33,34801636,135770978,4,326.25,0,0,0,0,0,0,2,t-0.21 Forwardn,34.801636,135.770978
1,4.35,34801635,135770978,5,326.25,0,0,0,0,0,0,2,t-0.14 Forwardn,34.801635,135.770978
1,4.36,34801635,135770978,5,337.5,0,0,0,0,0,0,2,t-0.22 Forwardn,34.801635,135.770978
1,4.37,34801635,135770978,5,337.5,0,0,0,0,0,0,2,t-0.31 Forwardn,34.801635,135.770978
1,4.38,34801635,135770978,5,326.25,0,0,0,0,0,0,2,t-0.31 Forwardn,34.801635,135.770978
1,4.39,34801635,135770978,5,337.5,0,0,0,0,0,0,2,t-0.15 Forwardn,34.801635,135.770978
1,4.4,34801634,135770978,5,337.5,0,0,0,0,0,0,2,t-0.22 Forwardn,34.801634,135.770978
1,4.41,34801634,135770978,5,326.25,0,0,0,0,0,0,2,t-0.22 Forwardn,34.801634,135.770978
1,4.42,34801634,135770978,4,326.25,0,0,0,0,0,0,2,t-0.22 Forwardn,34.801634,135.770978
1,4.43,34801634,135770978,5,326.25,0,0,0,0,0,0,2,t-0.12 Forwardn,34.801634,135.770978
1,4.44,34801634,135770978,5,326.25,0,0,0,0,0,0,2,t-0.24 Forwardn,34.801634,135.770978
1,4.45,34801634,135770978,5,326.25,0,0,0,0,0,0,2,t-0.24 Forwardn,34.801634,135.770978
1,4.46,34801634,135770978,4,326.25,0,0,0,0,0,0,2,t-0.24 Forwardn,34.801634,135.770978
1,4.47,34801634,135770978,4,326.25,0,0,0,0,0,0,2,t-0.24 Forwardn,34.801634,135.770978
1,4.48,34801633,135770978,5,326.25,0,0,0,0,0,0,2,t-0.21 Forwardn,34.801633,135.770978
1,4.49,34801633,135770978,5,326.25,0,0,0,0,0,0,2,t-0.21 Forwardn,34.801633,135.770978
1,4.5,34801633,135770978,5,326.25,0,0,0,0,0,0,2,t-0.22 Forwardn,34.801633,135.770978
1,4.51,34801633,135770978,5,326.25,0,0,0,0,0,0,2,t-0.22 Forwardn,34.801633,135.770978
1,4.52,34801632,135770979,5,326.25,0,0,0,0,0,0,2,t-0.29 Forwardn,34.801632,135.770979
1,4.53,34801632,135770979,5,337.5,11.2,0,0,0,0,0,2,t-0.34 Forwardn,34.801632,135.770979
1,4.54,34801632,135770979,4,326.25,0,0,0,0,0,0,2,t-0.34 Forwardn,34.801632,135.770979
1,4.55,34801632,135770979,5,326.25,0,0,0,0,0,0,2,t-0.15 Forwardn,34.801632,135.770979
1,4.56,34801632,135770979,5,337.5,0,0,0,0,0,0,2,t-0.37 Forwardn,34.801632,135.770979
1,4.57,34801632,135770979,4,326.25,0,0,0,0,0,0,2,t-0.37 Forwardn,34.801632,135.770979
1,4.58,34801632,135770979,4,326.25,0,0,0,0,0,0,2,t-0.37 Forwardn,34.801632,135.770979
1,4.59,34801632,135770979,4,326.25,0,0,0,0,0,0,2,t-0.37 Forwardn,34.801632,135.770979
1,5.1,34801632,135770979,4,326.25,0,0,0,0,0,0,2,t-0.37 Forwardn,34.801632,135.770979
1,5.2,34801631,135770979,5,337.5,0,0,0,0,0,0,2,t-0.19 Forwardn,34.801631,135.770979
1,5.3,34801631,135770979,4,326.25,0,0,0,0,0,0,2,t-0.19 Forwardn,34.801631,135.770979
1,5.4,34801631,135770979,4,326.25,0,0,0,0,0,0,2,t-0.19 Forwardn,34.801631,135.770979
1,5.5,34801631,135770979,4,326.25,0,0,0,0,0,0,2,t-0.19 Forwardn,34.801631,135.770979
1,5.6,34801631,135770979,4,326.25,0,0,0,0,0,0,2,t-0.19 Forwardn,34.801631,135.770979
1,5.7,34801631,135770979,4,326.25,0,0,0,0,0,0,2,t-0.19 Forwardn,34.801631,135.770979
1,5.8,34801631,135770979,4,326.25,0,0,0,0,0,0,2,t-0.19 Forwardn,34.801631,135.770979
1,5.9,34801631,135770979,4,326.25,0,0,0,0,0,0,2,t-0.19 Forwardn,34.801631,135.770979
1,5.1,34801631,135770979,3,326.25,0,0,0,0,0,0,2,t-0.19 Forwardn,34.801631,135.770979
1,5.11,34801630,135770979,5,326.25,0,0,0,0,0,0,2,t-0.26 Forwardn,34.80163,135.770979
1,5.12,34801630,135770979,4,326.25,0,0,0,0,0,0,2,t-0.26 Forwardn,34.80163,135.770979
1,5.13,34801630,135770979,5,326.25,0,0,0,0,0,0,2,t-0.27 Forwardn,34.80163,135.770979
1,5.14,34801630,135770979,4,337.5,0,0,0,0,0,0,2,t-0.27 Forwardn,34.80163,135.770979
1,5.15,34801630,135770979,5,326.25,0,0,0,0,0,0,2,t-0.32 Forwardn,34.80163,135.770979
1,5.16,34801630,135770979,4,337.5,0,0,0,0,0,0,2,t-0.32 Forwardn,34.80163,135.770979
1,5.17,34801630,135770979,4,337.5,0,0,0,0,0,0,2,t-0.32 Forwardn,34.80163,135.770979
1,5.18,34801630,135770980,5,337.5,0,0,0,0,0,0,2,t-0.36 Forwardn,34.80163,135.77098
1,5.19,34801630,135770980,5,337.5,0,0,0,2,0,0,2,t-0.40 Leftrdn,34.80163,135.77098
1,5.2,34801630,135770980,4,337.5,11.2,0,0,2,0,0,2,t-0.40 Leftrdn,34.80163,135.77098
1,5.21,34801630,135770980,5,337.5,0,0,0,0,0,0,2,t-0.26 Forwardn,34.80163,135.77098
1,5.22,34801630,135770980,4,326.25,0,0,0,0,0,0,2,t-0.26 Forwardn,34.80163,135.77098
1,5.23,34801630,135770980,4,326.25,0,0,0,0,0,0,2,t-0.26 Forwardn,34.80163,135.77098
1,5.24,34801630,135770980,4,326.25,0,0,0,0,0,0,2,t-0.26 Forwardn,34.80163,135.77098
1,5.25,34801629,135770981,5,326.25,0,0,0,0,0,0,2,t-0.16 Forwardn,34.801629,135.770981
1,5.27,34801629,135770981,4,326.25,0,0,0,0,0,0,2,t-0.16 Forwardn,34.801629,135.770981
1,5.28,34801629,135770981,4,326.25,0,0,0,0,0,0,2,t-0.16 Forwardn,34.801629,135.770981
1,5.29,34801629,135770981,4,326.25,0,0,0,0,0,0,2,t-0.16 Forwardn,34.801629,135.770981
1,5.3,34801629,135770981,4,326.25,0,0,0,0,0,0,2,t-0.16 Forwardn,34.801629,135.770981
1,5.31,34801629,135770981,4,326.25,0,0,0,0,0,0,2,t-0.16 Forwardn,34.801629,135.770981
1,5.32,34801629,135770981,3,326.25,0,0,0,0,0,0,2,t-0.16 Forwardn,34.801629,135.770981
1,5.33,34801629,135770981,3,326.25,0,0,0,0,0,0,2,t-0.16 Forwardn,34.801629,135.770981
1,5.34,34801629,135770981,3,326.25,0,0,0,0,0,0,2,t-0.16 Forwardn,34.801629,135.770981
1,5.35,34801628,135770982,4,326.25,0,0,0,0,0,0,2,t-0.22 Forwardn,34.801628,135.770982
1,5.36,34801628,135770982,4,326.25,0,0,0,0,0,0,2,t-0.22 Forwardn,34.801628,135.770982
1,5.37,34801628,135770982,4,337.5,0,0,0,0,0,0,2,t-0.22 Forwardn,34.801628,135.770982
1,5.38,34801628,135770982,4,337.5,0,0,0,0,0,0,2,t-0.22 Forwardn,34.801628,135.770982
1,5.39,34801628,135770982,4,337.5,0,0,0,0,0,0,2,t-0.22 Forwardn,34.801628,135.770982
1,5.4,34801628,135770982,3,337.5,0,0,0,0,0,0,2,t-0.22 Forwardn,34.801628,135.770982
1,5.41,34801628,135770982,4,337.5,0,0,0,2,0,0,2,t-0.44 Leftrdn,34.801628,135.770982
1,5.42,34801628,135770982,4,337.5,11.2,0,0,2,0,0,2,t-0.44 Leftrdn,34.801628,135.770982
1,5.43,34801628,135770982,4,326.25,0,0,0,2,0,0,2,t-0.44 Leftrdn,34.801628,135.770982
1,5.44,34801628,135770982,4,326.25,0,0,0,0,0,0,2,t-0.15 Forwardn,34.801628,135.770982
1,5.45,34801628,135770982,4,326.25,0,0,0,0,0,0,2,t-0.15 Forwardn,34.801628,135.770982
1,5.46,34801628,135770983,4,326.25,0,0,0,0,0,0,2,t-0.18 Forwardn,34.801628,135.770983
1,5.47,34801628,135770983,4,337.5,0,0,0,0,0,0,2,t-0.18 Forwardn,34.801628,135.770983
1,5.48,34801628,135770983,4,337.5,0,0,0,0,0,0,2,t-0.18 Forwardn,34.801628,135.770983
1,5.49,34801628,135770983,4,337.5,0,0,0,0,0,0,2,t-0.18 Forwardn,34.801628,135.770983
1,5.5,34801627,135770983,4,348.75,0,0,0,0,0,0,2,t-0.31 Forwardn,34.801627,135.770983
1,5.51,34801627,135770983,4,337.5,0,0,0,0,0,0,2,t-0.34 Forwardn,34.801627,135.770983
1,5.53,34801627,135770983,4,337.5,0,0,0,0,0,0,2,t-0.34 Forwardn,34.801627,135.770983
1,5.54,34801627,135770983,4,337.5,0,0,0,0,0,0,2,t-0.34 Forwardn,34.801627,135.770983
1,5.55,34801627,135770983,4,337.5,0,0,0,0,0,0,2,t-0.34 Forwardn,34.801627,135.770983
1,5.56,34801627,135770983,3,337.5,0,0,0,0,0,0,2,t-0.34 Forwardn,34.801627,135.770983
1,5.57,34801627,135770983,3,337.5,0,0,0,0,0,0,2,t-0.34 Forwardn,34.801627,135.770983
1,5.58,34801627,135770983,3,337.5,0,0,0,0,0,0,2,t-0.34 Forwardn,34.801627,135.770983
1,5.59,34801627,135770983,3,337.5,0,0,0,0,0,0,2,t-0.34 Forwardn,34.801627,135.770983
1,6,34801627,135770983,3,337.5,0,0,0,0,0,0,2,t-0.34 Forwardn,34.801627,135.770983
1,6.1,34801627,135770983,3,337.5,0,0,0,0,0,0,2,t-0.34 Forwardn,34.801627,135.770983
1,6.2,34801626,135770984,4,337.5,0,0,0,0,0,0,2,t-0.34 Forwardn,34.801626,135.770984
1,6.3,34801626,135770984,4,348.75,0,0,0,2,0,0,2,t-0.58 Leftrdn,34.801626,135.770984
1,6.4,34801625,135770984,4,337.5,0,0,0,2,0,0,2,t-0.41 Leftrdn,34.801625,135.770984
1,6.5,34801625,135770984,4,337.5,0,0,0,2,0,0,2,t-0.41 Leftrdn,34.801625,135.770984
1,6.6,34801625,135770984,4,326.25,0,0,0,2,0,0,2,t-0.41 Leftrdn,34.801625,135.770984
1,6.7,34801625,135770984,4,326.25,0,0,0,0,0,0,2,t-0.23 Forwardn,34.801625,135.770984
1,6.8,34801625,135770984,4,326.25,0,0,0,0,0,0,2,t-0.27 Forwardn,34.801625,135.770984
1,6.9,34801625,135770984,4,326.25,0,0,0,0,0,0,2,t-0.26 Forwardn,34.801625,135.770984
1,6.1,34801625,135770984,4,326.25,0,0,0,0,0,0,2,t-0.23 Forwardn,34.801625,135.770984
1,6.11,34801625,135770984,4,326.25,0,0,0,0,0,0,2,t-0.23 Forwardn,34.801625,135.770984
1,6.12,34801625,135770984,4,315,0,0,0,0,0,0,2,t-0.23 Forwardn,34.801625,135.770984
1,6.13,34801624,135770985,4,315,0,0,0,0,0,0,2,t-0.09 Forwardn,34.801624,135.770985
1,6.14,34801624,135770985,4,326.25,0,0,0,0,0,0,2,t-0.09 Forwardn,34.801624,135.770985
1,6.15,34801624,135770985,4,315,0,0,0,0,0,0,2,t-0.09 Forwardn,34.801624,135.770985
1,6.16,34801624,135770985,3,315,0,0,0,0,0,0,2,t-0.09 Forwardn,34.801624,135.770985
1,6.17,34801624,135770985,3,315,0,0,0,0,0,0,2,t-0.09 Forwardn,34.801624,135.770985
1,6.19,34801624,135770985,3,315,0,0,0,0,0,0,2,t-0.09 Forwardn,34.801624,135.770985
1,6.2,34801624,135770985,3,315,0,0,0,0,0,0,2,t-0.09 Forwardn,34.801624,135.770985
1,6.21,34801623,135770986,4,337.5,0,0,0,0,0,0,2,t-0.07 Forwardn,34.801623,135.770986
1,6.22,34801623,135770986,4,315,0,0,0,0,0,0,2,t-0.07 Forwardn,34.801623,135.770986
1,6.23,34801623,135770986,4,326.25,0,0,0,0,0,0,2,t-0.08 Forwardn,34.801623,135.770986
1,6.24,34801623,135770986,4,315,0,0,0,0,0,0,2,t-0.08 Forwardn,34.801623,135.770986
1,6.25,34801623,135770986,3,326.25,0,0,0,0,0,0,2,t-0.08 Forwardn,34.801623,135.770986
1,6.26,34801623,135770986,3,326.25,0,0,0,0,0,0,2,t-0.08 Forwardn,34.801623,135.770986
1,6.27,34801622,135770987,4,326.25,0,0,0,0,0,0,2,t-0.23 Forwardn,34.801622,135.770987
1,6.28,34801622,135770987,4,326.25,0,0,0,0,0,0,2,t-0.30 Forwardn,34.801622,135.770987
1,6.29,34801622,135770987,4,326.25,0,0,0,0,0,0,2,t-0.30 Forwardn,34.801622,135.770987
1,6.3,34801622,135770987,3,315,0,0,0,0,0,0,2,t-0.30 Forwardn,34.801622,135.770987
1,6.31,34801622,135770987,3,315,0,0,0,0,0,0,2,t-0.30 Forwardn,34.801622,135.770987
1,6.32,34801621,135770987,4,315,0,0,0,0,0,0,2,t-0.10 Forwardn,34.801621,135.770987
1,6.33,34801621,135770987,4,326.25,0,0,0,0,0,0,2,t-0.10 Forwardn,34.801621,135.770987
1,6.34,34801621,135770987,4,326.25,0,0,0,0,0,0,2,t-0.19 Forwardn,34.801621,135.770987
1,6.35,34801621,135770987,4,326.25,0,0,0,0,0,0,2,t-0.24 Forwardn,34.801621,135.770987
1,6.36,34801621,135770988,4,326.25,0,0,0,0,0,0,2,t-0.18 Forwardn,34.801621,135.770988
1,6.37,34801621,135770988,3,326.25,0,0,0,0,0,0,2,t-0.18 Forwardn,34.801621,135.770988
1,6.38,34801621,135770988,3,326.25,0,0,0,0,0,0,2,t-0.18 Forwardn,34.801621,135.770988
1,6.39,34801620,135770988,4,326.25,0,0,0,0,0,0,2,t-0.20 Forwardn,34.80162,135.770988
1,6.4,34801620,135770988,3,326.25,0,0,0,0,0,0,2,t-0.20 Forwardn,34.80162,135.770988
1,6.41,34801620,135770988,3,326.25,0,0,0,0,0,0,2,t-0.20 Forwardn,34.80162,135.770988
1,6.42,34801620,135770988,4,337.5,0,0,0,0,0,0,2,t-0.15 Forwardn,34.80162,135.770988
1,6.43,34801620,135770988,3,326.25,0,0,0,0,0,0,2,t-0.15 Forwardn,34.80162,135.770988
1,6.45,34801620,135770988,3,326.25,0,0,0,0,0,0,2,t-0.15 Forwardn,34.80162,135.770988
1,6.46,34801620,135770988,3,326.25,0,0,0,0,0,0,2,t-0.15 Forwardn,34.80162,135.770988
1,6.47,34801620,135770988,3,326.25,0,0,0,0,0,0,2,t-0.15 Forwardn,34.80162,135.770988
1,6.48,34801620,135770989,4,326.25,0,0,0,0,0,0,2,t-0.16 Forwardn,34.80162,135.770989
1,6.49,34801619,135770989,4,337.5,0,0,0,0,0,0,2,t-0.22 Forwardn,34.801619,135.770989
1,6.5,34801619,135770989,4,337.5,0,0,0,0,0,0,2,t-0.27 Forwardn,34.801619,135.770989
1,6.51,34801619,135770989,3,326.25,0,0,0,0,0,0,2,t-0.27 Forwardn,34.801619,135.770989
1,6.52,34801619,135770989,3,326.25,0,0,0,0,0,0,2,t-0.27 Forwardn,34.801619,135.770989
1,6.53,34801619,135770990,3,326.25,0,0,0,0,0,0,2,t-0.27 Forwardn,34.801619,135.77099
1,6.54,34801619,135770990,3,337.5,0,0,0,0,0,0,2,t-0.27 Forwardn,34.801619,135.77099
1,6.55,34801619,135770990,3,326.25,0,0,0,0,0,0,2,t-0.27 Forwardn,34.801619,135.77099
1,6.56,34801619,135770990,3,326.25,0,0,0,0,0,0,2,t-0.27 Forwardn,34.801619,135.77099
1,6.57,34801618,135770991,3,326.25,0,0,0,0,0,0,2,t-0.29 Forwardn,34.801618,135.770991
1,6.58,34801618,135770991,3,337.5,0,0,0,0,0,0,2,t-0.37 Forwardn,34.801618,135.770991
1,6.59,34801618,135770991,3,337.5,0,0,0,0,0,0,2,t-0.37 Forwardn,34.801618,135.770991
1,7,34801618,135770991,3,326.25,0,0,0,0,0,0,2,t-0.32 Forwardn,34.801618,135.770991
1,7.1,34801618,135770991,3,337.5,0,0,0,0,0,0,2,t-0.38 Forwardn,34.801618,135.770991
1,7.2,34801618,135770991,3,337.5,0,0,0,0,0,0,2,t-0.38 Forwardn,34.801618,135.770991
1,7.3,34801618,135770991,3,326.25,0,0,0,0,0,0,2,t-0.38 Forwardn,34.801618,135.770991
1,7.4,34801618,135770991,3,326.25,0,0,0,0,0,0,2,t-0.38 Forwardn,34.801618,135.770991
1,7.5,34801618,135770991,3,326.25,0,0,0,0,0,0,2,t-0.38 Forwardn,34.801618,135.770991
1,7.6,34801618,135770991,3,326.25,0,0,0,0,0,0,2,t-0.38 Forwardn,34.801618,135.770991
1,7.7,34801617,135770992,3,337.5,0,0,0,0,0,0,2,t-0.26 Forwardn,34.801617,135.770992
1,7.8,34801617,135770992,3,337.5,0,0,0,0,0,0,2,t-0.26 Forwardn,34.801617,135.770992
1,7.9,34801617,135770992,3,337.5,0,0,0,0,0,0,2,t-0.26 Forwardn,34.801617,135.770992
1,7.11,34801617,135770992,3,337.5,0,0,0,0,0,0,2,t-0.26 Forwardn,34.801617,135.770992
1,7.12,34801617,135770992,3,348.75,0,0,0,0,0,0,2,t-0.35 Forwardn,34.801617,135.770992
1,7.13,34801617,135770992,3,337.5,0,0,0,0,0,0,2,t-0.35 Forwardn,34.801617,135.770992
1,7.14,34801617,135770993,3,337.5,0,0,0,0,0,0,2,t-0.33 Forwardn,34.801617,135.770993
1,7.15,34801617,135770993,3,337.5,0,0,0,0,0,0,2,t-0.33 Forwardn,34.801617,135.770993
1,7.16,34801617,135770993,3,326.25,0,0,0,0,0,0,2,t-0.33 Forwardn,34.801617,135.770993
1,7.17,34801617,135770993,3,326.25,0,0,0,0,0,0,2,t-0.33 Forwardn,34.801617,135.770993
1,7.18,34801617,135770993,2,326.25,0,0,0,0,0,0,2,t-0.33 Forwardn,34.801617,135.770993
1,7.19,34801617,135770993,2,326.25,0,0,0,0,0,0,2,t-0.33 Forwardn,34.801617,135.770993
1,7.2,34801617,135770993,2,326.25,0,0,0,0,0,0,2,t-0.33 Forwardn,34.801617,135.770993
1,7.21,34801615,135770994,3,326.25,0,0,0,0,0,0,3,t-0.33 Forwardn,34.801615,135.770994
1,7.22,34801615,135770994,3,326.25,0,0,0,0,1,0,3,00 00 07 02 02NO,34.801615,135.770994
1,7.23,34801615,135770994,3,337.5,0,0,0,0,1,0,3,00 00 00 00 00NO,34.801615,135.770994
1,7.24,34801615,135770994,3,348.75,0,0,0,0,1,0,3,00 00 00 02 02NO,34.801615,135.770994
1,7.25,34801615,135770994,3,348.75,0,0,0,0,1,0,3,00 00 00 02 02NO,34.801615,135.770994
1,7.26,34801615,135770994,3,348.75,0,0,0,0,1,0,3,00 00 00 00 00NO,34.801615,135.770994
1,7.27,34801615,135770994,3,0,0,0,0,0,1,0,3,00 00 00 05 05NO,34.801615,135.770994
1,7.28,34801615,135770995,3,0,0,0,0,0,1,0,3,00 00 00 02 02NO,34.801615,135.770995
1,7.29,34801615,135770995,3,0,0,0,0,0,1,0,3,00 00 01 00 00NO,34.801615,135.770995
1,7.3,34801615,135770995,3,11.25,0,0,0,0,1,0,3,00 00 01 00 00NO,34.801615,135.770995
1,7.31,34801614,135770995,3,22.5,0,0,0,0,1,0,3,00 01 00 00 00NO,34.801614,135.770995
1,7.32,34801614,135770995,3,22.5,0,0,0,0,1,0,3,00 01 00 00 00NO,34.801614,135.770995
1,7.33,34801614,135770995,3,22.5,0,0,0,0,1,0,3,00 01 00 00 00NO,34.801614,135.770995
1,7.34,34801614,135770995,3,33.75,0,0,0,0,1,0,3,00 00 00 00 00NO,34.801614,135.770995
1,7.35,34801614,135770996,3,33.75,0,0,0,0,1,0,3,00 00 00 05 05NO,34.801614,135.770996
1,7.37,34801614,135770996,3,45,0,0,0,0,3,0,3,00 00 00 10 10sR,34.801614,135.770996
1,7.38,34801614,135770996,3,56.25,0,0,0,0,1,0,3,00 00 06 06 06NO,34.801614,135.770996
1,7.39,34801614,135770996,3,67.5,0,0,0,0,1,0,3,00 00 08 02 02NO,34.801614,135.770996
1,7.4,34801614,135770996,3,56.25,0,0,0,0,1,0,3,00 00 08 01 01NO,34.801614,135.770996
1,7.41,34801614,135770996,3,67.5,0,0,0,0,1,0,3,00 04 02 00 00NO,34.801614,135.770996
1,7.42,34801614,135770996,3,78.75,0,0,0,0,1,0,3,02 02 00 00 00NO,34.801614,135.770996
1,7.43,34801614,135770996,2,90,0,0,0,0,1,0,3,00 00 00 00 00NO,34.801614,135.770996
1,7.44,34801614,135770996,2,90,0,0,0,0,1,0,3,00 00 00 00 00NO,34.801614,135.770996
1,7.45,34801613,135770997,3,112.5,0,0,0,0,1,0,3,00 00 00 00 00NO,34.801613,135.770997
1,7.46,34801613,135770997,3,101.25,0,0,0,0,1,0,3,00 00 00 03 03NO,34.801613,135.770997
1,7.47,34801613,135770997,2,112.5,0,0,0,0,1,0,3,00 00 01 05 05NO,34.801613,135.770997
1,7.48,34801613,135770997,2,146.25,0,0,0,0,1,0,3,00 00 05 00 00NO,34.801613,135.770997
1,7.49,34801613,135770997,2,135,0,0,0,0,1,0,3,00 00 02 00 00NO,34.801613,135.770997
1,7.5,34801612,135770997,3,146.25,0,0,0,0,1,0,3,00 00 00 00 00NO,34.801612,135.770997
1,7.51,34801612,135770997,3,157.5,0,0,0,0,1,0,3,02 00 00 00 00NO,34.801612,135.770997
1,7.52,34801612,135770997,3,168.75,0,0,0,0,1,0,3,00 00 00 00 00NO,34.801612,135.770997
1,7.53,34801612,135770997,3,180,0,0,0,0,1,0,3,00 00 00 00 00NO,34.801612,135.770997
1,7.54,34801612,135770997,3,191.25,0,0,0,0,1,0,3,00 00 00 00 00NO,34.801612,135.770997
1,7.55,34801612,135770997,2,202.5,0,0,0,0,1,0,3,00 00 00 00 00NO,34.801612,135.770997
1,7.56,34801612,135770997,2,213.75,0,0,0,0,1,0,3,00 00 00 00 00NO,34.801612,135.770997
1,7.57,34801612,135770997,2,202.5,0,0,0,0,1,0,3,00 00 00 00 00NO,34.801612,135.770997
1,7.58,34801611,135770997,3,213.75,0,0,0,0,1,0,3,00 00 00 00 00NO,34.801611,135.770997
1,7.59,34801611,135770997,3,225,0,0,0,0,1,0,3,00 00 00 00 00NO,34.801611,135.770997
1,8,34801611,135770998,3,236.25,0,0,0,0,1,0,3,00 00 00 00 00NO,34.801611,135.770998
1,8.1,34801611,135770998,2,247.5,0,0,0,0,1,0,3,00 00 00 00 00NO,34.801611,135.770998
1,8.3,34801611,135770998,2,236.25,0,0,0,0,1,0,3,00 00 00 00 00NO,34.801611,135.770998
1,8.4,34801611,135770998,3,258.75,0,0,0,0,1,0,3,00 00 00 01 01NO,34.801611,135.770998
1,8.5,34801610,135770998,3,258.75,0,0,0,0,1,0,3,00 00 00 00 00NO,34.80161,135.770998
1,8.6,34801610,135770998,3,258.75,0,0,0,0,1,0,3,00 00 03 00 00NO,34.80161,135.770998
1,8.7,34801610,135770998,2,270,0,0,0,0,1,0,3,00 00 00 00 00NO,34.80161,135.770998
1,8.8,34801610,135770998,2,258.75,0,0,0,0,1,0,3,00 01 00 00 00NO,34.80161,135.770998
1,8.9,34801610,135770998,2,281.25,0,0,0,0,1,0,3,00 00 00 00 00NO,34.80161,135.770998
1,8.1,34801610,135770998,2,292.5,0,0,0,0,1,0,3,00 00 00 00 00NO,34.80161,135.770998
1,8.11,34801610,135770998,2,281.25,0,0,0,0,1,0,3,00 00 00 00 00NO,34.80161,135.770998
1,8.12,34801610,135770998,2,303.75,0,0,0,0,1,0,3,00 00 02 09 09NO,34.80161,135.770998
1,8.13,34801609,135770998,3,303.75,0,0,0,0,0,0,3,00 00 11 06 06Fo,34.801609,135.770998
1,8.14,34801609,135770998,3,303.75,0,0,0,0,0,0,3,00 00 11 04 04Fo,34.801609,135.770998
1,8.15,34801609,135770998,2,315,0,0,0,0,0,0,3,00 00 13 08 08Fo,34.801609,135.770998
1,8.16,34801609,135770998,3,303.75,0,0,0,0,3,0,3,00 00 05 13 13sR,34.801609,135.770998
1,8.17,34801609,135770998,2,303.75,0,0,0,0,1,0,3,00 00 06 06 06NO,34.801609,135.770998
1,8.18,34801609,135770999,3,315,0,0,0,0,3,0,3,00 00 04 12 12sR,34.801609,135.770999
1,8.19,34801609,135770999,2,315,0,0,0,0,1,0,3,00 00 09 02 02NO,34.801609,135.770999
1,8.2,34801609,135770999,2,315,0,0,0,0,3,0,3,00 07 08 11 11sR,34.801609,135.770999
1,8.21,34801608,135770999,3,326.25,0,0,0,0,1,0,3,00 07 01 00 00NO,34.801608,135.770999
1,8.22,34801608,135770999,3,326.25,0,0,0,0,1,0,3,05 02 02 06 06NO,34.801608,135.770999
1,8.23,34801608,135770999,2,326.25,0,0,0,0,1,0,3,00 01 04 06 06NO,34.801608,135.770999
1,8.24,34801608,135770999,2,326.25,0,0,0,0,1,0,3,00 01 02 04 04NO,34.801608,135.770999
1,8.25,34801608,135770999,2,337.5,0,0,0,0,1,0,3,00 00 06 04 04NO,34.801608,135.770999
1,8.26,34801608,135770999,2,348.75,0,0,0,0,1,0,3,00 00 02 00 00NO,34.801608,135.770999
1,8.27,34801608,135770999,2,348.75,0,0,0,0,1,0,3,00 00 02 02 02NO,34.801608,135.770999
1,8.29,34801607,135771000,2,348.75,0,0,0,0,1,0,3,00 00 00 00 00NO,34.801607,135.771
1,8.3,34801607,135771000,2,0,0,0,0,0,1,0,3,00 00 00 00 00NO,34.801607,135.771
1,8.31,34801607,135771000,2,0,0,0,0,0,1,0,3,00 00 04 02 02NO,34.801607,135.771
1,8.32,34801607,135771000,2,11.25,0,0,0,0,1,0,3,00 00 00 00 00NO,34.801607,135.771
1,8.33,34801607,135771000,2,11.25,0,0,0,0,1,0,3,00 00 06 03 03NO,34.801607,135.771
1,8.34,34801607,135771000,2,11.25,0,0,0,0,1,0,3,00 00 02 02 02NO,34.801607,135.771
1,8.35,34801607,135771000,2,11.25,0,0,0,0,1,0,3,00 00 00 01 01NO,34.801607,135.771
1,8.36,34801607,135771000,2,22.5,0,0,0,0,1,0,3,00 00 07 08 08NO,34.801607,135.771
1,8.37,34801607,135771000,2,22.5,0,0,0,0,1,0,3,00 02 04 02 02NO,34.801607,135.771
1,8.38,34801607,135771000,2,22.5,0,0,0,0,1,0,3,00 01 00 00 00NO,34.801607,135.771
1,8.39,34801607,135771000,2,33.75,0,0,0,0,1,0,3,00 00 00 00 00NO,34.801607,135.771
1,8.4,34801607,135771000,2,45,0,0,0,0,1,0,3,00 00 00 04 04NO,34.801607,135.771
1,8.41,34801607,135771000,2,45,0,0,0,0,1,0,3,00 00 00 08 08NO,34.801607,135.771
1,8.42,34801607,135771000,2,56.25,0,0,0,0,1,0,3,00 00 06 02 02NO,34.801607,135.771
1,8.43,34801606,135771002,2,67.5,0,0,0,0,1,0,3,00 02 01 00 00NO,34.801606,135.771002
1,8.44,34801606,135771002,2,67.5,0,0,0,0,1,0,3,00 02 02 00 00NO,34.801606,135.771002
1,8.45,34801606,135771002,2,67.5,0,0,0,0,1,0,3,00 05 00 00 00NO,34.801606,135.771002
1,8.46,34801606,135771002,2,78.75,0,0,0,0,1,0,3,00 04 00 00 00NO,34.801606,135.771002
1,8.47,34801606,135771002,2,78.75,0,0,0,0,1,0,3,00 00 00 00 00NO,34.801606,135.771002
1,8.48,34801606,135771002,2,90,0,0,0,0,1,0,3,00 00 00 00 00NO,34.801606,135.771002
1,8.49,34801606,135771002,1,90,0,0,0,0,1,0,3,00 00 00 00 00NO,34.801606,135.771002
1,8.5,34801606,135771002,1,112.5,0,0,0,0,1,0,3,00 00 00 03 03NO,34.801606,135.771002
1,8.51,34801606,135771002,1,123.75,0,0,0,0,1,0,3,00 00 03 01 01NO,34.801606,135.771002
1,8.52,34801606,135771002,1,123.75,0,0,0,0,1,0,3,00 00 00 00 00NO,34.801606,135.771002
1,8.53,34801606,135771003,2,146.25,0,0,0,0,1,0,3,00 00 00 00 00NO,34.801606,135.771003
1,8.55,34801606,135771003,2,146.25,0,0,0,0,1,0,3,00 02 00 00 00NO,34.801606,135.771003
1,8.56,34801606,135771003,2,146.25,0,0,0,0,1,0,3,00 00 00 00 00NO,34.801606,135.771003
1,8.57,34801605,135771003,2,157.5,0,0,0,0,1,0,3,00 00 00 00 00NO,34.801605,135.771003
1,8.58,34801605,135771003,2,180,0,0,0,0,1,0,3,00 00 00 00 00NO,34.801605,135.771003
1,8.59,34801605,135771003,2,180,0,0,0,0,1,0,3,00 00 00 00 00NO,34.801605,135.771003
1,9,34801605,135771003,2,202.5,0,0,0,0,1,0,3,00 00 00 00 00NO,34.801605,135.771003
1,9.1,34801605,135771003,2,180,0,0,0,0,1,0,3,00 00 00 00 00NO,34.801605,135.771003
1,9.2,34801605,135771003,1,191.25,0,0,0,0,1,0,3,00 00 00 00 00NO,34.801605,135.771003
1,9.3,34801605,135771003,1,213.75,0,0,0,0,1,0,3,00 00 00 00 00NO,34.801605,135.771003
1,9.4,34801605,135771004,2,213.75,0,0,0,0,1,0,3,00 00 00 00 00NO,34.801605,135.771004
1,9.5,34801605,135771004,2,225,0,0,0,0,1,0,3,00 00 00 00 00NO,34.801605,135.771004
1,9.6,34801605,135771004,2,247.5,0,0,0,0,1,0,3,00 00 00 00 00NO,34.801605,135.771004
1,9.7,34801605,135771004,2,247.5,0,0,0,0,1,0,3,00 00 00 01 01NO,34.801605,135.771004
1,9.8,34801605,135771004,2,258.75,0,0,0,0,1,0,3,00 00 01 00 00NO,34.801605,135.771004
1,9.9,34801605,135771004,2,258.75,0,0,0,0,1,0,3,00 00 00 00 00NO,34.801605,135.771004
1,9.1,34801605,135771004,2,270,0,0,0,0,1,0,3,00 01 00 00 00NO,34.801605,135.771004
1,9.11,34801605,135771004,2,270,0,0,0,0,1,0,3,00 00 00 00 00NO,34.801605,135.771004
1,9.12,34801605,135771004,2,270,0,0,0,0,1,0,3,00 00 00 00 00NO,34.801605,135.771004
1,9.13,34801604,135771004,2,292.5,0,0,0,0,1,0,3,00 00 00 00 00NO,34.801604,135.771004
1,9.14,34801604,135771004,2,303.75,0,0,0,0,3,0,3,00 00 00 00 00sR,34.801604,135.771004
1,9.15,34801604,135771004,2,303.75,0,0,0,0,3,0,3,00 00 00 11 11sR,34.801604,135.771004
1,9.16,34801604,135771004,1,303.75,0,0,0,0,1,0,3,00 00 00 00 00NO,34.801604,135.771004
1,9.17,34801604,135771004,1,303.75,0,0,0,0,1,0,3,00 00 00 07 07NO,34.801604,135.771004
1,9.18,34801604,135771004,1,303.75,0,0,0,0,3,0,3,00 00 00 11 11sR,34.801604,135.771004
1,9.19,34801604,135771004,1,315,0,0,0,0,1,0,3,00 00 09 00 00NO,34.801604,135.771004
1,9.21,34801604,135771004,1,315,0,0,0,0,1,0,3,00 09 00 02 02NO,34.801604,135.771004
1,9.22,34801604,135771004,1,315,0,0,0,0,1,0,3,00 07 00 02 02NO,34.801604,135.771004
1,9.23,34801603,135771004,2,326.25,0,0,0,0,1,0,3,00 06 00 00 00NO,34.801603,135.771004
1,9.24,34801603,135771004,2,326.25,0,0,0,0,1,0,3,03 00 00 00 00NO,34.801603,135.771004
1,9.25,34801603,135771004,2,337.5,0,0,0,0,1,0,3,00 00 00 00 00NO,34.801603,135.771004
1,9.26,34801603,135771004,1,337.5,0,0,0,0,1,0,3,00 00 00 00 00NO,34.801603,135.771004
1,9.27,34801603,135771004,1,348.75,0,0,0,0,1,0,3,00 00 00 00 00NO,34.801603,135.771004
1,9.28,34801603,135771004,1,348.75,0,0,0,0,1,0,3,00 00 00 00 00NO,34.801603,135.771004
1,9.29,34801602,135771005,2,348.75,0,0,0,0,1,0,3,00 00 00 00 00NO,34.801602,135.771005
1,9.3,34801602,135771005,2,0,0,0,0,0,1,0,3,00 00 00 01 01NO,34.801602,135.771005
1,9.31,34801602,135771005,1,0,0,0,0,0,1,0,3,00 00 00 01 01NO,34.801602,135.771005
1,9.32,34801602,135771005,2,11.25,0,0,0,0,1,0,3,00 00 00 01 01NO,34.801602,135.771005
1,9.33,34801602,135771005,2,11.25,0,0,0,0,1,0,3,00 00 00 00 00NO,34.801602,135.771005
1,9.34,34801602,135771005,1,22.5,0,0,0,0,1,0,3,00 00 01 00 00NO,34.801602,135.771005
1,9.35,34801602,135771005,1,22.5,0,0,0,0,1,0,3,00 00 00 00 00NO,34.801602,135.771005
1,9.36,34801602,135771005,1,33.75,0,0,0,0,1,0,3,00 00 01 00 00NO,34.801602,135.771005
1,9.37,34801602,135771005,1,33.75,0,0,0,0,1,0,3,00 00 00 00 00NO,34.801602,135.771005
1,9.38,34801602,135771005,1,45,0,0,0,0,1,0,3,00 00 00 06 06NO,34.801602,135.771005
1,9.39,34801602,135771006,2,56.25,0,0,0,0,1,0,3,00 00 02 01 01NO,34.801602,135.771006
1,9.4,34801602,135771006,1,56.25,0,0,0,0,1,0,3,00 00 00 00 00NO,34.801602,135.771006
1,9.41,34801602,135771006,1,56.25,0,0,0,0,1,0,3,00 06 02 00 00NO,34.801602,135.771006
1,9.42,34801602,135771006,1,67.5,0,0,0,0,1,0,3,00 04 00 00 00NO,34.801602,135.771006
1,9.43,34801602,135771006,1,101.25,0,0,0,0,1,0,3,00 00 00 00 00NO,34.801602,135.771006
1,9.44,34801602,135771006,1,101.25,0,0,0,0,1,0,3,00 00 00 00 00NO,34.801602,135.771006
1,9.45,34801601,135771007,2,112.5,0,0,0,0,1,0,3,00 00 00 04 04NO,34.801601,135.771007
1,9.47,34801601,135771007,1,112.5,0,0,0,0,1,0,3,00 00 00 06 06NO,34.801601,135.771007
1,9.48,34801601,135771007,1,112.5,0,0,0,0,1,0,3,00 00 00 00 00NO,34.801601,135.771007
1,9.49,34801601,135771007,1,101.25,0,0,0,0,1,0,3,00 00 00 00 00NO,34.801601,135.771007
1,9.5,34801601,135771007,2,101.25,0,0,0,0,1,0,3,00 00 00 02 02NO,34.801601,135.771007
1,9.51,34801601,135771007,1,123.75,0,0,0,0,1,0,3,00 00 01 05 05NO,34.801601,135.771007
1,9.52,34801601,135771007,1,135,0,0,0,0,1,0,3,00 00 05 00 00NO,34.801601,135.771007
1,9.53,34801601,135771007,1,123.75,0,0,0,0,1,0,3,00 00 04 00 00NO,34.801601,135.771007
1,9.54,34801601,135771007,1,123.75,0,0,0,0,1,0,3,00 01 00 00 00NO,34.801601,135.771007
1,9.55,34801601,135771007,1,112.5,0,0,0,0,1,0,3,00 01 00 00 00NO,34.801601,135.771007
1,9.56,34801601,135771008,1,135,0,0,0,0,1,0,3,01 00 00 00 00NO,34.801601,135.771008
1,9.57,34801601,135771008,1,146.25,0,0,0,0,1,0,3,02 00 00 00 00NO,34.801601,135.771008
1,9.58,34801601,135771008,1,168.75,0,0,0,0,1,0,3,00 00 00 00 00NO,34.801601,135.771008
1,9.59,34801601,135771008,1,168.75,0,0,0,0,1,0,3,00 00 00 02 02NO,34.801601,135.771008
1,10,34801601,135771008,1,191.25,0,0,0,0,1,0,3,00 00 00 00 00NO,34.801601,135.771008
1,10.1,34801601,135771008,1,202.5,0,0,0,0,1,0,3,00 00 00 00 00NO,34.801601,135.771008
1,10.2,34801601,135771008,1,202.5,0,0,0,0,1,0,3,00 00 00 00 00NO,34.801601,135.771008
1,10.3,34801601,135771008,1,225,0,0,0,0,1,0,3,00 00 00 00 00NO,34.801601,135.771008
1,10.4,34801601,135771008,1,225,0,0,0,0,1,0,3,00 00 00 00 00NO,34.801601,135.771008
1,10.5,34801601,135771008,1,247.5,0,0,0,0,1,0,3,00 00 00 00 00NO,34.801601,135.771008
1,10.6,34801601,135771008,1,258.75,0,0,0,0,1,0,3,00 00 00 00 00NO,34.801601,135.771008
1,10.7,34801601,135771008,1,247.5,0,0,0,0,1,0,3,00 00 00 00 00NO,34.801601,135.771008
1,10.8,34801601,135771008,1,258.75,0,0,0,0,1,0,3,00 01 00 00 00NO,34.801601,135.771008
1,10.9,34801601,135771008,1,258.75,0,0,0,0,1,0,3,00 00 00 00 00NO,34.801601,135.771008
1,10.1,34801601,135771008,1,281.25,0,0,0,0,1,0,3,00 00 00 00 00NO,34.801601,135.771008
1,10.11,34801601,135771008,1,281.25,0,0,0,0,1,0,3,00 00 00 00 00NO,34.801601,135.771008
1,10.13,34801601,135771008,1,292.5,0,0,0,0,1,0,3,00 00 00 01 01NO,34.801601,135.771008
1,10.14,34801601,135771008,1,303.75,0,0,0,0,3,0,3,00 00 02 13 13sR,34.801601,135.771008
1,10.15,34801601,135771008,1,303.75,0,0,0,0,3,0,3,00 00 02 11 11sR,34.801601,135.771008
1,10.16,34801601,135771008,1,303.75,0,0,0,0,1,0,3,00 00 08 02 02NO,34.801601,135.771008
1,10.17,34801601,135771008,1,303.75,0,0,0,0,1,0,3,00 00 08 02 02NO,34.801601,135.771008
1,10.18,34801601,135771008,1,303.75,0,0,0,0,3,0,3,00 00 02 15 15sR,34.801601,135.771008
1,10.19,34801601,135771008,1,303.75,0,0,0,0,3,0,3,00 00 01 13 13sR,34.801601,135.771008
1,10.2,34801601,135771008,1,292.5,11.2,0,0,0,3,0,3,00 00 00 11 11sR,34.801601,135.771008
1,10.21,34801601,135771008,1,303.75,0,0,0,0,1,0,3,00 00 00 07 07NO,34.801601,135.771008
1,10.22,34801601,135771008,1,303.75,0,0,0,0,1,0,3,00 00 00 06 06NO,34.801601,135.771008
1,10.23,34801601,135771008,1,303.75,0,0,0,0,1,0,3,00 00 08 06 06NO,34.801601,135.771008
1,10.24,34801601,135771008,1,315,0,0,0,0,0,0,3,00 00 11 00 00Fo,34.801601,135.771008
1,10.25,34801601,135771008,1,315,0,0,0,0,0,0,3,00 00 13 03 03Fo,34.801601,135.771008
1,10.26,34801601,135771008,1,315,0,0,0,0,1,0,3,00 03 09 01 01NO,34.801601,135.771008
1,10.27,34801601,135771008,1,315,0,0,0,0,1,0,3,00 04 00 00 00NO,34.801601,135.771008
1,10.28,34801601,135771008,1,315,0,0,0,0,1,0,3,00 06 00 00 00NO,34.801601,135.771008
1,10.29,34801601,135771008,1,326.25,0,0,0,0,1,0,3,02 06 00 00 00NO,34.801601,135.771008
1,10.3,34801601,135771008,1,326.25,0,0,0,3,0,0,3,00 10 00 00 00aL,34.801601,135.771008
1,10.31,34801601,135771009,1,315,0,0,0,0,1,0,3,00 07 00 00 00NO,34.801601,135.771009
1,10.32,34801601,135771009,1,315,0,0,0,3,0,0,3,00 10 00 00 00aL,34.801601,135.771009
1,10.33,34801601,135771009,1,326.25,0,0,0,0,1,0,3,00 05 00 00 00NO,34.801601,135.771009
1,10.34,34801601,135771009,1,326.25,0,0,0,0,1,0,3,08 06 00 00 00NO,34.801601,135.771009
1,10.35,34801601,135771009,1,326.25,0,0,0,2,0,0,3,13 00 00 00 00aL,34.801601,135.771009
1,10.36,34801601,135771010,1,326.25,0,0,0,0,1,0,3,05 00 00 00 00NO,34.801601,135.77101
1,10.37,34801601,135771010,1,326.25,0,0,0,0,1,0,3,01 00 00 00 00NO,34.801601,135.77101
1,10.39,34801600,135771010,1,337.5,0,0,0,0,1,0,3,00 00 00 00 00NO,34.8016,135.77101
1,10.4,34801600,135771010,1,348.75,0,0,0,0,1,0,3,00 00 00 00 00NO,34.8016,135.77101
1,10.41,34801600,135771010,1,348.75,0,0,0,0,1,0,3,00 00 00 00 00NO,34.8016,135.77101
1,10.42,34801600,135771010,1,348.75,0,0,0,0,1,0,3,00 00 00 00 00NO,34.8016,135.77101
1,10.43,34801600,135771010,1,348.75,0,0,0,0,1,0,3,00 00 00 00 00NO,34.8016,135.77101
1,10.44,34801600,135771010,1,0,11.2,0,0,0,1,0,3,00 00 00 00 00NO,34.8016,135.77101
1,10.45,34801600,135771010,1,0,0,0,0,0,1,0,3,00 00 00 00 00NO,34.8016,135.77101
1,10.46,34801600,135771010,1,0,0,0,0,0,1,0,3,00 00 00 00 00NO,34.8016,135.77101
1,10.47,34801600,135771010,1,11.25,0,0,0,0,1,0,3,00 00 00 00 00NO,34.8016,135.77101
1,10.48,34801600,135771010,1,0,0,0,0,0,1,0,3,00 00 00 00 00NO,34.8016,135.77101
1,10.49,34801600,135771010,1,11.25,0,0,0,0,1,0,3,00 00 00 00 00NO,34.8016,135.77101
1,10.5,34801600,135771010,1,0,0,0,0,0,1,0,3,00 00 00 00 00NO,34.8016,135.77101
1,10.51,34801600,135771011,1,11.25,0,0,0,0,1,0,3,00 00 02 06 06NO,34.8016,135.771011
1,10.52,34801600,135771011,1,11.25,0,0,0,0,1,0,3,00 00 00 02 02NO,34.8016,135.771011
