code,min.sec,lat,lon,dist,yaw,roll,pitch,yaw_to_goal,motor_left,motor_right,stack,seq,data,latitude,longitude
2,0.4,34801534,135770964,7,123.75,0,0,0,0,0,0,1,155.7 altNRdy,34.801534,135.770964
2,0.5,34801534,135770964,6,123.75,0,0,0,0,0,0,1,155.7 altNRdy,34.801534,135.770964
2,0.6,34801520,135770941,9,123.75,0,0,0,0,0,0,1,155.6 altNRdy,34.80152,135.770941
2,0.4,0,0,246,157.5,0,56.2,0,0,0,0,1,154.7 altNRdy,0,0
2,0.5,34801527,135770909,12,45,78.8,0,0,0,0,0,1,155.3 altNRdy,34.801527,135.770909
2,0.6,34801528,135770916,11,281.25,33.8,0,0,0,0,0,1,155.8 altNRdy,34.801528,135.770916
2,0.7,34801528,135770916,10,78.75,0,0,0,0,0,0,1,155.6 altNRdy,34.801528,135.770916
2,0.8,34801528,135770916,10,315,0,0,0,0,0,0,1,155.8 c6 Rise,34.801528,135.770916
2,0.9,34801508,135770952,10,78.75,11.2,0,0,0,0,0,1,155.8 c6 Rise,34.801508,135.770952
2,0.1,34801519,135770948,9,11.25,0,0,0,0,0,0,1,155.8 c6 Rise,34.801519,135.770948
2,0.11,34801523,135770942,9,168.75,0,0,0,0,0,0,1,155.8 c6 Rise,34.801523,135.770942
2,0.12,34801521,135770933,10,33.75,0,0,0,0,0,0,1,155.8 c6 Rise,34.801521,135.770933
2,0.13,34801520,135770927,11,202.5,0,0,0,0,0,0,1,155.8 c6 Rise,34.80152,135.770927
2,0.15,34801523,135770916,11,90,0,0,0,0,0,0,1,155.8 c6 Rise,34.801523,135.770916
2,0.16,34801523,135770916,10,146.25,0,0,0,0,0,0,1,155.0 c5 Fall,34.801523,135.770916
2,0.17,34801525,135770905,12,168.75,0,56.2,0,0,0,0,1,155.0 c5 Fall,34.801525,135.770905
2,0.18,34801525,135770905,11,123.75,0,67.5,0,0,0,0,1,155.0 c5 Fall,34.801525,135.770905
2,0.19,34801525,135770905,11,123.75,0,67.5,0,0,0,0,1,155.0 c5 Fall,34.801525,135.770905
2,0.2,34801525,135770905,10,123.75,0,67.5,0,0,0,0,6,NC 0 Heata  0 L,34.801525,135.770905
2,0.21,34801532,135770898,13,123.75,0,67.5,0,0,0,0,6,NC 2 Heata  0 L,34.801532,135.770898
2,0.22,34801534,135770896,13,112.5,0,56.2,0,0,0,0,6,NC 4 Heata  0 L,34.801534,135.770896
2,0.23,34801534,135770896,12,101.25,0,45,0,0,0,0,6,NC 6 Heata  0 L,34.801534,135.770896
2,0.24,34801537,135770893,12,135,0,45,0,0,2,0,2,t2.14 Right 0 L,34.801537,135.770893
2,0.25,34801540,135770890,12,135,0,0,0,0,2,0,2,t1.94 Right 0 L,34.80154,135.77089
2,0.26,34801540,135770890,12,123.75,0,0,0,0,2,0,2,t1.94 Right 0 L,34.80154,135.77089
2,0.27,34801540,135770890,11,123.75,0,0,0,0,2,0,2,t1.94 Right 0 L,34.80154,135.77089
2,0.28,34801540,135770890,11,123.75,0,0,0,0,2,0,2,t1.94 Right 0 L,34.80154,135.77089
2,0.29,34801548,135770883,12,157.5,0,0,0,0,2,0,2,t2.29 Right 0 L,34.801548,135.770883
2,0.3,34801548,135770883,12,146.25,0,0,0,0,2,0,2,t2.29 Right 0 L,34.801548,135.770883
2,0.31,34801548,135770883,12,146.25,0,0,0,0,2,0,2,t2.29 Right 0 L,34.801548,135.770883
2,0.32,34801553,135770876,13,157.5,0,0,0,0,2,0,2,t1.96 Right 0 L,34.801553,135.770876
2,0.33,34801553,135770876,13,146.25,0,0,0,0,2,0,2,t1.96 Right 0 L,34.801553,135.770876
2,0.34,34801553,135770876,12,146.25,0,0,0,0,2,0,2,t1.96 Right 0 L,34.801553,135.770876
2,0.35,34801553,135770876,13,146.25,0,0,0,0,2,0,2,t1.96 Right 0 L,34.801553,135.770876
2,0.36,34801559,135770870,13,146.25,0,0,0,0,2,0,2,t1.95 Right 0 L,34.801559,135.77087
2,0.37,34801559,135770870,13,146.25,0,0,0,0,2,0,2,t1.95 Right 0 L,34.801559,135.77087
2,0.38,34801559,135770870,13,146.25,0,0,0,0,2,0,2,t1.95 Right 0 L,34.801559,135.77087
2,0.39,34801559,135770870,13,146.25,0,0,0,0,2,0,2,t1.95 Right 0 L,34.801559,135.77087
2,0.41,34801559,135770870,13,146.25,0,0,0,0,2,0,2,t1.95 Right 0 L,34.801559,135.77087
2,0.42,34801559,135770870,13,146.25,0,0,0,0,2,0,2,t1.95 Right 0 L,34.801559,135.77087
2,0.43,34801567,135770864,14,146.25,0,0,0,0,2,0,2,t2.03 Right 0 L,34.801567,135.770864
2,0.44,34801568,135770863,14,157.5,0,0,0,0,2,0,2,t1.90 Right 0 L,34.801568,135.770863
2,0.45,34801568,135770863,14,146.25,0,0,0,0,2,0,2,t1.90 Right 0 L,34.801568,135.770863
2,0.46,34801568,135770863,14,146.25,0,0,0,0,2,0,2,t1.90 Right 0 L,34.801568,135.770863
2,0.47,34801572,135770862,14,146.25,0,0,0,0,2,0,2,t2.06 Right 0 L,34.801572,135.770862
2,0.48,34801573,135770862,14,146.25,0,0,0,0,2,0,2,t2.06 Right 0 L,34.801573,135.770862
2,0.49,34801573,135770862,14,157.5,0,0,0,0,2,0,2,t2.06 Right 0 L,34.801573,135.770862
2,0.5,34801573,135770862,14,157.5,0,0,0,0,2,0,2,t2.06 Right 0 L,34.801573,135.770862
2,0.51,34801573,135770862,14,157.5,0,0,0,0,2,0,2,t2.06 Right 0 L,34.801573,135.770862
2,0.52,34801576,135770862,14,168.75,0,0,0,0,2,0,2,t1.96 Right 0 L,34.801576,135.770862
2,0.53,34801576,135770862,14,157.5,0,0,0,0,2,0,2,t1.96 Right 0 L,34.801576,135.770862
2,0.54,34801577,135770863,14,180,0,0,0,0,2,0,2,t1.87 Right 0 L,34.801577,135.770863
2,0.55,34801577,135770863,14,157.5,0,0,0,0,2,0,2,t1.87 Right 0 L,34.801577,135.770863
2,0.56,34801578,135770864,14,168.75,0,0,0,0,2,0,2,t1.92 Right 0 L,34.801578,135.770864
2,0.57,34801578,135770864,14,168.75,0,0,0,0,2,0,2,t1.92 Right 0 L,34.801578,135.770864
2,0.58,34801578,135770864,14,168.75,0,0,0,0,2,0,2,t1.92 Right 0 L,34.801578,135.770864
2,0.59,34801578,135770864,14,168.75,0,0,0,0,2,0,2,t1.92 Right 0 L,34.801578,135.770864
2,1,34801578,135770864,14,157.5,0,0,0,0,2,0,2,t1.92 Right 0 L,34.801578,135.770864
2,1.1,34801581,135770866,14,180,0,0,0,0,2,0,2,t1.82 Right 0 L,34.801581,135.770866
2,1.2,34801581,135770866,13,168.75,0,0,0,0,2,0,2,t1.82 Right 0 L,34.801581,135.770866
2,1.3,34801583,135770868,13,180,0,0,0,0,2,0,2,t1.74 Right 0 L,34.801583,135.770868
2,1.4,34801583,135770868,13,168.75,0,0,0,0,2,0,2,t1.74 Right 0 L,34.801583,135.770868
2,1.5,34801584,135770870,13,191.25,0,0,0,0,2,0,2,t1.70 Right 0 L,34.801584,135.77087
2,1.7,34801584,135770870,13,168.75,0,0,0,0,2,0,2,t1.70 Right 0 L,34.801584,135.77087
2,1.8,34801584,135770873,13,180,0,0,0,0,2,0,2,t1.77 Right 0 L,34.801584,135.770873
2,1.9,34801584,135770873,13,180,0,0,0,0,2,0,2,t1.77 Right 0 L,34.801584,135.770873
2,1.1,34801584,135770873,13,180,0,0,0,0,2,0,2,t1.77 Right 0 L,34.801584,135.770873
2,1.11,34801584,135770873,13,180,0,0,0,0,2,0,2,t1.77 Right 0 L,34.801584,135.770873
2,1.12,34801584,135770873,13,180,0,0,0,0,2,0,2,t1.77 Right 0 L,34.801584,135.770873
2,1.13,34801588,135770878,12,180,0,0,0,0,2,0,2,t1.68 Right 0 L,34.801588,135.770878
2,1.14,34801589,135770879,12,180,0,0,0,0,2,0,2,t1.81 Right 0 L,34.801589,135.770879
2,1.15,34801589,135770880,12,168.75,0,0,0,0,2,0,2,t1.86 Right 0 L,34.801589,135.77088
2,1.16,34801589,135770880,12,168.75,0,0,0,0,2,0,2,t1.86 Right 0 L,34.801589,135.77088
2,1.17,34801589,135770880,12,168.75,0,0,0,0,2,0,2,t1.86 Right 0 L,34.801589,135.77088
2,1.18,34801589,135770880,12,168.75,0,0,0,0,2,0,2,t1.86 Right 0 L,34.801589,135.77088
2,1.19,34801592,135770884,12,191.25,0,0,0,0,2,0,2,t1.85 Right 0 L,34.801592,135.770884
2,1.2,34801592,135770884,12,180,0,0,0,0,2,0,2,t1.85 Right 0 L,34.801592,135.770884
2,1.21,34801594,135770885,12,180,0,0,0,0,2,0,2,t1.66 Right 0 L,34.801594,135.770885
2,1.22,34801594,135770886,12,168.75,0,0,0,0,2,0,2,t1.84 Right 0 L,34.801594,135.770886
2,1.23,34801594,135770886,12,157.5,0,0,0,0,2,0,2,t1.84 Right 0 L,34.801594,135.770886
2,1.24,34801594,135770886,12,157.5,0,0,0,0,2,0,2,t1.84 Right 0 L,34.801594,135.770886
2,1.25,34801597,135770887,12,180,0,0,0,0,2,0,2,t1.92 Right 0 L,34.801597,135.770887
2,1.26,34801597,135770887,12,168.75,0,0,0,0,2,0,2,t1.92 Right 0 L,34.801597,135.770887
2,1.27,34801597,135770887,12,168.75,0,0,0,0,2,0,2,t1.92 Right 0 L,34.801597,135.770887
2,1.28,34801597,135770887,12,168.75,0,0,0,0,2,0,2,t1.92 Right 0 L,34.801597,135.770887
2,1.29,34801599,135770889,11,180,0,0,0,0,2,0,2,t1.93 Right 0 L,34.801599,135.770889
2,1.3,34801599,135770890,11,191.25,0,0,0,0,2,0,2,t1.77 Right 0 L,34.801599,135.77089
2,1.31,34801600,135770891,11,191.25,0,0,0,0,2,0,2,t1.74 Right 0 L,34.8016,135.770891
2,1.33,34801600,135770891,11,180,0,0,0,0,2,0,2,t1.74 Right 0 L,34.8016,135.770891
2,1.34,34801601,135770892,11,202.5,0,0,0,0,2,0,2,t1.71 Right 0 L,34.801601,135.770892
2,1.35,34801601,135770892,11,180,0,0,0,0,2,0,2,t1.71 Right 0 L,34.801601,135.770892
2,1.36,34801602,135770893,11,191.25,0,0,0,0,2,0,2,t1.59 Right 0 L,34.801602,135.770893
2,1.37,34801602,135770894,11,191.25,0,0,0,0,2,0,2,t1.58 Right 0 L,34.801602,135.770894
2,1.38,34801602,135770894,11,180,0,0,0,0,2,0,2,t1.58 Right 0 L,34.801602,135.770894
2,1.39,34801602,135770894,11,180,0,0,0,0,2,0,2,t1.58 Right 0 L,34.801602,135.770894
2,1.4,34801602,135770894,11,180,0,0,0,0,2,0,2,t1.58 Right 0 L,34.801602,135.770894
2,1.41,34801602,135770894,11,180,0,0,0,0,2,0,2,t1.58 Right 0 L,34.801602,135.770894
2,1.42,34801604,135770897,11,191.25,0,0,0,0,2,0,2,t1.70 Right 0 L,34.801604,135.770897
2,1.43,34801604,135770897,10,168.75,0,0,0,0,2,0,2,t1.70 Right 0 L,34.801604,135.770897
2,1.44,34801604,135770897,11,168.75,0,0,0,0,2,0,2,t1.70 Right 0 L,34.801604,135.770897
2,1.45,34801604,135770897,11,168.75,0,0,0,0,2,0,2,t1.70 Right 0 L,34.801604,135.770897
2,1.46,34801604,135770897,11,168.75,0,0,0,0,2,0,2,t1.70 Right 0 L,34.801604,135.770897
2,1.47,34801604,135770897,11,168.75,0,0,0,0,2,0,2,t1.70 Right 0 L,34.801604,135.770897
2,1.48,34801607,135770901,10,191.25,0,0,0,0,2,0,2,t1.82 Right 0 L,34.801607,135.770901
2,1.49,34801607,135770901,10,180,0,0,0,0,2,0,2,t1.82 Right 0 L,34.801607,135.770901
2,1.5,34801608,135770902,10,191.25,0,0,0,0,2,0,2,t1.64 Right 0 L,34.801608,135.770902
2,1.51,34801608,135770902,10,180,0,0,0,0,2,0,2,t1.64 Right 0 L,34.801608,135.770902
2,1.52,34801608,135770902,10,180,0,0,0,0,2,0,2,t1.64 Right 0 L,34.801608,135.770902
2,1.53,34801608,135770902,10,180,0,0,0,0,2,0,2,t1.64 Right 0 L,34.801608,135.770902
2,1.54,34801608,135770902,10,180,0,0,0,0,2,0,2,t1.64 Right 0 L,34.801608,135.770902
2,1.55,34801609,135770904,10,180,0,0,0,0,2,0,2,t1.68 Right 0 L,34.801609,135.770904
2,1.56,34801609,135770904,10,191.25,0,0,0,0,2,0,2,t1.68 Right 0 L,34.801609,135.770904
2,1.57,34801609,135770904,10,191.25,0,0,0,0,2,0,2,t1.68 Right 0 L,34.801609,135.770904
2,1.59,34801609,135770904,10,191.25,0,0,0,0,2,0,2,t1.68 Right 0 L,34.801609,135.770904
2,2,34801610,135770906,10,191.25,0,0,0,0,2,0,2,t1.61 Right 0 L,34.80161,135.770906
2,2.1,34801611,135770906,10,180,0,0,0,0,2,0,2,t1.75 Right 0 L,34.801611,135.770906
2,2.2,34801611,135770906,10,191.25,0,0,0,0,2,0,2,t1.75 Right 0 L,34.801611,135.770906
2,2.3,34801612,135770907,10,191.25,0,0,0,0,2,0,2,t1.58 Right 0 L,34.801612,135.770907
2,2.4,34801612,135770907,10,191.25,0,0,0,0,2,0,2,t1.58 Right 0 L,34.801612,135.770907
2,2.5,34801612,135770909,10,191.25,0,0,0,0,2,0,2,t1.58 Right 0 L,34.801612,135.770909
2,2.6,34801612,135770909,10,202.5,0,0,0,0,2,0,2,t1.58 Right 0 L,34.801612,135.770909
2,2.7,34801613,135770910,10,202.5,0,0,0,0,2,0,2,t1.36 Right 0 L,34.801613,135.77091
2,2.8,34801614,135770911,10,191.25,0,0,0,0,2,0,2,t1.54 Right 0 L,34.801614,135.770911
2,2.9,34801614,135770911,9,202.5,0,0,0,0,2,0,2,t1.54 Right 0 L,34.801614,135.770911
2,2.1,34801614,135770911,9,202.5,0,0,0,0,2,0,2,t1.54 Right 0 L,34.801614,135.770911
2,2.11,34801615,135770912,10,202.5,0,0,0,0,2,0,2,t1.36 Right 0 L,34.801615,135.770912
2,2.12,34801615,135770912,9,191.25,0,0,0,0,2,0,2,t1.36 Right 0 L,34.801615,135.770912
2,2.13,34801615,135770912,9,191.25,0,0,0,0,2,0,2,t1.36 Right 0 L,34.801615,135.770912
2,2.14,34801615,135770912,10,191.25,0,0,0,0,2,0,2,t1.36 Right 0 L,34.801615,135.770912
2,2.15,34801615,135770912,9,191.25,0,0,0,0,2,0,2,t1.36 Right 0 L,34.801615,135.770912
2,2.16,34801616,135770916,9,191.25,0,0,0,0,2,0,2,t1.66 Right 0 L,34.801616,135.770916
2,2.17,34801616,135770916,9,202.5,0,0,0,0,2,0,2,t1.66 Right 0 L,34.801616,135.770916
2,2.18,34801616,135770916,9,202.5,0,0,0,0,2,0,2,t1.66 Right 0 L,34.801616,135.770916
2,2.19,34801617,135770917,9,202.5,0,0,0,0,2,0,2,t1.39 Right 0 L,34.801617,135.770917
2,2.2,34801617,135770917,9,191.25,0,0,0,0,2,0,2,t1.39 Right 0 L,34.801617,135.770917
2,2.21,34801617,135770917,9,191.25,0,0,0,0,2,0,2,t1.39 Right 0 L,34.801617,135.770917
2,2.22,34801617,135770917,9,191.25,0,0,0,0,2,0,2,t1.39 Right 0 L,34.801617,135.770917
2,2.23,34801619,135770918,9,213.75,0,0,0,0,2,0,2,t1.59 Right 0 L,34.801619,135.770918
2,2.25,34801619,135770918,9,202.5,0,0,0,0,2,0,2,t1.59 Right 0 L,34.801619,135.770918
2,2.26,34801619,135770918,9,202.5,0,0,0,0,2,0,2,t1.59 Right 0 L,34.801619,135.770918
2,2.27,34801619,135770918,9,202.5,0,0,0,0,2,0,2,t1.59 Right 0 L,34.801619,135.770918
2,2.28,34801620,135770920,9,202.5,0,0,0,0,2,0,2,t1.38 Right 0 L,34.80162,135.77092
2,2.29,34801620,135770920,9,191.25,0,0,0,0,2,0,2,t1.38 Right 0 L,34.80162,135.77092
2,2.3,34801621,135770921,9,191.25,0,0,0,0,2,0,2,t1.60 Right 0 L,34.801621,135.770921
2,2.31,34801621,135770921,9,213.75,0,0,0,0,2,0,2,t1.60 Right 0 L,34.801621,135.770921
2,2.32,34801621,135770921,9,213.75,0,0,0,0,2,0,2,t1.60 Right 0 L,34.801621,135.770921
2,2.33,34801621,135770922,9,213.75,0,0,0,0,2,0,2,t1.32 Right 0 L,34.801621,135.770922
2,2.34,34801621,135770922,9,202.5,0,0,0,0,2,0,2,t1.36 Right 0 L,34.801621,135.770922
2,2.35,34801621,135770922,9,225,0,0,0,0,2,0,2,t1.36 Right 0 L,34.801621,135.770922
2,2.36,34801622,135770923,9,225,0,0,0,0,2,0,2,t1.06 Right 0 L,34.801622,135.770923
2,2.37,34801622,135770923,9,213.75,0,0,0,0,2,0,2,t1.06 Right 0 L,34.801622,135.770923
2,2.38,34801622,135770923,8,213.75,0,0,0,0,2,0,2,t1.06 Right 0 L,34.801622,135.770923
2,2.39,34801622,135770923,8,213.75,0,0,0,0,2,0,2,t1.06 Right 0 L,34.801622,135.770923
2,2.4,34801623,135770924,9,213.75,0,0,0,0,2,0,2,t1.31 Right 0 L,34.801623,135.770924
2,2.41,34801623,135770924,9,225,0,0,0,0,2,0,2,t1.31 Right 0 L,34.801623,135.770924
2,2.42,34801623,135770924,9,225,0,0,0,0,2,0,2,t1.31 Right 0 L,34.801623,135.770924
2,2.43,34801623,135770926,9,225,0,0,0,0,2,0,2,t1.16 Right 0 L,34.801623,135.770926
2,2.44,34801623,135770926,9,213.75,0,0,0,0,2,0,2,t1.16 Right 0 L,34.801623,135.770926
2,2.45,34801623,135770926,9,213.75,0,0,0,0,2,0,2,t1.16 Right 0 L,34.801623,135.770926
2,2.46,34801624,135770927,9,225,0,0,0,0,2,0,2,t1.28 Right 0 L,34.801624,135.770927
2,2.47,34801624,135770928,9,213.75,0,0,0,0,2,0,2,t1.38 Right 0 L,34.801624,135.770928
2,2.48,34801624,135770928,9,213.75,0,0,0,0,2,0,2,t1.38 Right 0 L,34.801624,135.770928
2,2.49,34801624,135770928,8,202.5,0,0,0,0,2,0,2,t1.38 Right 0 L,34.801624,135.770928
2,2.51,34801625,135770929,9,225,0,0,0,0,2,0,2,t1.45 Right 0 L,34.801625,135.770929
2,2.52,34801625,135770929,9,225,0,0,0,0,2,0,2,t1.45 Right 0 L,34.801625,135.770929
2,2.53,34801626,135770930,9,225,0,0,0,0,2,0,2,t1.19 Right 0 L,34.801626,135.77093
2,2.54,34801626,135770930,8,213.75,0,0,0,0,2,0,2,t1.19 Right 0 L,34.801626,135.77093
2,2.55,34801626,135770930,8,213.75,0,0,0,0,2,0,2,t1.19 Right 0 L,34.801626,135.77093
2,2.56,34801626,135770930,8,225,0,0,0,0,2,0,2,t1.19 Right 0 L,34.801626,135.77093
2,2.57,34801626,135770930,8,225,0,0,0,0,2,0,2,t1.19 Right 0 L,34.801626,135.77093
2,2.58,34801627,135770932,9,213.75,0,0,0,0,2,0,2,t1.29 Right 0 L,34.801627,135.770932
2,2.59,34801628,135770932,9,236.25,0,0,0,0,2,0,2,t1.04 Right 0 L,34.801628,135.770932
2,3,34801628,135770932,8,225,0,0,0,0,2,0,2,t1.04 Right 0 L,34.801628,135.770932
2,3.1,34801628,135770932,8,225,0,0,0,0,2,0,2,t1.04 Right 0 L,34.801628,135.770932
2,3.2,34801628,135770933,9,225,0,0,0,0,2,0,2,t1.29 Right 0 L,34.801628,135.770933
2,3.3,34801628,135770934,8,247.5,0,0,0,0,2,0,2,t0.90 Right 0 L,34.801628,135.770934
2,3.4,34801628,135770934,8,236.25,0,0,0,0,2,0,2,t0.90 Right 0 L,34.801628,135.770934
2,3.5,34801628,135770934,8,236.25,0,0,0,0,2,0,2,t1.08 Right 0 L,34.801628,135.770934
2,3.6,34801628,135770934,8,247.5,0,0,0,0,2,0,2,t1.08 Right 0 L,34.801628,135.770934
2,3.7,34801628,135770934,8,247.5,0,0,0,0,2,0,2,t1.08 Right 0 L,34.801628,135.770934
2,3.8,34801628,135770934,8,247.5,0,0,0,0,2,0,2,t1.08 Right 0 L,34.801628,135.770934
2,3.9,34801629,135770936,8,247.5,0,0,0,0,2,0,2,t0.81 Right 0 L,34.801629,135.770936
2,3.1,34801629,135770936,8,236.25,0,0,0,0,2,0,2,t0.81 Right 0 L,34.801629,135.770936
2,3.11,34801629,135770936,8,236.25,0,0,0,0,2,0,2,t1.09 Right 0 L,34.801629,135.770936
2,3.12,34801629,135770936,8,258.75,0,0,0,0,2,0,2,t1.09 Right 0 L,34.801629,135.770936
2,3.13,34801629,135770936,8,258.75,0,0,0,0,2,0,2,t1.09 Right 0 L,34.801629,135.770936
2,3.14,34801629,135770936,8,258.75,0,0,0,0,2,0,2,t1.09 Right 0 L,34.801629,135.770936
2,3.15,34801630,135770938,8,247.5,0,0,0,0,2,0,2,t0.73 Right 0 L,34.80163,135.770938
2,3.17,34801630,135770938,8,247.5,0,0,0,0,2,0,2,t0.73 Right 0 L,34.80163,135.770938
2,3.18,34801630,135770938,8,247.5,0,0,0,0,2,0,2,t0.73 Right 0 L,34.80163,135.770938
2,3.19,34801630,135770938,7,247.5,0,0,0,0,2,0,2,t0.73 Right 0 L,34.80163,135.770938
2,3.2,34801630,135770938,7,247.5,0,0,0,0,2,0,2,t0.73 Right 0 L,34.80163,135.770938
2,3.21,34801630,135770938,7,247.5,0,0,0,0,2,0,2,t0.73 Right 0 L,34.80163,135.770938
2,3.22,34801630,135770938,7,247.5,0,0,0,0,2,0,2,t0.73 Right 0 L,34.80163,135.770938
2,3.23,34801631,135770941,8,247.5,0,0,0,0,2,0,2,t0.95 Right 0 L,34.801631,135.770941
2,3.24,34801631,135770941,8,258.75,0,0,0,0,2,0,2,t0.95 Right 0 L,34.801631,135.770941
2,3.25,34801631,135770942,8,258.75,0,0,0,0,2,0,2,t0.65 Right 0 L,34.801631,135.770942
2,3.26,34801631,135770942,8,258.75,0,0,0,0,2,0,2,t0.65 Right 0 L,34.801631,135.770942
2,3.27,34801631,135770942,8,270,0,0,0,0,2,0,2,t0.57 Right 0 L,34.801631,135.770942
2,3.28,34801631,135770942,8,258.75,0,0,0,0,2,0,2,t0.57 Right 0 L,34.801631,135.770942
2,3.29,34801631,135770942,7,258.75,0,0,0,0,2,0,2,t0.57 Right 0 L,34.801631,135.770942
2,3.3,34801631,135770942,7,258.75,0,0,0,0,2,0,2,t0.57 Right 0 L,34.801631,135.770942
2,3.31,34801632,135770943,8,258.75,0,0,0,0,2,0,2,t0.62 Right 0 L,34.801632,135.770943
2,3.32,34801632,135770943,8,258.75,0,0,0,0,2,0,2,t0.62 Right 0 L,34.801632,135.770943
2,3.33,34801632,135770943,7,258.75,0,0,0,0,2,0,2,t0.62 Right 0 L,34.801632,135.770943
2,3.34,34801632,135770943,8,258.75,0,0,0,0,2,0,2,t0.69 Right 0 L,34.801632,135.770943
2,3.35,34801632,135770943,8,292.5,0,0,0,0,2,0,2,t0.69 Right 0 L,34.801632,135.770943
2,3.36,34801632,135770943,7,292.5,0,0,0,0,2,0,2,t0.69 Right 0 L,34.801632,135.770943
2,3.37,34801632,135770944,8,270,0,0,0,0,0,0,2,t0.09 Forward L,34.801632,135.770944
2,3.38,34801632,135770944,8,270,0,0,0,0,2,0,2,t0.53 Rightd L,34.801632,135.770944
2,3.39,34801632,135770944,7,281.25,0,0,0,0,2,0,2,t0.53 Rightd L,34.801632,135.770944
2,3.4,34801633,135770945,8,247.5,0,0,0,0,0,0,2,t0.29 Forward L,34.801633,135.770945
2,3.41,34801633,135770945,7,281.25,0,0,0,0,0,0,2,t0.29 Forward L,34.801633,135.770945
2,3.43,34801633,135770945,7,292.5,0,0,0,0,0,0,2,t0.29 Forward L,34.801633,135.770945
2,3.44,34801633,135770945,7,292.5,0,0,0,0,0,0,2,t0.29 Forward L,34.801633,135.770945
2,3.45,34801633,135770945,7,292.5,0,0,0,0,0,0,2,t0.29 Forward L,34.801633,135.770945
2,3.46,34801633,135770945,7,292.5,0,0,0,0,0,0,2,t0.29 Forward L,34.801633,135.770945
2,3.47,34801633,135770945,7,292.5,0,0,0,0,0,0,2,t0.29 Forward L,34.801633,135.770945
2,3.48,34801633,135770945,6,292.5,0,0,0,0,0,0,2,t0.29 Forward L,34.801633,135.770945
2,3.49,34801634,135770947,8,292.5,0,0,0,0,0,0,2,t0.19 Forward L,34.801634,135.770947
2,3.5,34801634,135770947,8,270,0,0,0,0,2,0,2,t0.63 Rightd L,34.801634,135.770947
2,3.51,34801634,135770947,7,270,0,0,0,0,2,0,2,t0.63 Rightd L,34.801634,135.770947
2,3.52,34801635,135770948,8,281.25,0,0,0,0,2,0,2,t0.45 Rightd L,34.801635,135.770948
2,3.53,34801635,135770948,7,258.75,0,0,0,0,2,0,2,t0.45 Rightd L,34.801635,135.770948
2,3.54,34801635,135770948,7,270,0,0,0,0,2,0,2,t0.45 Rightd L,34.801635,135.770948
2,3.55,34801635,135770948,7,270,0,0,0,0,2,0,2,t0.45 Rightd L,34.801635,135.770948
2,3.56,34801635,135770949,7,270,0,0,0,0,2,0,2,t0.63 Rightd L,34.801635,135.770949
2,3.57,34801635,135770949,7,258.75,0,0,0,0,2,0,2,t0.63 Rightd L,34.801635,135.770949
2,3.58,34801635,135770949,7,258.75,0,0,0,0,2,0,2,t0.63 Rightd L,34.801635,135.770949
2,3.59,34801635,135770949,7,258.75,0,0,0,0,2,0,2,t0.63 Rightd L,34.801635,135.770949
2,4,34801636,135770951,7,258.75,0,0,0,0,2,0,2,t0.80 Rightd L,34.801636,135.770951
2,4.1,34801636,135770951,7,270,0,0,0,0,2,0,2,t0.42 Rightd L,34.801636,135.770951
2,4.2,34801636,135770951,7,281.25,0,0,0,0,2,0,2,t0.42 Rightd L,34.801636,135.770951
2,4.3,34801636,135770951,7,281.25,0,0,0,0,2,0,2,t0.42 Rightd L,34.801636,135.770951
2,4.4,34801636,135770951,6,281.25,0,0,0,0,2,0,2,t0.42 Rightd L,34.801636,135.770951
2,4.5,34801636,135770951,6,281.25,0,0,0,0,2,0,2,t0.42 Rightd L,34.801636,135.770951
2,4.6,34801637,135770952,7,258.75,11.2,0,0,0,2,0,2,t0.40 Rightd L,34.801637,135.770952
2,4.7,34801637,135770952,7,258.75,0,0,0,0,2,0,2,t0.62 Rightd L,34.801637,135.770952
2,4.9,34801637,135770952,7,225,0,11.2,0,0,2,0,2,t0.62 Rightd L,34.801637,135.770952
2,4.1,34801637,135770952,7,225,0,11.2,0,0,2,0,2,t0.62 Rightd L,34.801637,135.770952
2,4.11,34801637,135770952,6,225,0,11.2,0,0,2,0,2,t0.62 Rightd L,34.801637,135.770952
2,4.12,34801637,135770952,6,225,0,11.2,0,0,2,0,2,t0.62 Rightd L,34.801637,135.770952
2,4.13,34801638,135770953,7,236.25,0,0,0,0,2,0,2,t1.37 Rightd L,34.801638,135.770953
2,4.14,34801638,135770953,7,247.5,0,0,0,0,2,0,2,t1.37 Rightd L,34.801638,135.770953
2,4.15,34801638,135770953,7,247.5,0,0,0,0,2,0,2,t1.10 Rightd L,34.801638,135.770953
2,4.16,34801638,135770953,7,247.5,0,0,0,0,2,0,2,t1.10 Rightd L,34.801638,135.770953
2,4.17,34801638,135770953,7,247.5,0,0,0,0,2,0,2,t1.10 Rightd L,34.801638,135.770953
2,4.18,34801638,135770953,7,258.75,0,0,0,0,2,0,2,t0.89 Rightd L,34.801638,135.770953
2,4.19,34801638,135770954,7,270,0,0,0,0,2,0,2,t0.68 Rightd L,34.801638,135.770954
2,4.2,34801638,135770954,7,270,0,0,0,0,2,0,2,t0.68 Rightd L,34.801638,135.770954
2,4.21,34801639,135770954,7,270,0,0,0,0,2,0,2,t0.68 Rightd L,34.801639,135.770954
2,4.22,34801639,135770954,7,247.5,0,0,0,0,2,0,2,t0.68 Rightd L,34.801639,135.770954
2,4.23,34801639,135770954,7,258.75,0,0,0,0,2,0,2,t0.68 Rightd L,34.801639,135.770954
2,4.24,34801639,135770954,7,258.75,0,0,0,0,2,0,2,t0.88 Rightd L,34.801639,135.770954
2,4.25,34801639,135770954,7,281.25,0,0,0,0,2,0,2,t0.88 Rightd L,34.801639,135.770954
2,4.26,34801639,135770954,7,292.5,0,0,0,0,2,0,2,t0.88 Rightd L,34.801639,135.770954
2,4.27,34801640,135770954,7,258.75,0,0,0,0,0,0,2,t0.30 Forward L,34.80164,135.770954
2,4.28,34801640,135770954,7,281.25,0,0,0,0,0,0,2,t0.30 Forward L,34.80164,135.770954
2,4.29,34801640,135770954,7,281.25,0,0,0,0,0,0,2,t0.30 Forward L,34.80164,135.770954
2,4.3,34801640,135770955,7,270,0,0,0,0,2,0,2,t0.51 Rightd L,34.80164,135.770955
2,4.31,34801640,135770955,7,281.25,0,0,0,0,2,0,2,t0.51 Rightd L,34.80164,135.770955
2,4.32,34801640,135770955,6,281.25,0,0,0,0,2,0,2,t0.51 Rightd L,34.80164,135.770955
2,4.33,34801640,135770955,7,258.75,0,0,0,0,2,0,2,t0.45 Rightd L,34.80164,135.770955
2,4.35,34801640,135770955,7,270,0,0,0,0,2,0,2,t0.45 Rightd L,34.80164,135.770955
2,4.36,34801640,135770956,7,258.75,0,0,0,0,2,0,2,t0.56 Rightd L,34.80164,135.770956
2,4.37,34801641,135770956,7,258.75,0,0,0,0,2,0,2,t0.61 Rightd L,34.801641,135.770956
2,4.38,34801641,135770956,7,258.75,0,0,0,0,2,0,2,t0.61 Rightd L,34.801641,135.770956
2,4.39,34801641,135770956,6,258.75,0,0,0,0,2,0,2,t0.61 Rightd L,34.801641,135.770956
2,4.4,34801641,135770956,6,258.75,0,0,0,0,2,0,2,t0.61 Rightd L,34.801641,135.770956
2,4.41,34801641,135770956,6,258.75,0,0,0,0,2,0,2,t0.61 Rightd L,34.801641,135.770956
2,4.42,34801641,135770956,6,258.75,0,0,0,0,2,0,2,t0.61 Rightd L,34.801641,135.770956
2,4.43,34801641,135770957,7,258.75,0,0,0,0,2,0,2,t0.77 Rightd L,34.801641,135.770957
2,4.44,34801641,135770958,7,281.25,0,0,0,0,2,0,2,t0.52 Rightd L,34.801641,135.770958
2,4.45,34801641,135770958,7,270,0,0,0,0,2,0,2,t0.52 Rightd L,34.801641,135.770958
2,4.46,34801641,135770958,6,270,0,0,0,0,2,0,2,t0.52 Rightd L,34.801641,135.770958
2,4.47,34801641,135770958,6,270,0,0,0,0,2,0,2,t0.52 Rightd L,34.801641,135.770958
2,4.48,34801641,135770958,6,270,0,0,0,0,2,0,2,t0.52 Rightd L,34.801641,135.770958
2,4.49,34801641,135770958,6,270,0,0,0,0,2,0,2,t0.52 Rightd L,34.801641,135.770958
2,4.5,34801641,135770959,7,270,0,0,0,0,2,0,2,t0.64 Rightd L,34.801641,135.770959
2,4.51,34801641,135770959,6,281.25,0,0,0,0,2,0,2,t0.64 Rightd L,34.801641,135.770959
2,4.52,34801641,135770959,6,292.5,0,0,0,0,2,0,2,t0.64 Rightd L,34.801641,135.770959
2,4.53,34801641,135770959,6,292.5,0,0,0,0,2,0,2,t0.64 Rightd L,34.801641,135.770959
2,4.54,34801642,135770960,7,270,0,0,0,0,0,0,2,t0.35 Forward L,34.801642,135.77096
2,4.55,34801642,135770960,6,270,0,0,0,0,0,0,2,t0.35 Forward L,34.801642,135.77096
2,4.56,34801642,135770960,6,281.25,0,0,0,0,0,0,2,t0.35 Forward L,34.801642,135.77096
2,4.57,34801642,135770960,6,281.25,0,0,0,0,0,0,2,t0.35 Forward L,34.801642,135.77096
2,4.58,34801642,135770961,7,270,0,0,0,0,2,0,2,t0.59 Rightd L,34.801642,135.770961
2,4.59,34801642,135770961,7,270,0,0,0,0,0,0,2,t0.28 Forward L,34.801642,135.770961
2,5.1,34801642,135770961,6,292.5,0,0,0,0,0,0,2,t0.28 Forward L,34.801642,135.770961
2,5.2,34801642,135770961,6,303.75,0,0,0,0,0,0,2,t0.28 Forward L,34.801642,135.770961
2,5.3,34801643,135770962,7,270,0,0,0,0,0,1,2,stack leftrd L,34.801643,135.770962
2,5.4,34801643,135770962,7,315,0,0,0,0,0,1,2,stack leftrd L,34.801643,135.770962
2,5.5,34801643,135770962,6,326.25,0,0,0,0,0,1,2,stack leftrd L,34.801643,135.770962
2,5.6,34801643,135770962,7,326.25,0,0,0,0,0,1,2,stack leftrd L,34.801643,135.770962
2,5.7,34801643,135770962,7,326.25,0,0,0,0,0,1,2,stack leftrd L,34.801643,135.770962
2,5.8,34801643,135770963,7,326.25,0,0,0,0,0,1,2,stack rightd L,34.801643,135.770963
2,5.9,34801643,135770963,7,348.75,0,0,0,0,0,1,2,stack rightd L,34.801643,135.770963
2,5.1,34801643,135770963,7,348.75,0,0,0,0,0,1,2,stack rightd L,34.801643,135.770963
2,5.11,34801643,135770963,7,348.75,0,0,0,0,0,1,2,stack rightd L,34.801643,135.770963
2,5.12,34801643,135770963,7,348.75,0,0,0,0,0,1,2,stack rightd L,34.801643,135.770963
2,5.13,34801643,135770963,6,348.75,0,0,0,0,0,1,2,stack rightd L,34.801643,135.770963
2,5.14,34801643,135770963,7,348.75,0,0,0,0,0,1,2,stack rightd L,34.801643,135.770963
2,5.15,34801643,135770963,7,348.75,0,0,0,0,0,1,2,stack rightd L,34.801643,135.770963
2,5.16,34801643,135770963,7,348.75,0,0,0,0,0,1,2,stack rightd L,34.801643,135.770963
2,5.17,34801643,135770963,7,348.75,0,0,0,0,0,1,2,stack rightd L,34.801643,135.770963
2,5.18,34801643,135770963,7,348.75,0,0,0,0,0,1,2,stack leftd L,34.801643,135.770963
2,5.19,34801643,135770963,7,337.5,0,0,0,0,0,1,2,stack leftd L,34.801643,135.770963
2,5.2,34801643,135770963,6,348.75,0,0,0,0,0,1,2,stack leftd L,34.801643,135.770963
2,5.21,34801643,135770963,6,348.75,0,0,0,0,0,1,2,stack leftd L,34.801643,135.770963
2,5.22,34801643,135770963,7,11.25,0,0,0,0,0,1,2,stack rightd L,34.801643,135.770963
2,5.23,34801643,135770963,7,348.75,0,0,0,0,0,1,2,stack rightd L,34.801643,135.770963
2,5.24,34801643,135770963,6,348.75,0,0,0,0,0,1,2,stack rightd L,34.801643,135.770963
2,5.25,34801644,135770963,7,337.5,0,0,0,2,0,0,2,t-0.58 Leftk cn,34.801644,135.770963
2,5.27,34801644,135770963,6,348.75,0,0,0,2,0,0,2,t-0.58 Leftk cn,34.801644,135.770963
2,5.28,34801644,135770963,6,348.75,0,0,0,2,0,0,2,t-0.58 Leftk cn,34.801644,135.770963
2,5.29,34801644,135770963,7,348.75,0,0,0,2,0,0,2,t-0.69 Leftk cn,34.801644,135.770963
2,5.3,34801644,135770963,6,0,0,0,0,2,0,0,2,t-0.69 Leftk cn,34.801644,135.770963
2,5.31,34801644,135770963,6,0,0,0,0,2,0,0,2,t-0.69 Leftk cn,34.801644,135.770963
2,5.32,34801644,135770963,6,0,0,0,0,2,0,0,2,t-0.69 Leftk cn,34.801644,135.770963
2,5.33,34801644,135770963,5,0,0,0,0,2,0,0,2,t-0.69 Leftk cn,34.801644,135.770963
2,5.34,34801644,135770964,7,0,0,0,0,2,0,0,2,t-0.86 Leftk cn,34.801644,135.770964
2,5.35,34801644,135770964,6,0,0,0,0,2,0,0,2,t-0.86 Leftk cn,34.801644,135.770964
2,5.36,34801644,135770964,6,0,0,0,0,2,0,0,2,t-0.86 Leftk cn,34.801644,135.770964
2,5.37,34801645,135770964,7,0,0,0,0,2,0,0,2,t-0.74 Leftk cn,34.801645,135.770964
2,5.38,34801645,135770964,6,348.75,0,0,0,2,0,0,2,t-0.74 Leftk cn,34.801645,135.770964
2,5.39,34801645,135770964,6,348.75,0,0,0,2,0,0,2,t-0.74 Leftk cn,34.801645,135.770964
2,5.4,34801645,135770964,7,348.75,0,0,0,2,0,0,2,t-0.67 Leftk cn,34.801645,135.770964
2,5.41,34801645,135770964,6,348.75,0,0,0,2,0,0,2,t-0.67 Leftk cn,34.801645,135.770964
2,5.42,34801645,135770964,6,348.75,0,0,0,2,0,0,2,t-0.67 Leftk cn,34.801645,135.770964
2,5.43,34801645,135770964,7,348.75,0,0,0,2,0,0,2,t-0.56 Leftk cn,34.801645,135.770964
2,5.44,34801645,135770964,6,337.5,0,0,0,2,0,0,2,t-0.56 Leftk cn,34.801645,135.770964
2,5.45,34801645,135770964,6,348.75,0,0,0,2,0,0,2,t-0.56 Leftk cn,34.801645,135.770964
2,5.46,34801645,135770964,7,348.75,0,0,0,2,0,0,2,t-0.57 Leftk cn,34.801645,135.770964
2,5.47,34801645,135770964,6,348.75,0,0,0,2,0,0,2,t-0.57 Leftk cn,34.801645,135.770964
2,5.48,34801645,135770964,6,337.5,0,0,0,2,0,0,2,t-0.57 Leftk cn,34.801645,135.770964
2,5.49,34801645,135770964,6,337.5,0,0,0,2,0,0,2,t-0.57 Leftk cn,34.801645,135.770964
2,5.5,34801645,135770964,5,337.5,0,0,0,2,0,0,2,t-0.57 Leftk cn,34.801645,135.770964
2,5.51,34801645,135770965,6,326.25,0,0,0,2,0,0,2,t-0.46 Leftk cn,34.801645,135.770965
2,5.53,34801645,135770965,6,337.5,0,0,0,2,0,0,2,t-0.46 Leftk cn,34.801645,135.770965
2,5.54,34801645,135770965,6,0,0,0,0,2,0,0,2,t-0.46 Leftk cn,34.801645,135.770965
2,5.55,34801645,135770965,6,11.25,0,0,0,2,0,0,2,t-0.46 Leftk cn,34.801645,135.770965
2,5.56,34801645,135770965,5,11.25,0,0,0,2,0,0,2,t-0.46 Leftk cn,34.801645,135.770965
2,5.57,34801645,135770965,5,11.25,0,0,0,2,0,0,2,t-0.46 Leftk cn,34.801645,135.770965
2,5.58,34801645,135770966,6,22.5,0,0,0,2,0,0,2,t-1.18 Leftk cn,34.801645,135.770966
2,5.59,34801645,135770966,6,11.25,0,0,0,2,0,0,2,t-1.18 Leftk cn,34.801645,135.770966
2,6,34801645,135770966,6,0,0,0,0,2,0,0,2,t-1.18 Leftk cn,34.801645,135.770966
2,6.1,34801645,135770966,5,0,0,0,0,2,0,0,2,t-1.18 Leftk cn,34.801645,135.770966
2,6.2,34801645,135770966,5,0,0,0,0,2,0,0,2,t-1.18 Leftk cn,34.801645,135.770966
2,6.3,34801644,135770966,6,0,0,0,0,2,0,0,2,t-0.89 Leftk cn,34.801644,135.770966
2,6.4,34801644,135770966,6,11.25,0,0,0,2,0,0,2,t-0.89 Leftk cn,34.801644,135.770966
2,6.5,34801644,135770966,6,11.25,0,0,0,2,0,0,2,t-0.89 Leftk cn,34.801644,135.770966
2,6.6,34801644,135770966,6,11.25,0,0,0,2,0,0,2,t-1.04 Leftk cn,34.801644,135.770966
2,6.7,34801644,135770966,6,11.25,0,0,0,2,0,0,2,t-1.04 Leftk cn,34.801644,135.770966
2,6.8,34801644,135770966,6,11.25,0,0,0,2,0,0,2,t-1.04 Leftk cn,34.801644,135.770966
2,6.9,34801644,135770966,5,11.25,0,0,0,2,0,0,2,t-1.04 Leftk cn,34.801644,135.770966
2,6.1,34801644,135770966,5,11.25,0,0,0,2,0,0,2,t-1.04 Leftk cn,34.801644,135.770966
2,6.11,34801644,135770966,5,11.25,0,0,0,2,0,0,2,t-1.04 Leftk cn,34.801644,135.770966
2,6.12,34801644,135770966,6,0,11.2,0,0,2,0,0,2,t-1.03 Leftk cn,34.801644,135.770966
2,6.13,34801644,135770966,6,11.25,0,0,0,2,0,0,2,t-1.03 Leftk cn,34.801644,135.770966
2,6.14,34801645,135770966,6,11.25,11.2,0,0,2,0,0,2,t-1.00 Leftk cn,34.801645,135.770966
2,6.15,34801645,135770966,6,0,0,0,0,2,0,0,2,t-0.98 Leftk cn,34.801645,135.770966
2,6.16,34801645,135770966,6,11.25,0,0,0,2,0,0,2,t-0.98 Leftk cn,34.801645,135.770966
2,6.17,34801645,135770966,6,11.25,0,0,0,2,0,0,2,t-0.98 Leftk cn,34.801645,135.770966
2,6.19,34801645,135770966,5,11.25,0,0,0,2,0,0,2,t-0.98 Leftk cn,34.801645,135.770966
2,6.2,34801645,135770966,5,11.25,0,0,0,2,0,0,2,t-0.98 Leftk cn,34.801645,135.770966
2,6.21,34801645,135770966,6,0,0,0,0,2,0,0,2,t-1.03 Leftk cn,34.801645,135.770966
2,6.22,34801645,135770966,6,33.75,0,0,0,2,0,0,2,t-1.03 Leftk cn,34.801645,135.770966
2,6.23,34801645,135770966,6,45,0,0,0,2,0,0,2,t-1.03 Leftk cn,34.801645,135.770966
2,6.24,34801645,135770966,5,45,0,0,0,2,0,0,2,t-1.03 Leftk cn,34.801645,135.770966
2,6.25,34801645,135770966,5,45,0,0,0,2,0,0,2,t-1.03 Leftk cn,34.801645,135.770966
2,6.26,34801645,135770966,6,45,11.2,0,0,2,0,0,2,t-1.56 Leftk cn,34.801645,135.770966
2,6.27,34801646,135770966,6,33.75,0,0,0,2,0,0,2,t-1.29 Leftk cn,34.801646,135.770966
2,6.28,34801646,135770966,6,45,0,0,0,2,0,0,2,t-1.29 Leftk cn,34.801646,135.770966
2,6.29,34801646,135770966,6,45,0,0,0,2,0,0,2,t-1.29 Leftk cn,34.801646,135.770966
2,6.3,34801646,135770966,6,45,0,0,0,2,0,0,2,t-1.62 Leftk cn,34.801646,135.770966
2,6.31,34801646,135770966,6,33.75,0,0,0,2,0,0,2,t-1.62 Leftk cn,34.801646,135.770966
2,6.32,34801646,135770967,6,33.75,0,0,0,2,0,0,2,t-1.43 Leftk cn,34.801646,135.770967
2,6.33,34801646,135770967,6,45,0,0,0,2,0,0,2,t-1.60 Leftk cn,34.801646,135.770967
2,6.34,34801646,135770967,6,67.5,0,0,0,2,0,0,2,t-1.60 Leftk cn,34.801646,135.770967
2,6.35,34801646,135770967,6,56.25,0,0,0,2,0,0,2,t-1.60 Leftk cn,34.801646,135.770967
2,6.36,34801646,135770967,5,56.25,0,0,0,2,0,0,2,t-1.60 Leftk cn,34.801646,135.770967
2,6.37,34801646,135770967,5,56.25,0,0,0,2,0,0,2,t-1.60 Leftk cn,34.801646,135.770967
2,6.38,34801646,135770967,6,45,0,0,0,2,0,0,2,t-1.70 Leftk cn,34.801646,135.770967
2,6.39,34801646,135770967,6,45,0,0,0,2,0,0,2,t-1.57 Leftk cn,34.801646,135.770967
2,6.4,34801646,135770967,6,67.5,0,0,0,2,0,0,2,t-1.57 Leftk cn,34.801646,135.770967
2,6.41,34801646,135770967,6,67.5,0,0,0,2,0,0,2,t-1.57 Leftk cn,34.801646,135.770967
2,6.42,34801646,135770967,5,67.5,0,0,0,2,0,0,2,t-1.57 Leftk cn,34.801646,135.770967
2,6.43,34801646,135770967,5,67.5,0,0,0,2,0,0,2,t-1.57 Leftk cn,34.801646,135.770967
2,6.45,34801646,135770967,6,67.5,0,0,0,2,0,0,2,t-1.91 Leftk cn,34.801646,135.770967
2,6.46,34801646,135770967,6,56.25,0,0,0,2,0,0,2,t-1.91 Leftk cn,34.801646,135.770967
2,6.47,34801646,135770967,6,56.25,0,0,0,2,0,0,2,t-1.91 Leftk cn,34.801646,135.770967
2,6.48,34801646,135770967,5,56.25,0,0,0,2,0,0,2,t-1.91 Leftk cn,34.801646,135.770967
2,6.49,34801646,135770967,5,56.25,0,0,0,2,0,0,2,t-1.91 Leftk cn,34.801646,135.770967
2,6.5,34801646,135770967,6,67.5,0,0,0,2,0,0,2,t-1.73 Leftk cn,34.801646,135.770967
2,6.51,34801646,135770967,6,56.25,0,0,0,2,0,0,2,t-1.73 Leftk cn,34.801646,135.770967
2,6.52,34801646,135770967,6,56.25,0,0,0,2,0,0,2,t-1.73 Leftk cn,34.801646,135.770967
2,6.53,34801646,135770967,6,56.25,0,0,0,2,0,0,2,t-1.80 Leftk cn,34.801646,135.770967
2,6.54,34801646,135770967,6,56.25,0,0,0,2,0,0,2,t-1.80 Leftk cn,34.801646,135.770967
2,6.55,34801646,135770967,6,33.75,0,0,0,2,0,0,2,t-1.32 Leftk cn,34.801646,135.770967
2,6.56,34801646,135770967,6,22.5,0,0,0,2,0,0,2,t-1.20 Leftk cn,34.801646,135.770967
2,6.57,34801646,135770967,6,22.5,0,0,0,2,0,0,2,t-1.20 Leftk cn,34.801646,135.770967
2,6.58,34801646,135770967,6,22.5,0,0,0,2,0,0,2,t-1.20 Leftk cn,34.801646,135.770967
2,6.59,34801646,135770967,5,22.5,0,0,0,2,0,0,2,t-1.20 Leftk cn,34.801646,135.770967
2,7,34801646,135770967,5,22.5,0,0,0,2,0,0,2,t-1.20 Leftk cn,34.801646,135.770967
2,7.1,34801646,135770968,6,22.5,0,0,0,2,0,0,2,t-1.24 Leftk cn,34.801646,135.770968
2,7.2,34801646,135770968,6,22.5,0,0,0,2,0,0,2,t-1.24 Leftk cn,34.801646,135.770968
2,7.3,34801646,135770968,5,33.75,0,0,0,2,0,0,2,t-1.24 Leftk cn,34.801646,135.770968
2,7.4,34801646,135770968,5,33.75,0,0,0,2,0,0,2,t-1.24 Leftk cn,34.801646,135.770968
2,7.5,34801646,135770968,5,33.75,0,0,0,2,0,0,2,t-1.24 Leftk cn,34.801646,135.770968
2,7.6,34801646,135770968,5,33.75,0,0,0,2,0,0,2,t-1.24 Leftk cn,34.801646,135.770968
2,7.7,34801646,135770968,6,33.75,0,0,0,2,0,0,2,t-1.35 Leftk cn,34.801646,135.770968
2,7.8,34801646,135770968,6,33.75,0,0,0,2,0,0,2,t-1.35 Leftk cn,34.801646,135.770968
2,7.9,34801646,135770968,5,33.75,0,0,0,2,0,0,2,t-1.35 Leftk cn,34.801646,135.770968
2,7.11,34801646,135770968,5,33.75,0,0,0,2,0,0,2,t-1.35 Leftk cn,34.801646,135.770968
2,7.12,34801646,135770968,5,33.75,0,0,0,2,0,0,2,t-1.35 Leftk cn,34.801646,135.770968
2,7.13,34801646,135770968,5,33.75,0,0,0,2,0,0,2,t-1.35 Leftk cn,34.801646,135.770968
2,7.14,34801646,135770968,5,33.75,0,0,0,2,0,0,2,t-1.35 Leftk cn,34.801646,135.770968
2,7.15,0,0,17,11.25,0,0,0,0,0,0,2,t0.29 Forwardcn,0,0
2,7.16,0,0,6,33.75,0,0,0,0,0,0,2,t0.29 Forwardcn,0,0
2,7.17,0,0,24,33.75,0,0,0,0,0,0,2,t0.29 Forwardcn,0,0
2,7.18,34801647,135770968,6,33.75,0,0,0,2,0,0,2,t-1.35 Leftdcn,34.801647,135.770968
2,7.19,34801647,135770968,6,22.5,0,0,0,2,0,0,2,t-1.35 Leftdcn,34.801647,135.770968
2,7.2,34801647,135770968,6,22.5,0,0,0,2,0,0,2,t-1.35 Leftdcn,34.801647,135.770968
2,7.21,34801647,135770968,5,22.5,0,0,0,2,0,0,2,t-1.35 Leftdcn,34.801647,135.770968
2,7.22,34801648,135770968,6,22.5,0,0,0,2,0,0,2,t-1.20 Leftdcn,34.801648,135.770968
2,7.23,34801648,135770968,6,11.25,0,0,0,2,0,0,2,t-1.20 Leftdcn,34.801648,135.770968
2,7.24,34801648,135770969,6,11.25,0,0,0,2,0,0,2,t-1.03 Leftk cn,34.801648,135.770969
2,7.25,34801648,135770969,6,22.5,0,0,0,2,0,0,2,t-1.03 Leftk cn,34.801648,135.770969
2,7.26,34801648,135770969,5,22.5,0,0,0,2,0,0,2,t-1.03 Leftk cn,34.801648,135.770969
2,7.27,34801648,135770969,5,22.5,0,0,0,2,0,0,2,t-1.03 Leftk cn,34.801648,135.770969
2,7.28,34801648,135770969,6,22.5,0,0,0,2,0,0,2,t-1.16 Leftk cn,34.801648,135.770969
2,7.29,34801648,135770969,6,11.25,0,0,0,2,0,0,2,t-1.16 Leftk cn,34.801648,135.770969
2,7.3,34801648,135770969,6,0,0,0,0,2,0,0,2,t-0.95 Leftk cn,34.801648,135.770969
2,7.31,34801648,135770969,6,22.5,0,0,0,2,0,0,2,t-1.00 Leftk cn,34.801648,135.770969
2,7.32,34801648,135770969,6,11.25,0,0,0,2,0,0,2,t-1.00 Leftk cn,34.801648,135.770969
2,7.33,34801648,135770969,5,11.25,0,0,0,2,0,0,2,t-1.00 Leftk cn,34.801648,135.770969
2,7.34,34801647,135770969,6,348.75,11.2,0,0,2,0,0,2,t-0.84 Leftk cn,34.801647,135.770969
2,7.35,34801647,135770969,6,0,0,0,0,2,0,0,2,t-0.84 Leftk cn,34.801647,135.770969
2,7.37,34801647,135770969,6,337.5,11.2,0,0,2,0,0,2,t-0.81 Leftk cn,34.801647,135.770969
2,7.38,34801647,135770969,6,348.75,0,0,0,2,0,0,2,t-0.81 Leftk cn,34.801647,135.770969
2,7.39,34801647,135770969,5,348.75,0,0,0,2,0,0,2,t-0.81 Leftk cn,34.801647,135.770969
2,7.4,34801647,135770969,5,348.75,0,0,0,2,0,0,2,t-0.81 Leftk cn,34.801647,135.770969
2,7.41,34801647,135770969,5,348.75,0,0,0,2,0,0,2,t-0.81 Leftk cn,34.801647,135.770969
2,7.42,34801647,2147483647,196,315,0,0,0,0,2,0,2,t1.72 Rightk cn,34.801647,2147.483647
2,7.43,34801647,2147483647,195,0,0,0,0,0,2,0,2,t1.72 Rightk cn,34.801647,2147.483647
2,7.44,34801647,2147483647,195,11.25,0,0,0,0,2,0,2,t1.72 Rightk cn,34.801647,2147.483647
2,7.45,34801647,2147483647,195,11.25,0,0,0,0,2,0,2,t1.72 Rightk cn,34.801647,2147.483647
2,7.46,34801647,2147483647,195,11.25,0,0,0,0,2,0,2,t1.72 Rightk cn,34.801647,2147.483647
2,7.47,34801647,135770970,6,11.25,0,0,0,2,0,0,2,t-0.89 Leftk cn,34.801647,135.77097
2,7.48,34801647,135770970,6,326.25,0,0,0,2,0,0,2,t-0.89 Leftk cn,34.801647,135.77097
2,7.49,34801647,135770970,5,303.75,0,0,0,2,0,0,2,t-0.89 Leftk cn,34.801647,135.77097
2,7.5,34801647,135770970,5,303.75,0,0,0,2,0,0,2,t-0.89 Leftk cn,34.801647,135.77097
2,7.51,34801646,135770970,6,303.75,0,0,0,0,0,0,2,t0.22 Forwardcn,34.801646,135.77097
2,7.52,34801646,135770970,6,292.5,0,0,0,0,0,0,2,t0.22 Forwardcn,34.801646,135.77097
2,7.53,34801646,135770970,6,292.5,0,0,0,0,2,0,2,t0.45 Rightdcn,34.801646,135.77097
2,7.54,34801646,135770970,6,292.5,0,0,0,0,2,0,2,t0.45 Rightdcn,34.801646,135.77097
2,7.55,34801646,135770970,5,303.75,0,0,0,0,2,0,2,t0.45 Rightdcn,34.801646,135.77097
2,7.56,34801646,135770970,5,303.75,0,0,0,0,2,0,2,t0.45 Rightdcn,34.801646,135.77097
2,7.57,34801646,135770971,6,270,0,0,0,0,0,0,2,t0.18 Forwardcn,34.801646,135.770971
2,7.58,34801646,135770971,6,292.5,0,0,0,0,0,0,2,t0.18 Forwardcn,34.801646,135.770971
2,7.59,34801646,135770971,6,281.25,0,0,0,0,2,0,2,t0.40 Rightdcn,34.801646,135.770971
2,8,34801646,135770971,6,303.75,0,0,0,0,2,0,2,t0.40 Rightdcn,34.801646,135.770971
2,8.1,34801646,135770971,5,303.75,0,0,0,0,2,0,2,t0.40 Rightdcn,34.801646,135.770971
2,8.3,34801646,135770971,5,303.75,0,0,0,0,2,0,2,t0.40 Rightdcn,34.801646,135.770971
2,8.4,34801646,135770972,6,258.75,0,0,0,0,0,0,2,t0.19 Forwardcn,34.801646,135.770972
2,8.5,34801646,135770972,5,292.5,0,0,0,0,0,0,2,t0.19 Forwardcn,34.801646,135.770972
2,8.6,34801646,135770972,6,270,0,0,0,0,2,0,2,t0.46 Rightdcn,34.801646,135.770972
2,8.7,34801646,135770972,5,270,0,0,0,0,2,0,2,t0.46 Rightdcn,34.801646,135.770972
2,8.8,34801646,135770972,5,270,0,0,0,0,2,0,2,t0.46 Rightdcn,34.801646,135.770972
2,8.9,34801646,135770973,6,270,0,0,0,0,2,0,2,t0.79 Rightdcn,34.801646,135.770973
2,8.1,34801646,135770973,5,281.25,0,0,0,0,2,0,2,t0.79 Rightdcn,34.801646,135.770973
2,8.11,34801646,135770973,6,292.5,0,0,0,0,2,0,2,t0.49 Rightdcn,34.801646,135.770973
2,8.12,34801646,135770973,6,292.5,0,0,0,0,2,0,2,t0.52 Rightdcn,34.801646,135.770973
2,8.13,34801646,135770973,5,303.75,0,0,0,0,2,0,2,t0.52 Rightdcn,34.801646,135.770973
2,8.14,34801646,135770973,5,315,0,0,0,0,2,0,2,t0.52 Rightdcn,34.801646,135.770973
2,8.15,34801646,135770973,5,315,0,0,0,0,2,0,2,t0.52 Rightdcn,34.801646,135.770973
2,8.16,34801645,135770974,6,315,0,0,0,0,0,0,2,t0.08 Forwardcn,34.801645,135.770974
2,8.17,34801645,135770974,5,292.5,0,0,0,0,0,0,2,t0.08 Forwardcn,34.801645,135.770974
2,8.18,34801645,135770974,6,281.25,0,0,0,0,2,0,2,t0.57 Rightdcn,34.801645,135.770974
2,8.19,34801645,135770974,5,281.25,0,0,0,0,2,0,2,t0.57 Rightdcn,34.801645,135.770974
2,8.2,34801645,135770974,5,281.25,0,0,0,0,2,0,2,t0.57 Rightdcn,34.801645,135.770974
2,8.21,34801645,135770974,5,281.25,0,0,0,0,2,0,2,t0.57 Rightdcn,34.801645,135.770974
2,8.22,34801645,135770974,6,270,0,0,0,0,2,0,2,t0.62 Rightdcn,34.801645,135.770974
2,8.23,34801645,135770974,5,281.25,0,0,0,0,2,0,2,t0.62 Rightdcn,34.801645,135.770974
2,8.24,34801645,135770974,6,270,0,0,0,0,2,0,2,t0.70 Rightdcn,34.801645,135.770974
2,8.25,34801645,135770974,5,303.75,0,0,0,0,2,0,2,t0.70 Rightdcn,34.801645,135.770974
2,8.26,34801645,135770974,5,303.75,0,0,0,0,2,0,2,t0.70 Rightdcn,34.801645,135.770974
2,8.27,34801645,135770974,5,303.75,0,0,0,0,2,0,2,t0.70 Rightdcn,34.801645,135.770974
2,8.29,34801644,135770975,6,270,0,0,0,0,0,0,2,t0.29 Forwardcn,34.801644,135.770975
2,8.3,34801644,135770975,5,281.25,0,0,0,0,0,0,2,t0.29 Forwardcn,34.801644,135.770975
2,8.31,34801644,135770975,6,270,0,0,0,0,2,0,2,t0.64 Rightdcn,34.801644,135.770975
2,8.32,34801644,135770975,5,303.75,0,0,0,0,2,0,2,t0.64 Rightdcn,34.801644,135.770975
2,8.33,34801644,135770975,5,303.75,0,0,0,0,2,0,2,t0.64 Rightdcn,34.801644,135.770975
2,8.34,34801644,135770974,6,303.75,0,0,0,0,0,0,2,t0.26 Forwardcn,34.801644,135.770974
2,8.35,34801644,135770974,5,270,0,0,0,0,0,0,2,t0.26 Forwardcn,34.801644,135.770974
2,8.36,34801644,135770974,5,281.25,0,0,0,0,0,0,2,t0.26 Forwardcn,34.801644,135.770974
2,8.37,34801644,135770974,5,281.25,0,0,0,0,0,0,2,t0.26 Forwardcn,34.801644,135.770974
2,8.38,34801644,135770974,4,281.25,0,0,0,0,0,0,2,t0.26 Forwardcn,34.801644,135.770974
2,8.39,34801643,135770974,6,281.25,0,0,0,0,2,0,2,t0.57 Rightdcn,34.801643,135.770974
2,8.4,34801643,135770974,5,270,0,0,0,0,2,0,2,t0.57 Rightdcn,34.801643,135.770974
2,8.41,34801643,135770974,5,270,0,0,0,0,2,0,2,t0.57 Rightdcn,34.801643,135.770974
2,8.42,34801643,135770974,5,270,0,0,0,0,2,0,2,t0.57 Rightdcn,34.801643,135.770974
2,8.43,34801643,135770974,4,270,0,0,0,0,2,0,2,t0.57 Rightdcn,34.801643,135.770974
2,8.44,34801643,135770974,4,270,0,0,0,0,2,0,2,t0.57 Rightdcn,34.801643,135.770974
2,8.45,34801643,135770975,6,270,0,0,0,0,2,0,2,t0.86 Rightdcn,34.801643,135.770975
2,8.46,34801643,135770975,5,281.25,0,0,0,0,2,0,2,t0.86 Rightdcn,34.801643,135.770975
2,8.47,34801642,135770975,6,270,0,0,0,0,2,0,2,t0.50 Rightdcn,34.801642,135.770975
2,8.48,34801642,135770975,5,281.25,0,0,0,0,2,0,2,t0.50 Rightdcn,34.801642,135.770975
2,8.49,34801642,135770975,5,281.25,0,0,0,0,2,0,2,t0.50 Rightdcn,34.801642,135.770975
2,8.5,34801642,135770976,6,258.75,0,0,0,0,2,0,2,t0.71 Rightdcn,34.801642,135.770976
2,8.51,34801642,135770976,6,270,0,0,0,0,2,0,2,t0.84 Rightdcn,34.801642,135.770976
2,8.52,34801642,135770976,5,292.5,0,0,0,0,2,0,2,t0.84 Rightdcn,34.801642,135.770976
2,8.53,34801642,135770976,6,270,0,0,0,0,0,0,2,t0.35 Forwardcn,34.801642,135.770976
2,8.55,34801642,135770976,5,292.5,0,0,0,0,0,0,2,t0.35 Forwardcn,34.801642,135.770976
2,8.56,34801642,135770976,5,292.5,0,0,0,0,0,0,2,t0.35 Forwardcn,34.801642,135.770976
2,8.57,34801642,135770977,6,281.25,0,0,0,0,2,0,2,t0.39 Rightdcn,34.801642,135.770977
2,8.58,34801642,135770977,5,303.75,0,0,0,0,2,0,2,t0.39 Rightdcn,34.801642,135.770977
2,8.59,34801641,135770977,6,303.75,0,0,0,0,0,0,2,t0.27 Forwardcn,34.801641,135.770977
2,9,34801641,135770977,5,292.5,0,0,0,0,0,0,2,t0.27 Forwardcn,34.801641,135.770977
2,9.1,34801641,135770977,5,292.5,0,0,0,0,0,0,2,t0.27 Forwardcn,34.801641,135.770977
2,9.2,34801641,135770977,4,292.5,0,0,0,0,0,0,2,t0.27 Forwardcn,34.801641,135.770977
2,9.3,34801641,135770977,6,292.5,0,0,0,0,2,0,2,t0.44 Rightdcn,34.801641,135.770977
2,9.4,34801641,135770977,5,281.25,0,0,0,0,2,0,2,t0.44 Rightdcn,34.801641,135.770977
2,9.5,34801639,135770979,5,292.5,0,0,0,0,2,0,2,t0.48 Rightdcn,34.801639,135.770979
2,9.6,34801639,135770979,5,292.5,0,0,0,0,2,0,2,t0.48 Rightdcn,34.801639,135.770979
2,9.7,34801639,135770979,4,292.5,0,0,0,0,2,0,2,t0.48 Rightdcn,34.801639,135.770979
2,9.8,34801639,135770979,5,303.75,0,0,0,0,0,0,2,t0.34 Forwardcn,34.801639,135.770979
2,9.9,34801639,135770979,5,292.5,0,0,0,0,0,0,2,t0.34 Forwardcn,34.801639,135.770979
2,9.1,34801639,135770979,4,292.5,0,0,0,0,0,0,2,t0.34 Forwardcn,34.801639,135.770979
2,9.11,34801638,135770979,5,292.5,0,0,0,0,2,0,2,t0.44 Rightdcn,34.801638,135.770979
2,9.12,34801638,135770979,5,292.5,0,0,0,0,2,0,2,t0.44 Rightdcn,34.801638,135.770979
2,9.13,34801638,135770979,4,303.75,0,0,0,0,2,0,2,t0.44 Rightdcn,34.801638,135.770979
2,9.14,34801636,135770979,5,303.75,0,0,0,0,0,0,2,t0.19 Forwardcn,34.801636,135.770979
2,9.15,34801636,135770979,5,292.5,0,0,0,0,0,0,2,t0.19 Forwardcn,34.801636,135.770979
2,9.16,34801636,135770979,4,281.25,0,0,0,0,0,0,2,t0.19 Forwardcn,34.801636,135.770979
2,9.17,34801636,135770979,4,292.5,0,0,0,0,0,0,2,t0.19 Forwardcn,34.801636,135.770979
2,9.18,34801636,135770979,4,292.5,0,0,0,0,0,0,2,t0.19 Forwardcn,34.801636,135.770979
2,9.19,34801633,135770979,5,292.5,0,0,0,0,2,0,2,t0.44 Rightdcn,34.801633,135.770979
2,9.21,34801633,135770979,5,281.25,0,0,0,0,0,0,2,t0.04 Forwardcn,34.801633,135.770979
2,9.22,34801633,135770979,5,315,0,0,0,0,0,0,2,t0.04 Forwardcn,34.801633,135.770979
2,9.23,34801633,135770979,4,348.75,0,0,0,0,0,0,2,t0.04 Forwardcn,34.801633,135.770979
2,9.24,34801633,135770979,4,0,0,0,0,0,0,0,2,t0.04 Forwardcn,34.801633,135.770979
2,9.25,34801633,135770979,4,0,0,0,0,0,0,0,2,t0.04 Forwardcn,34.801633,135.770979
2,9.26,34801633,135770979,4,0,0,0,0,0,0,0,2,t0.04 Forwardcn,34.801633,135.770979
2,9.27,34801633,135770980,5,0,0,0,0,2,0,0,2,t-0.79 Leftdcn,34.801633,135.77098
2,9.28,34801633,135770980,4,337.5,0,0,0,2,0,0,2,t-0.79 Leftdcn,34.801633,135.77098
2,9.29,34801633,135770980,4,337.5,0,0,0,2,0,0,2,t-0.79 Leftdcn,34.801633,135.77098
2,9.3,34801633,135770980,4,337.5,0,0,0,2,0,0,2,t-0.79 Leftdcn,34.801633,135.77098
2,9.31,34801633,135770980,5,326.25,0,0,0,0,0,0,2,t-0.26 Forwardn,34.801633,135.77098
2,9.32,34801633,135770980,5,337.5,0,0,0,0,0,0,2,t-0.39 Forwardn,34.801633,135.77098
2,9.33,34801633,135770980,4,348.75,0,0,0,0,0,0,2,t-0.39 Forwardn,34.801633,135.77098
2,9.34,34801633,135770980,4,33.75,0,0,0,0,0,0,2,t-0.39 Forwardn,34.801633,135.77098
2,9.35,34801633,135770980,4,33.75,0,0,0,0,0,0,2,t-0.39 Forwardn,34.801633,135.77098
2,9.36,34801633,135770980,4,45,0,0,0,0,0,0,2,t-0.39 Forwardn,34.801633,135.77098
2,9.37,34801633,135770980,4,45,0,0,0,0,0,0,2,t-0.39 Forwardn,34.801633,135.77098
2,9.38,34801632,135770980,5,33.75,11.2,0,0,2,0,0,2,t-1.52 Leftrdn,34.801632,135.77098
2,9.39,34801632,135770980,4,11.25,0,0,0,2,0,0,2,t-1.52 Leftrdn,34.801632,135.77098
2,9.4,34801631,135770980,5,348.75,0,0,0,2,0,0,2,t-0.94 Leftrdn,34.801631,135.77098
2,9.41,34801631,135770980,4,33.75,0,0,0,2,0,0,2,t-0.94 Leftrdn,34.801631,135.77098
2,9.42,34801631,135770980,4,45,0,0,0,2,0,0,2,t-0.94 Leftrdn,34.801631,135.77098
2,9.43,34801631,135770980,5,45,11.2,0,0,2,0,0,2,t-1.64 Leftrdn,34.801631,135.77098
2,9.44,34801631,135770980,4,33.75,0,0,0,2,0,0,2,t-1.64 Leftrdn,34.801631,135.77098
2,9.45,34801631,135770980,4,22.5,0,0,0,2,0,0,2,t-1.64 Leftrdn,34.801631,135.77098
2,9.47,34801632,135770979,5,348.75,11.2,0,0,2,0,0,2,t-1.24 Leftrdn,34.801632,135.770979
2,9.48,34801632,135770979,4,33.75,0,0,0,2,0,0,2,t-1.24 Leftrdn,34.801632,135.770979
2,9.49,34801632,135770979,4,33.75,0,0,0,2,0,0,2,t-1.24 Leftrdn,34.801632,135.770979
2,9.5,34801632,135770979,4,45,0,0,0,2,0,0,2,t-1.24 Leftrdn,34.801632,135.770979
2,9.51,34801632,135770979,4,33.75,0,0,0,2,0,0,2,t-1.24 Leftrdn,34.801632,135.770979
2,9.52,34801632,135770980,5,45,0,0,0,2,0,0,2,t-1.48 Leftrdn,34.801632,135.77098
2,9.53,34801632,135770980,4,33.75,0,0,0,2,0,0,2,t-1.48 Leftrdn,34.801632,135.77098
2,9.54,34801632,135770980,4,56.25,0,0,0,2,0,0,2,t-1.48 Leftrdn,34.801632,135.77098
2,9.55,34801632,135770980,5,45,0,0,0,2,0,0,2,t-1.57 Leftrdn,34.801632,135.77098
2,9.56,34801632,135770980,4,11.25,0,0,0,2,0,0,2,t-1.57 Leftrdn,34.801632,135.77098
2,9.57,34801632,135770980,4,0,0,0,0,2,0,0,2,t-1.57 Leftrdn,34.801632,135.77098
2,9.58,34801632,135770981,5,0,0,0,0,2,0,0,2,t-0.81 Leftrdn,34.801632,135.770981
2,9.59,34801632,135770981,4,348.75,0,0,0,2,0,0,2,t-0.81 Leftrdn,34.801632,135.770981
2,10,34801632,135770981,5,45,0,0,0,2,0,0,2,t-1.59 Leftrdn,34.801632,135.770981
2,10.1,34801632,135770981,5,33.75,0,0,0,2,0,0,2,t-1.37 Leftrdn,34.801632,135.770981
2,10.2,34801632,135770981,4,11.25,0,0,0,2,0,0,2,t-1.37 Leftrdn,34.801632,135.770981
2,10.3,34801632,135770981,4,11.25,0,0,0,2,0,0,2,t-1.37 Leftrdn,34.801632,135.770981
2,10.4,34801632,135770982,5,11.25,0,0,0,2,0,0,2,t-0.94 Leftrdn,34.801632,135.770982
2,10.5,34801632,135770982,4,0,0,0,0,2,0,0,2,t-0.94 Leftrdn,34.801632,135.770982
2,10.6,34801632,135770982,5,337.5,0,0,0,2,0,0,2,t-0.65 Leftrdn,34.801632,135.770982
2,10.7,34801632,135770982,5,315,0,0,0,2,0,0,2,t-0.41 Leftrdn,34.801632,135.770982
2,10.8,34801632,135770982,4,22.5,0,0,0,2,0,0,2,t-0.41 Leftrdn,34.801632,135.770982
2,10.9,34801632,135770982,4,33.75,0,0,0,2,0,0,2,t-0.41 Leftrdn,34.801632,135.770982
2,10.1,34801632,135770982,4,45,0,0,0,2,0,0,2,t-0.41 Leftrdn,34.801632,135.770982
2,10.11,34801632,135770982,4,45,0,0,0,2,0,0,2,t-0.41 Leftrdn,34.801632,135.770982
2,10.13,34801632,135770983,5,22.5,11.2,0,0,2,0,0,2,t-1.49 Leftrdn,34.801632,135.770983
2,10.14,34801632,135770983,5,22.5,0,0,0,2,0,0,2,t-1.27 Leftrdn,34.801632,135.770983
2,10.15,34801632,135770983,4,45,0,0,0,2,0,0,2,t-1.27 Leftrdn,34.801632,135.770983
2,10.16,34801632,135770983,4,56.25,0,0,0,2,0,0,2,t-1.27 Leftrdn,34.801632,135.770983
2,10.17,34801632,135770983,4,56.25,0,0,0,2,0,0,2,t-1.27 Leftrdn,34.801632,135.770983
2,10.18,34801632,135770983,4,56.25,0,0,0,2,0,0,2,t-1.27 Leftrdn,34.801632,135.770983
2,10.19,34801632,135770983,3,56.25,0,0,0,2,0,0,2,t-1.27 Leftrdn,34.801632,135.770983
2,10.2,34801632,135770983,3,56.25,0,0,0,2,0,0,2,t-1.27 Leftrdn,34.801632,135.770983
2,10.21,34801631,135770984,5,56.25,0,0,0,2,0,0,2,t-1.72 Leftrdn,34.801631,135.770984
2,10.22,34801631,135770984,4,45,0,0,0,2,0,0,2,t-1.72 Leftrdn,34.801631,135.770984
2,10.23,34801631,135770984,4,45,0,0,0,2,0,0,2,t-1.72 Leftrdn,34.801631,135.770984
2,10.24,34801631,135770985,4,45,0,0,0,2,0,0,2,t-1.43 Leftrdn,34.801631,135.770985
2,10.25,34801631,135770985,4,45,0,0,0,2,0,0,2,t-1.43 Leftrdn,34.801631,135.770985
2,10.26,34801631,135770985,4,67.5,0,0,0,2,0,0,2,t-1.43 Leftrdn,34.801631,135.770985
2,10.27,34801631,135770985,4,67.5,0,0,0,2,0,0,2,t-1.91 Leftrdn,34.801631,135.770985
2,10.28,34801631,135770985,4,56.25,11.2,0,0,2,0,0,2,t-1.91 Leftrdn,34.801631,135.770985
2,10.29,34801631,135770985,4,45,0,0,0,2,0,0,2,t-1.48 Leftrdn,34.801631,135.770985
2,10.3,34801631,135770985,4,45,0,0,0,2,0,0,2,t-1.48 Leftrdn,34.801631,135.770985
2,10.31,34801631,135770985,4,45,0,0,0,2,0,0,2,t-1.48 Leftrdn,34.801631,135.770985
2,10.32,34801631,135770985,4,45,0,0,0,2,0,0,2,t-1.48 Leftrdn,34.801631,135.770985
2,10.33,34801630,135770985,4,33.75,11.2,0,0,2,0,0,2,t-1.59 Leftrdn,34.80163,135.770985
2,10.34,34801630,135770985,4,22.5,0,0,0,2,0,0,2,t-1.59 Leftrdn,34.80163,135.770985
2,10.35,34801630,135770985,4,0,0,0,0,2,0,0,2,t-1.04 Leftrdn,34.80163,135.770985
2,10.36,34801630,135770985,4,33.75,0,0,0,2,0,0,2,t-1.04 Leftrdn,34.80163,135.770985
2,10.37,34801630,135770985,4,56.25,0,0,0,2,0,0,2,t-1.04 Leftrdn,34.80163,135.770985
2,10.39,34801630,135770985,3,56.25,0,0,0,2,0,0,2,t-1.04 Leftrdn,34.80163,135.770985
2,10.4,34801630,135770985,3,56.25,0,0,0,2,0,0,2,t-1.04 Leftrdn,34.80163,135.770985
2,10.41,34801630,135770986,4,56.25,0,0,0,2,0,0,2,t-1.70 Leftrdn,34.80163,135.770986
2,10.42,34801630,135770986,4,33.75,0,0,0,2,0,0,2,t-1.70 Leftrdn,34.80163,135.770986
2,10.43,34801630,135770986,4,22.5,0,0,0,2,0,0,2,t-1.70 Leftrdn,34.80163,135.770986
2,10.44,34801630,135770986,3,22.5,0,0,0,2,0,0,2,t-1.70 Leftrdn,34.80163,135.770986
2,10.45,34801630,135770986,3,22.5,0,0,0,2,0,0,2,t-1.70 Leftrdn,34.80163,135.770986
2,10.46,34801629,135770987,4,22.5,0,0,0,2,0,0,2,t-1.07 Leftrdn,34.801629,135.770987
2,10.47,34801629,135770987,4,0,0,0,0,2,0,0,2,t-0.81 Leftrdn,34.801629,135.770987
2,10.48,34801629,135770987,4,348.75,0,0,0,2,0,0,2,t-0.61 Leftrdn,34.801629,135.770987
2,10.49,34801629,135770987,4,337.5,0,0,0,2,0,0,2,t-0.61 Leftrdn,34.801629,135.770987
2,10.5,34801629,135770987,3,337.5,0,0,0,2,0,0,2,t-0.61 Leftrdn,34.801629,135.770987
2,10.51,34801629,135770987,4,337.5,0,0,0,2,0,0,2,t-0.40 Leftrdn,34.801629,135.770987
2,10.52,34801629,135770987,4,0,0,0,0,2,0,0,2,t-0.40 Leftrdn,34.801629,135.770987
2,10.53,34801628,135770987,4,33.75,0,0,0,2,0,0,2,t-1.37 Leftrdn,34.801628,135.770987
2,10.54,34801628,135770988,4,33.75,0,0,0,2,0,0,2,t-1.24 Leftrdn,34.801628,135.770988
2,10.55,34801628,135770988,4,22.5,0,0,0,2,0,0,2,t-1.24 Leftrdn,34.801628,135.770988
2,10.56,34801628,135770988,3,0,0,0,0,2,0,0,2,t-1.24 Leftrdn,34.801628,135.770988
2,10.57,34801628,135770988,3,348.75,0,0,0,2,0,0,2,t-1.24 Leftrdn,34.801628,135.770988
2,10.58,34801628,135770988,4,326.25,11.2,0,0,2,0,0,2,t-0.50 Leftrdn,34.801628,135.770988
2,10.59,34801628,135770988,4,337.5,0,0,0,2,0,0,2,t-0.50 Leftrdn,34.801628,135.770988
2,11,34801627,135770988,4,292.5,0,0,0,0,0,0,2,t-0.37 Forwardn,34.801627,135.770988
2,11.1,34801627,135770988,4,326.25,0,0,0,0,0,0,2,t-0.37 Forwardn,34.801627,135.770988
2,11.2,34801627,135770988,3,326.25,0,0,0,0,0,0,2,t-0.37 Forwardn,34.801627,135.770988
2,11.3,34801627,135770988,3,326.25,0,0,0,0,0,0,2,t-0.37 Forwardn,34.801627,135.770988
2,11.5,34801627,135770988,4,292.5,0,0,0,0,0,0,2,t-0.07 Forwardn,34.801627,135.770988
2,11.6,34801627,135770988,4,315,0,0,0,0,0,0,2,t-0.07 Forwardn,34.801627,135.770988
2,11.7,34801627,135770988,4,303.75,0,0,0,0,0,0,2,t0.06 Forwardn,34.801627,135.770988
2,11.8,34801627,135770988,4,326.25,0,0,0,0,0,0,2,t0.06 Forwardn,34.801627,135.770988
2,11.9,34801627,135770988,3,326.25,0,0,0,0,0,0,2,t0.06 Forwardn,34.801627,135.770988
2,11.1,34801626,135770988,4,326.25,0,0,0,0,0,0,2,t-0.13 Forwardn,34.801626,135.770988
2,11.11,34801626,135770988,4,303.75,0,0,0,0,0,0,2,t-0.13 Forwardn,34.801626,135.770988
2,11.12,34801626,135770988,3,326.25,0,0,0,0,0,0,2,t-0.13 Forwardn,34.801626,135.770988
2,11.13,34801626,135770988,3,337.5,0,0,0,0,0,0,2,t-0.13 Forwardn,34.801626,135.770988
2,11.14,34801626,135770988,4,337.5,0,0,0,0,0,0,2,t-0.34 Forwardn,34.801626,135.770988
2,11.15,34801626,135770988,4,315,0,0,0,0,0,0,2,t-0.34 Forwardn,34.801626,135.770988
2,11.16,34801626,135770989,4,326.25,0,0,0,0,0,0,2,t-0.18 Forwardn,34.801626,135.770989
2,11.17,34801626,135770989,3,326.25,0,0,0,0,0,0,2,t-0.18 Forwardn,34.801626,135.770989
2,11.18,34801626,135770989,3,337.5,0,0,0,0,0,0,2,t-0.18 Forwardn,34.801626,135.770989
2,11.19,34801626,135770989,3,337.5,0,0,0,0,0,0,2,t-0.18 Forwardn,34.801626,135.770989
2,11.2,34801625,135770989,4,337.5,0,0,0,2,0,0,2,t-0.41 Leftrdn,34.801625,135.770989
2,11.21,34801625,135770989,4,326.25,0,0,0,0,0,0,2,t-0.16 Forwardn,34.801625,135.770989
2,11.22,34801625,135770989,3,326.25,0,0,0,0,0,0,2,t-0.16 Forwardn,34.801625,135.770989
2,11.23,34801625,135770990,4,337.5,0,0,0,2,0,0,2,t-0.40 Leftrdn,34.801625,135.77099
2,11.24,34801625,135770990,3,326.25,0,0,0,2,0,0,2,t-0.40 Leftrdn,34.801625,135.77099
2,11.25,34801625,135770990,3,326.25,0,0,0,2,0,0,2,t-0.40 Leftrdn,34.801625,135.77099
2,11.26,34801625,135770990,4,292.5,0,0,0,0,0,0,2,t-0.05 Forwardn,34.801625,135.77099
2,11.27,34801625,135770990,4,315,11.2,0,0,0,0,0,2,t-0.06 Forwardn,34.801625,135.77099
2,11.28,34801625,135770990,3,337.5,0,0,0,0,0,0,2,t-0.06 Forwardn,34.801625,135.77099
2,11.29,34801625,135770990,4,303.75,11.2,0,0,0,0,0,2,t-0.39 Forwardn,34.801625,135.77099
2,11.31,34801625,135770990,3,315,0,0,0,0,0,0,2,t-0.39 Forwardn,34.801625,135.77099
2,11.32,34801625,135770990,3,315,0,0,0,0,0,0,2,t-0.39 Forwardn,34.801625,135.77099
2,11.33,34801625,135770990,4,281.25,0,0,0,0,0,0,2,t0.01 Forwardn,34.801625,135.77099
2,11.34,34801625,135770990,3,303.75,0,0,0,0,0,0,2,t0.01 Forwardn,34.801625,135.77099
2,11.35,34801624,135770990,4,303.75,0,0,0,0,0,0,2,t0.17 Forwardn,34.801624,135.77099
2,11.36,34801624,135770990,3,326.25,0,0,0,0,0,0,2,t0.17 Forwardn,34.801624,135.77099
2,11.37,34801624,135770990,3,337.5,0,0,0,0,0,0,2,t0.17 Forwardn,34.801624,135.77099
2,11.38,34801624,135770991,4,337.5,0,0,0,0,0,0,2,t-0.39 Forwardn,34.801624,135.770991
2,11.39,34801624,135770991,4,315,0,0,0,0,0,0,2,t0.10 Forwardn,34.801624,135.770991
2,11.4,34801624,135770991,3,326.25,0,0,0,0,0,0,2,t0.10 Forwardn,34.801624,135.770991
2,11.41,34801624,135770991,4,337.5,0,0,0,0,0,0,2,t-0.31 Forwardn,34.801624,135.770991
2,11.42,34801624,135770991,3,348.75,0,0,0,0,0,0,2,t-0.31 Forwardn,34.801624,135.770991
2,11.43,34801624,135770991,3,0,0,0,0,0,0,0,2,t-0.31 Forwardn,34.801624,135.770991
2,11.44,34801624,135770991,3,11.25,0,0,0,0,0,0,2,t-0.31 Forwardn,34.801624,135.770991
2,11.45,34801623,135770992,4,11.25,0,0,0,2,0,0,2,t-0.89 Leftrdn,34.801623,135.770992
2,11.46,34801623,135770992,3,11.25,0,0,0,2,0,0,2,t-0.89 Leftrdn,34.801623,135.770992
2,11.47,34801623,135770992,4,22.5,0,0,0,2,0,0,2,t-1.18 Leftrdn,34.801623,135.770992
2,11.48,34801623,135770992,3,0,0,0,0,2,0,0,2,t-1.18 Leftrdn,34.801623,135.770992
2,11.49,34801623,135770992,3,0,0,0,0,2,0,0,2,t-1.18 Leftrdn,34.801623,135.770992
2,11.5,34801623,135770992,4,0,0,0,0,2,0,0,2,t-0.74 Leftrdn,34.801623,135.770992
2,11.51,34801623,135770992,4,11.25,0,0,0,2,0,0,2,t-1.07 Leftrdn,34.801623,135.770992
2,11.52,34801623,135770992,3,56.25,0,0,0,2,0,0,2,t-1.07 Leftrdn,34.801623,135.770992
2,11.53,34801623,135770992,3,56.25,0,0,0,2,0,0,2,t-1.07 Leftrdn,34.801623,135.770992
2,11.54,34801623,135770992,3,56.25,0,0,0,2,0,0,2,t-1.07 Leftrdn,34.801623,135.770992
2,11.55,34801623,135770993,4,90,0,0,0,2,0,0,2,t-1.73 Leftrdn,34.801623,135.770993
2,11.57,34801622,135770993,3,67.5,0,0,0,2,0,0,2,t-1.83 Leftrdn,34.801622,135.770993
2,11.58,34801622,135770993,3,56.25,0,0,0,2,0,0,2,t-1.83 Leftrdn,34.801622,135.770993
2,11.59,34801622,135770993,3,45,0,0,0,2,0,0,2,t-1.83 Leftrdn,34.801622,135.770993
2,12,34801622,135770993,3,56.25,0,0,0,2,0,0,2,t-1.59 Leftrdn,34.801622,135.770993
2,12.1,34801622,135770993,3,67.5,0,0,0,2,0,0,2,t-1.59 Leftrdn,34.801622,135.770993
2,12.2,34801622,135770993,3,67.5,0,0,0,2,0,0,2,t-1.59 Leftrdn,34.801622,135.770993
2,12.3,34801622,135770993,3,67.5,0,0,0,2,0,0,2,t-1.59 Leftrdn,34.801622,135.770993
2,12.4,34801622,135770993,3,67.5,0,0,0,2,0,0,2,t-1.59 Leftrdn,34.801622,135.770993
2,12.5,34801622,135770993,3,67.5,0,0,0,2,0,0,2,t-1.91 Leftrdn,34.801622,135.770993
2,12.6,34801622,135770993,3,90,0,0,0,2,0,0,2,t-1.91 Leftrdn,34.801622,135.770993
2,12.7,34801622,135770993,3,101.25,0,0,0,2,0,0,2,t-1.91 Leftrdn,34.801622,135.770993
2,12.8,34801622,135770993,3,101.25,0,0,0,2,0,0,2,t-2.45 Leftrdn,34.801622,135.770993
2,12.9,34801622,135770993,3,78.75,0,0,0,2,0,0,2,t-2.45 Leftrdn,34.801622,135.770993
2,12.1,34801621,135770993,3,78.75,0,0,0,2,0,0,2,t-2.12 Leftrdn,34.801621,135.770993
2,12.11,34801621,135770993,3,90,0,0,0,2,0,0,2,t-2.12 Leftrdn,34.801621,135.770993
2,12.12,34801621,135770993,3,90,0,0,0,2,0,0,2,t-2.12 Leftrdn,34.801621,135.770993
2,12.13,34801621,135770993,3,101.25,0,0,0,2,0,0,2,t-2.27 Leftrdn,34.801621,135.770993
2,12.14,34801621,135770993,3,112.5,0,0,0,2,0,0,2,t-2.57 Leftrdn,34.801621,135.770993
2,12.15,34801621,135770993,3,101.25,0,0,0,2,0,0,2,t-2.57 Leftrdn,34.801621,135.770993
2,12.16,34801621,135770993,3,101.25,0,0,0,2,0,0,2,t-2.57 Leftrdn,34.801621,135.770993
2,12.17,34801621,135770993,3,101.25,0,0,0,2,0,0,2,t-2.57 Leftrdn,34.801621,135.770993
2,12.18,34801621,135770993,3,101.25,0,0,0,2,0,0,2,t-2.57 Leftrdn,34.801621,135.770993
2,12.19,34801621,135770993,3,112.5,0,0,0,2,0,0,2,t-2.44 Leftrdn,34.801621,135.770993
